[{"id":11231339,"name":"1937t’. Ev Arts’akhyan Paterazmum Zohvatsneri Yerkrord Ashkharhamartum","alt":["1937t'. Ev Arts'akhyan Paterazmum Zohvatsneri Yerkrord Ashkharhamartum","1937թ. և Արցախյան պատերազմում զոհվածների Երկրորդ աշխարհամարտում"],"lon":44.2597,"lat":40.25409,"pop":0},{"id":11336930,"name":"2750-amyakin","alt":["2750-ամյակին"],"lon":44.51251,"lat":40.17651,"pop":0},{"id":617026,"name":"Abovyan","alt":["Abovian","Abovianas","Abovjan","Abowian","Abowjan","Abowyan","Elar","Ellər","a bo wei yang","aboviani","abwfyan  ararat","abwwyan","Абовян","Абовјан","Աբովյան","آبوویان","أبوفيان، أرارات","აბოვიანი","阿博維揚"],"lon":44.63348,"lat":40.27368,"pop":35673},{"id":617027,"name":"Abovyan","alt":["Abovjan","Agbash","Verin Agbash","Verkhniy Agbash","Абовян","Աբովյան"],"lon":44.54742,"lat":40.04851,"pop":1379},{"id":11336830,"name":"Abovyan Kh.","alt":["Abovyan X.","Աբովյան Խ."],"lon":44.5293,"lat":40.19171,"pop":0},{"id":11110456,"name":"Abovyan V.","alt":["Աբովյան Վ."],"lon":44.29309,"lat":40.15832,"pop":0},{"id":11314965,"name":"Abrahami","alt":["Աբրահամի"],"lon":43.97089,"lat":40.71393,"pop":0},{"id":11338823,"name":"Abrahami","alt":["Աբրահամի"],"lon":44.95007,"lat":40.3501,"pop":0},{"id":11321476,"name":"Ach’ajur","alt":["Ach'ajur","Աչաջուր"],"lon":44.7403,"lat":40.75708,"pop":0},{"id":11324064,"name":"Ach’ak’ar","alt":["Ach'ak'ar","Աչաքար"],"lon":45.0639,"lat":40.88611,"pop":0},{"id":10932701,"name":"Ach’ik","alt":["Ach'ik","Աչիկ"],"lon":45.78332,"lat":40.0639,"pop":0},{"id":617024,"name":"Achajur","alt":["Acacur","Ach'ajur","Achadzhur","Achasu","Ach’ajur","Açacur","Hacasu","Haçasu","Ачаджур","Աչաջուր"],"lon":45.14952,"lat":40.98781,"pop":0},{"id":174853,"name":"Achanan","alt":["Acanan","Halaj","KhaladZh","Khalaj","Աճանան"],"lon":46.43108,"lat":39.23619,"pop":0},{"id":11362670,"name":"Acharkut","alt":["Acarkut","Աճարկուտ"],"lon":45.08893,"lat":41.03607,"pop":0},{"id":389217,"name":"Achkhlu","lon":46.30725,"lat":39.2314,"pop":0},{"id":11021586,"name":"Adzetun","alt":["Ajetun","Աձետուն"],"lon":46.06671,"lat":39.32788,"pop":0},{"id":11214673,"name":"Aeroplan","alt":["Աէրոպլան"],"lon":43.8847,"lat":40.33752,"pop":0},{"id":617022,"name":"Agagchi","alt":["Zovasar","Զովասար"],"lon":43.95288,"lat":40.4751,"pop":0},{"id":617021,"name":"Agamzalu","lon":44.46667,"lat":40.06667,"pop":0},{"id":175007,"name":"Agarak","alt":["Aqarak","Агарак","Ագարակ"],"lon":46.5446,"lat":39.20684,"pop":4707},{"id":175008,"name":"Agarak","alt":["Агарак","Ագարակ"],"lon":46.19463,"lat":38.86506,"pop":0},{"id":617018,"name":"Agarak","alt":["Ագարակ"],"lon":44.46845,"lat":41.01072,"pop":1278},{"id":617020,"name":"Agarak","lon":44.27923,"lat":40.30191,"pop":0},{"id":11108373,"name":"Agarak","alt":["Ագարակ"],"lon":45.21668,"lat":40.31952,"pop":0},{"id":11339823,"name":"Agarak","alt":["Ագարակ"],"lon":45.44873,"lat":40.92511,"pop":0},{"id":175006,"name":"Agarakadzor","alt":["Agarakajor","Ayar","Агаракадзор","Ագարակաձոր"],"lon":45.35553,"lat":39.73608,"pop":1195},{"id":617019,"name":"Agarakavan","alt":["Agarak","Ագարակավան"],"lon":44.07233,"lat":40.33069,"pop":1575},{"id":11312549,"name":"Agaraki","alt":["Ագարակի"],"lon":46.06531,"lat":39.20288,"pop":0},{"id":617014,"name":"Agdzhakishlag","lon":44.43333,"lat":40.13333,"pop":0},{"id":11363436,"name":"Ageghts’i","alt":["Ageghts'i","Ագեղցի"],"lon":44.62512,"lat":41.09168,"pop":0},{"id":11318522,"name":"Aghabeki","alt":["Agabeki","Աղաբեկի"],"lon":45.84448,"lat":40.26947,"pop":0},{"id":10646278,"name":"Aghajanyani","alt":["Agajanyani","Աղաջանյանի"],"lon":45.66809,"lat":39.83893,"pop":0},{"id":11325037,"name":"Aghakari","alt":["Aghak'ari","Aghak’ari","Աղաքարի"],"lon":45.31671,"lat":40.51392,"pop":0},{"id":11021520,"name":"Aghandz","alt":["Aganj","Աղանձ"],"lon":46.2279,"lat":39.35553,"pop":0},{"id":8431228,"name":"Aghasi","alt":["Agasi","Razvaliny Agaslu","Աղասի"],"lon":44.88068,"lat":39.98053,"pop":0},{"id":11339448,"name":"Aghasu Ev Gevoriki","alt":["Agasu ev Gevoriki","Աղասու և Գևորիկի"],"lon":43.60968,"lat":41.07928,"pop":0},{"id":11362264,"name":"Aghats’ Arti","alt":["Aghats' Arti","Աղաց արտի"],"lon":46.18469,"lat":38.97229,"pop":0},{"id":175002,"name":"Aghavnadzor","alt":["Agavnadzor","Agavnajor","Akhavnadzor","Aynadzor","Агавнадзор","Աղավնաձոր"],"lon":45.2279,"lat":39.78607,"pop":1925},{"id":617003,"name":"Aghavnadzor","alt":["Agavnadzor","Akhavnadzor","Babakishi","Агавнадзор"],"lon":44.69581,"lat":40.58195,"pop":1252},{"id":11370314,"name":"Aghavnadzor","alt":["Agavnajor","Աղավնաձոր"],"lon":44.69733,"lat":40.69733,"pop":0},{"id":10426583,"name":"Aghavnadzori","alt":["Agavnajori","Աղավնաձորի"],"lon":45.23053,"lat":39.75848,"pop":0},{"id":617002,"name":"Aghavnatun","alt":["Agavnatun","Akhavnatukh","Akhavnatun","Агавнатун","Ахавнатун","Աղավնատուն"],"lon":44.25295,"lat":40.2333,"pop":2913},{"id":617012,"name":"Aghavnavank’","alt":["Aghavnavank'","Salah","Salakh","Աղավնավանք"],"lon":45.09253,"lat":40.72259,"pop":0},{"id":10643385,"name":"Aghavnots’","alt":["Aghavnots'","Աղավնոց"],"lon":45.49451,"lat":39.6861,"pop":0},{"id":11342943,"name":"Aghavnut","alt":["Agavnut","Աղավնուտ"],"lon":45.05831,"lat":40.7555,"pop":0},{"id":11230692,"name":"Aghberak","alt":["Agberak","Աղբերակ"],"lon":44.27519,"lat":40.38502,"pop":0},{"id":11364119,"name":"Aghberak","alt":["Agberak","Աղբերակ"],"lon":44.25848,"lat":40.95428,"pop":0},{"id":617011,"name":"Aghberk’","alt":["Agbulag","Agbulakh","Agbulalakh","Aghberk'","Агбулах","Աղբերք"],"lon":45.27937,"lat":40.52986,"pop":0},{"id":11318161,"name":"Aghbraver","alt":["Agbraver","Աղբրավեր"],"lon":45.71668,"lat":40.13892,"pop":0},{"id":11128928,"name":"Aghbrik","alt":["Agbrik","Աղբրիկ"],"lon":44.10828,"lat":40.35828,"pop":0},{"id":11321474,"name":"Aghchots’ Khach’","alt":["Aghchots' Khach'","Աղճոց Խաչ"],"lon":44.6889,"lat":40.77368,"pop":0},{"id":617010,"name":"Aghdzk’","alt":["Aghdzk'","Aghts'k'","Aghts’k’","Akhs","Dzorap","Աղձք"],"lon":44.25568,"lat":40.3139,"pop":0},{"id":10426493,"name":"Aghdzvan","alt":["Agjvan","Աղձվան"],"lon":45.02789,"lat":39.90008,"pop":0},{"id":10426498,"name":"Aghdzvan","alt":["Agjvan","Աղձվան"],"lon":45.00848,"lat":36.93048,"pop":0},{"id":10426500,"name":"Aghdzvani K’ar","alt":["Aghdzvani K'ar","Աղձվանի քար"],"lon":45.00153,"lat":39.91949,"pop":0},{"id":11108932,"name":"Aghelich","alt":["Agelic","Աղելիճ"],"lon":45.20007,"lat":40.41669,"pop":0},{"id":11108785,"name":"Aghi Lich","alt":["Agi Lic","Աղի Լիճ"],"lon":45.06671,"lat":40.37091,"pop":0},{"id":617008,"name":"Aghin","alt":["Agin","Агин","Աղին"],"lon":43.69845,"lat":40.58556,"pop":0},{"id":175005,"name":"Aghitu","alt":["Aghudi","Agitu","Agudi","Աղիտու"],"lon":46.08176,"lat":39.51746,"pop":0},{"id":11128614,"name":"Aghjots’","alt":["Aghjots'","Աղջոց"],"lon":44.81811,"lat":40.09448,"pop":0},{"id":391249,"name":"Aghnjadzor","alt":["Aghkend","Agndzhadzor","Agnjajor","Akhkend","Աղնջաձոր"],"lon":45.25012,"lat":39.90008,"pop":0},{"id":10426813,"name":"Aghopen","alt":["Agopen","Աղոպեն"],"lon":45.05659,"lat":39.8317,"pop":0},{"id":10643757,"name":"Aghopen","alt":["Agopen","Աղոպեն"],"lon":45.3501,"lat":39.59168,"pop":0},{"id":11365298,"name":"Aghot’ategh","alt":["Aghot'ategh","Աղոթատեղ"],"lon":44.20007,"lat":40.64587,"pop":0},{"id":11330143,"name":"Aghvanadzor","alt":["Agvanajor","Աղվանաձոր"],"lon":46.3111,"lat":38.98889,"pop":0},{"id":175004,"name":"Aghvani","alt":["Agvani","Khoghvani","Агвани","Աղվանի"],"lon":46.30539,"lat":39.35506,"pop":0},{"id":11191801,"name":"Aghvani","alt":["Agvani","Աղվանի"],"lon":45.61951,"lat":39.65832,"pop":0},{"id":617005,"name":"Aghveran","alt":["Agveran","Աղվերան"],"lon":44.59112,"lat":40.49894,"pop":0},{"id":11215025,"name":"Aghvesi Bner","alt":["Agvesi bner","Աղվեսի բներ"],"lon":43.96527,"lat":40.44311,"pop":0},{"id":617009,"name":"Aghvorik","alt":["Agvorik","Eni-El","Karanamaz","Yeni-Yel","Yeni-Yël","Yeniyol","Ени-Ел","Աղվորիկ"],"lon":43.76346,"lat":41.07735,"pop":0},{"id":617013,"name":"Aghyokhush","alt":["Agekhush","Agexus","Agëkhush","Ağexuş"],"lon":45.83789,"lat":40.26005,"pop":0},{"id":859706,"name":"Aghyokhush","alt":["Agexus","Ağexuş"],"lon":45.83194,"lat":40.27917,"pop":0},{"id":11214448,"name":"Agit","alt":["Ագիտ"],"lon":43.80011,"lat":40.34168,"pop":0},{"id":800107,"name":"Agkilisa","lon":45.02884,"lat":40.7084,"pop":0},{"id":800244,"name":"Agkilisa","lon":44.09083,"lat":40.95444,"pop":0},{"id":389359,"name":"Agnilisa","lon":45.16583,"lat":39.84583,"pop":0},{"id":11335733,"name":"Ahasar","alt":["Ահասար"],"lon":45.14587,"lat":40.1167,"pop":0},{"id":617000,"name":"Ahnidzor","alt":["Ahnijor","Akhnidzor","Ահնիձոր"],"lon":44.82041,"lat":40.90764,"pop":0},{"id":175003,"name":"Ajabaj","alt":["Achpach","Adzhebadzh","Adzhibadzh","Ajaraj","Ajaran","Ajbaj","Ajbej","Ajbij","Ajebach'","Ajebach’","Ajebaj","Ajevach'","Ajevach’","Ajibaj","Hajibaj","Աջաբաջ"],"lon":46.08331,"lat":39.25293,"pop":0},{"id":11323957,"name":"Ajakon","alt":["Աջակոն"],"lon":45.17792,"lat":40.94171,"pop":0},{"id":866164,"name":"Ajap’nyak","alt":["Aj'ap'nyak","Ajap'nyak","Aj’ap’nyak","Աջափնյակ"],"lon":44.47056,"lat":40.19917,"pop":0},{"id":175009,"name":"Ajylu","alt":["AdZhilu","Ajilu","Ajlu","Ajrlu","Razvaliny AdZhilu","T'unis Ajylu","T’unis Ajylu"],"lon":46.242,"lat":39.17729,"pop":0},{"id":11318835,"name":"Ak’lorik","alt":["Ak'lorik","Աքլորիկ"],"lon":44.19452,"lat":40.90289,"pop":0},{"id":11231126,"name":"Akhandak","alt":["Axandak","Ախանդակ"],"lon":44.37231,"lat":40.37512,"pop":0},{"id":616997,"name":"Akhbrak","alt":["Agpara","Akhpyurak"],"lon":44.73524,"lat":40.50706,"pop":0},{"id":389343,"name":"Akhkend","lon":45.60056,"lat":39.77444,"pop":0},{"id":175001,"name":"Akhlat’yan","alt":["Akhlat'yan","Akhlatian","Akhlatyan","Alkhat'yan","Alkhat’yan","Ախլաթյան"],"lon":46.04169,"lat":39.4389,"pop":0},{"id":11255834,"name":"Akhorrik","alt":["Axorik","Ախոռիկ"],"lon":44.76392,"lat":40.73328,"pop":0},{"id":616080,"name":"Akhpradzor","alt":["Axpradzor (Yuxari Zagali)","Axpradzor (Yuxarı Zağalı)","Axprajor","Verkhniy Zagalu","Ախպրաձոր"],"lon":45.64096,"lat":40.09767,"pop":0},{"id":616101,"name":"Akht’ala","alt":["Akht'ala","Verin Akhtala","Verkhnyaya Akhtala","Ախթալա"],"lon":44.75811,"lat":41.16838,"pop":1989},{"id":616995,"name":"Akht’ala","alt":["Akht'ala","Akhtala","Nizhnyaya Akhtala","Ахтала","Ախթալա"],"lon":44.76678,"lat":41.15192,"pop":0},{"id":175000,"name":"Akhta","alt":["Axta","Ախտա"],"lon":45.56671,"lat":39.64728,"pop":0},{"id":616990,"name":"Akhurik","alt":["Axurik","Karakilisa Turki","Ախուրիկ"],"lon":43.77674,"lat":40.74212,"pop":0},{"id":616989,"name":"Akhuryan","alt":["Akhurjan","Axuryan","Duzk'end","Duzk'end Mets","Duzk'yand","Duzk’end","Duzk’end Mets","Duzk’yand","Ахурян","Ախուրյան"],"lon":43.90027,"lat":40.78003,"pop":7672},{"id":11315126,"name":"Akhuryan Kayaranin Kits’","alt":["Akhuryan Kayaranin Kits'","Ախուրյան կայարանին կից"],"lon":43.79028,"lat":40.73889,"pop":0},{"id":11318731,"name":"Akhuryani","alt":["Axuryani","Ախուրյանի"],"lon":43.08331,"lat":40.76111,"pop":0},{"id":616380,"name":"Aknaghbyur","alt":["Aknagbyur","Nerkin Agdan","Nizhniy Agdan","Ակնաղբյուր"],"lon":45.15832,"lat":40.96393,"pop":0},{"id":616853,"name":"Aknalich","alt":["Aknalic","Aygerlich","Акналич","Ակնալիճ"],"lon":44.16669,"lat":40.14728,"pop":2654},{"id":866089,"name":"Aknashen","lon":44.28604,"lat":40.09551,"pop":1362},{"id":174941,"name":"Akner","alt":["Brun","Ակներ","Բրուն"],"lon":46.30732,"lat":39.53491,"pop":1028},{"id":616984,"name":"Akner","alt":["Ակներ"],"lon":44.69226,"lat":41.08172,"pop":0},{"id":11318141,"name":"Akner","alt":["Ակներ"],"lon":45.73889,"lat":40.1875,"pop":0},{"id":616983,"name":"Akori","alt":["Ak'ori","Ak’ori","Акори","Աքորի"],"lon":44.6173,"lat":41.08976,"pop":0},{"id":8849009,"name":"Akunk","lon":44.41116,"lat":40.16954,"pop":0},{"id":616980,"name":"Akunk’","alt":["Akunk","Akunk'","Gezlu","Акунк","Ակունք"],"lon":43.90832,"lat":40.42511,"pop":0},{"id":616981,"name":"Akunk’","alt":["Akunk'","Bashgyukh","Ակունք"],"lon":44.6861,"lat":40.26672,"pop":1787},{"id":616982,"name":"Akunk’","alt":["Akunk","Akunk'","Kirkhbulag","Ակունք"],"lon":45.66335,"lat":40.14954,"pop":3444},{"id":10646277,"name":"Akunk’","alt":["Akunk'","Ակունք"],"lon":45.65832,"lat":39.81531,"pop":0},{"id":616979,"name":"Alagyaz","alt":["Alagez","Alagjaz","Alagëz","Bol'shoy Dzhamushli","Bol’shoy Dzhamushli","Dzhamushli","Dzhamushlu Bol'shoy","Dzhamushlu Bol’shoy","Mets Dzhamshlu","Mets Jamyshlu","Алагяз"],"lon":44.2868,"lat":40.68082,"pop":0},{"id":11370208,"name":"Alagyaz","alt":["Ալագյազ"],"lon":44.68048,"lat":40.68048,"pop":0},{"id":616978,"name":"Alap’ars","alt":["Alap'ars","Alapars","Алапарс","Ալափարս"],"lon":44.63348,"lat":40.4223,"pop":0},{"id":616208,"name":"Alashkert","alt":["Alaskert","Kyarimarkh","Sovetakan","Советакан","Ալաշկերտ"],"lon":44.05108,"lat":40.10712,"pop":1613},{"id":616976,"name":"Alatala","lon":45.4487,"lat":40.79059,"pop":0},{"id":616974,"name":"Alaverdi","alt":["Alaverdo","Alaverdy","Alawerdi","Alawerdy","Allahverdi","Allaverdy","Manes","a la wei er di","alaverdi","Алаверди","Алаверді","Ալավերդի","الله‌وردی","ალავერდი","阿拉韋爾迪"],"lon":44.67316,"lat":41.09766,"pop":13184},{"id":11230399,"name":"Alek’ Barner","alt":["Alek' Barner","Ալեք Բարներ"],"lon":44.41669,"lat":40.44311,"pop":0},{"id":11230635,"name":"Alek’sani K’arkapani","alt":["Alek'sani K'arkapani","Ալեքսանի քարկապանի"],"lon":44.32648,"lat":40.45831,"pop":0},{"id":389338,"name":"Alikhan-Payasy","lon":45.29111,"lat":39.81278,"pop":0},{"id":11364283,"name":"Alishan","alt":["Alisan","Ալիշան"],"lon":44.32648,"lat":40.88611,"pop":0},{"id":11021889,"name":"Alkhiyani Khach’","alt":["Alkhiyani Khach'","Ալխիյանի Խաչ"],"lon":46.15692,"lat":39.46668,"pop":0},{"id":11335732,"name":"Aloyi Averakner","alt":["Aloyi averakner","Ալոյի ավերակներ"],"lon":45.17511,"lat":40.10828,"pop":0},{"id":11110098,"name":"Alu Dik’er","alt":["Alu Dik'er","Ալու դիքեր"],"lon":44.47369,"lat":40.0293,"pop":0},{"id":7648823,"name":"Alvank","alt":["Alvanq"],"lon":46.34657,"lat":38.9349,"pop":0},{"id":174999,"name":"Alvank’","alt":["Aldara","Alvank'","Ալվանք"],"lon":46.34679,"lat":38.93794,"pop":0},{"id":616972,"name":"Alvar","alt":["Duzkend","Ալվար"],"lon":43.73976,"lat":41.0545,"pop":0},{"id":174998,"name":"Amaghu","alt":["Amagu","Ամաղու"],"lon":45.23328,"lat":39.68189,"pop":0},{"id":11321509,"name":"Amarran","alt":["Amaran","Ամառան"],"lon":44.58331,"lat":40.9043,"pop":0},{"id":11365598,"name":"Amarrots’","alt":["Amarrots'","Ամառոց"],"lon":44.09027,"lat":40.55151,"pop":0},{"id":616970,"name":"Amasia","alt":["Amasiya","Ամասիա"],"lon":43.96668,"lat":40.08331,"pop":0},{"id":616971,"name":"Amasia","alt":["Amasija","Amasiya","Gukasyan","Амасия","Ամասիա"],"lon":43.7872,"lat":40.95442,"pop":1675},{"id":11342893,"name":"Amayi","alt":["Ամայի"],"lon":45.07788,"lat":40.67371,"pop":0},{"id":11335636,"name":"Amayisar","alt":["Ամայիսար"],"lon":45.16669,"lat":40.08612,"pop":0},{"id":11230352,"name":"Ambrots’i Gyugh","alt":["Ambrots'i Gyugh","Ամբրոցի գյուղ"],"lon":44.36108,"lat":40.44733,"pop":0},{"id":11230403,"name":"Amenap’rkich’","alt":["Amenap'rkich'","Ամենափրկիչ"],"lon":44.39447,"lat":40.4375,"pop":0},{"id":11338683,"name":"Amenap’rkich’","alt":["Amenap'rkich'","Ամենափրկիչ"],"lon":44.80969,"lat":40.48053,"pop":0},{"id":11224448,"name":"Amenap’rkich’ Surb","alt":["Amenap'rkich' Surb","Ամենափրկիչ Սուրբ."],"lon":44.22931,"lat":40.19873,"pop":0},{"id":11110457,"name":"Amenayn Hayots’ Kat’oghikos Abraham B Mshets’i","alt":["Amenayn Hayots' Kat'oghikos Abraham B Mshets'i","Ամենայն հայոց կաթողիկոս Աբրահամ Բ Մշեցի"],"lon":44.29309,"lat":40.15832,"pop":0},{"id":11110458,"name":"Amenayn Hayots’ Kat’oghikos Abraham G Kretats’i","alt":["Amenayn Hayots' Kat'oghikos Abraham G Kretats'i","Ամենայն հայոց կաթողիկոս Աբրահամ Գ Կրետացի"],"lon":44.30689,"lat":40.16809,"pop":0},{"id":11110459,"name":"Amenayn Hayots’ Kat’oghikos Astvatsatur Hamadants’i","alt":["Amenayn Hayots' Kat'oghikos Astvatsatur Hamadants'i","Ամենայն հայոց կաթողիկոս Աստվածատուր Համադանցի"],"lon":44.3125,"lat":40.16669,"pop":0},{"id":11110502,"name":"Amenayn Hayots’ Kat’oghikos Ghazar","alt":["Amenayn Hayots' Kat'oghikos Ghazar","Ամենայն հայոց կաթողիկոս Ղազար"],"lon":44.29309,"lat":40.15832,"pop":0},{"id":11110503,"name":"Amenayn Hayots’ Kat’oghikos Ghukas Karnets’i","alt":["Amenayn Hayots' Kat'oghikos Ghukas Karnets'i","Ամենայն հայոց կաթողիկոս Ղուկաս Կարնեցի"],"lon":44.29309,"lat":40.15832,"pop":0},{"id":11110500,"name":"Amenayn Hayots’ Kat’oghikos Hakob Shamakhets’i","alt":["Amenayn Hayots' Kat'oghikos Hakob Shamakhets'i","Ամենայն հայոց կաթողիկոս Հակոբ Շամախեցի"],"lon":44.29309,"lat":40.15832,"pop":0},{"id":11110501,"name":"Amenayn Hayots’ Kat’oghikos Hovsep’ Arghut’yan","alt":["Amenayn Hayots' Kat'oghikos Hovsep' Arghut'yan","Ամենայն հայոց կաթողիկոս Հովսեփ Արղության"],"lon":44.29309,"lat":40.15832,"pop":0},{"id":11110499,"name":"Amenayn Hayots’ Kat’oghikos Karapet Ulnets’i","alt":["Amenayn Hayots' Kat'oghikos Karapet Ulnets'i","Ամենայն հայոց կաթողիկոս Կարապետ Ուլնեցի"],"lon":44.3125,"lat":40.16669,"pop":0},{"id":11110504,"name":"Amenayn Hayots’ Kat’oghikos Mat’eos Kostandnupolsets’i","alt":["Amenayn Hayots' Kat'oghikos Mat'eos Kostandnupolsets'i","Ամենայն հայոց կաթողիկոս Մաթեոս Կոստանդնուպոլսեցի"],"lon":44.29309,"lat":40.15832,"pop":0},{"id":11110505,"name":"Amenayn Hayots’ Kat’oghikos Minas A Aknets’i","alt":["Amenayn Hayots' Kat'oghikos Minas A Aknets'i","Ամենայն հայոց կաթողիկոս Մինաս Ա Ակնեցի"],"lon":44.29309,"lat":40.15832,"pop":0},{"id":11110506,"name":"Amenayn Hayots’ Kat’oghikos Nahapet Yedesats’i","alt":["Amenayn Hayots' Kat'oghikos Nahapet Yedesats'i","Ամենայն հայոց կաթողիկոս Նահապետ Եդեսացի"],"lon":44.30689,"lat":40.16809,"pop":0},{"id":11110508,"name":"Amenayn Hayots’ Kat’oghikos P’ilipos Aghbakets’i","alt":["Amenayn Hayots' Kat'oghikos P'ilipos Aghbakets'i","Ամենայն հայոց կաթողիկոս Փիլիպոս Աղբակեցի"],"lon":44.3125,"lat":40.16669,"pop":0},{"id":11110507,"name":"Amenayn Hayots’ Kat’oghikos Simion A Yerevants’i","alt":["Amenayn Hayots' Kat'oghikos Simion A Yerevants'i","Ամենայն հայոց կաթողիկոս Սիմիոն Ա Երևանցի"],"lon":44.29309,"lat":40.15832,"pop":0},{"id":11110460,"name":"Amenayn Hayots’ Kat’oghikos Yeghiazar A Aynt’ap’ts’i","alt":["Amenayn Hayots' Kat'oghikos Yeghiazar A Aynt'ap'ts'i","Ամենայն հայոց կաթողիկոս Եղիազար Ա Այնթափցի"],"lon":44.29309,"lat":40.15832,"pop":0},{"id":616965,"name":"Amoj","alt":["Amodzh","Ամոջ"],"lon":44.59669,"lat":41.05934,"pop":0},{"id":11362465,"name":"Amrak’ar","alt":["Amrak'ar","Ամրաքար"],"lon":46.21668,"lat":38.95288,"pop":0},{"id":616531,"name":"Amrakits","alt":["Amrakits'","Amrakits’","Kirov","Nikolayevka","Ամրակից"],"lon":44.43883,"lat":40.99415,"pop":0},{"id":11314967,"name":"Amrots’","alt":["Amrots'","Ամրոց"],"lon":43.95972,"lat":40.67511,"pop":0},{"id":11105589,"name":"Amul","alt":["Ամուլ"],"lon":46.28607,"lat":39.08612,"pop":0},{"id":11325093,"name":"Anahti Bats’at","alt":["Anahti Bats'at","Անահտի բացատ"],"lon":45.34729,"lat":40.70569,"pop":0},{"id":11342998,"name":"Anani","alt":["Անանի"],"lon":45.1557,"lat":40.56952,"pop":0},{"id":11021994,"name":"Anapat","alt":["Անապատ"],"lon":46.15692,"lat":39.44592,"pop":0},{"id":11318152,"name":"Anapat","alt":["Անապատ"],"lon":45.66388,"lat":40.12231,"pop":0},{"id":11328333,"name":"Anapat","alt":["Անապատ"],"lon":46.31952,"lat":39.42511,"pop":0},{"id":11330621,"name":"Anapat","alt":["Անապատ"],"lon":46.07092,"lat":39.50848,"pop":0},{"id":11330622,"name":"Anapat","alt":["Անապատ"],"lon":46.06952,"lat":39.5097,"pop":0},{"id":11363369,"name":"Anasnagom","alt":["Անասնագոմ"],"lon":44.72931,"lat":41.17371,"pop":0},{"id":616964,"name":"Anastasavan","lon":44.47944,"lat":40.21917,"pop":0},{"id":11128570,"name":"Ando","alt":["Անդո"],"lon":44.7959,"lat":40.16107,"pop":0},{"id":11364433,"name":"Andorr","alt":["Անդորր"],"lon":44.27508,"lat":40.99872,"pop":0},{"id":11056167,"name":"Andranik Surb","alt":["Andranik Surb.","Անդրանիկ Սուրբ."],"lon":44.68329,"lat":39.83331,"pop":0},{"id":11364351,"name":"Andraniki","alt":["Անդրանիկի"],"lon":44.37091,"lat":40.88208,"pop":0},{"id":11108458,"name":"Andzav","alt":["Anjav","Անձավ"],"lon":45.15289,"lat":40.26111,"pop":0},{"id":11214613,"name":"Andzavadzori","alt":["Anjavajori","Անձավաձորի"],"lon":43.78332,"lat":40.35553,"pop":0},{"id":11342906,"name":"Andzavajur","alt":["Anjavajur","Անձավաջուր"],"lon":45.13611,"lat":40.66669,"pop":0},{"id":11318893,"name":"Andzavi","alt":["Anjavi","Անձավի"],"lon":44.14313,"lat":40.76672,"pop":0},{"id":11370168,"name":"Andzavi Aghbyur","alt":["Anjavi agbyur","Անձավի աղբյուր"],"lon":44.50153,"lat":40.58893,"pop":0},{"id":11365388,"name":"Andzavik","alt":["Anjavik","Անձավիկ"],"lon":44.01111,"lat":40.70007,"pop":0},{"id":174997,"name":"Angeghakot’","alt":["Angeghakot'","Angekhakot","Angelaut","Անգեղակոթ"],"lon":45.94452,"lat":39.56952,"pop":1726},{"id":11231158,"name":"Angersak","alt":["Անգերսակ"],"lon":44.32233,"lat":40.38068,"pop":0},{"id":11132867,"name":"Aniavan","alt":["Անիավան"],"lon":43.64587,"lat":40.46393,"pop":0},{"id":616962,"name":"Anipemza","alt":["Анипемза","Անիպեմզա"],"lon":43.6029,"lat":40.44311,"pop":0},{"id":11129454,"name":"Anjrdii","alt":["Անջրդիի"],"lon":44.0307,"lat":40.36951,"pop":0},{"id":11318010,"name":"Anmerr","alt":["Anmer","Անմեռ"],"lon":45.51111,"lat":40.13208,"pop":0},{"id":11321086,"name":"Antarasherti","alt":["Antaraserti","Antarrasherti","Անտառաշերտի"],"lon":44.65289,"lat":40.99731,"pop":0},{"id":616957,"name":"Antarramej","alt":["Meshakend"],"lon":45.08712,"lat":40.68446,"pop":0},{"id":616958,"name":"Antarramut","alt":["Antaramut","K'olageran","Kalagiran","K’olageran","Անտառամուտ"],"lon":44.56243,"lat":40.93317,"pop":0},{"id":174996,"name":"Antarrashat","alt":["Antarasat","Antarashat","Antaraşat","Dort'ni","Dort’ni","Torini","Tort'in","Tort'n","Tortni","Tort’in","Tort’n","Անտառաշատ"],"lon":46.33861,"lat":39.30536,"pop":0},{"id":11370538,"name":"Antarrashen","alt":["Antarasen","Անտառաշեն"],"lon":44.62091,"lat":40.74451,"pop":0},{"id":616956,"name":"Antarrut","alt":["Antarut","Inaklu","Անտառուտ"],"lon":44.26392,"lat":40.35553,"pop":0},{"id":11315579,"name":"Antonents’","alt":["Antonents'","Անտոնենց"],"lon":43.94733,"lat":40.65832,"pop":0},{"id":616955,"name":"Anushavan","alt":["Anusavan","Parni","Pokr Parni","Анушаван","Անուշավան"],"lon":43.98053,"lat":40.65008,"pop":1532},{"id":11021581,"name":"Anzni","alt":["Անզնի"],"lon":46.11951,"lat":39.25293,"pop":0},{"id":616948,"name":"Ap’nagyugh","alt":["Ap'nagyugh","Apnagyukh","Ափնագյուղ"],"lon":44.39728,"lat":40.4389,"pop":0},{"id":616954,"name":"Apaga","alt":["Verin Turkmenlu","Апага","Ապագա"],"lon":44.25293,"lat":40.09729,"pop":1634},{"id":389336,"name":"Apana","alt":["Abak","Letnik Abaka","Ապանա"],"lon":45.26293,"lat":39.7873,"pop":0},{"id":616953,"name":"Aparan","alt":["Abaran","Abaran Verin","Aparan Verin","Aparanas","Aparanbol","Aparanpol","Bash Abaran","Bash Aparan","Dash Abaron","K'asagh","K'asakh","K’asagh","K’asakh","P'araznavert","Pash Aparan","P’araznavert","a pa lan","abaran","aparan","Апаран","Ապարան","آپاران","أباران","აპარანი","阿帕蘭"],"lon":44.3589,"lat":40.59323,"pop":5670},{"id":11108790,"name":"Aparank’","alt":["Aparank'","Ապարանք"],"lon":45.02368,"lat":40.38208,"pop":0},{"id":11230986,"name":"Aparank’","alt":["Aparank'","Ապարանք"],"lon":44.37793,"lat":40.33752,"pop":0},{"id":616949,"name":"Apaven","alt":["Sariar","Ապավեն"],"lon":44.3535,"lat":41.21514,"pop":0},{"id":11314968,"name":"Apuni","alt":["Ապունի"],"lon":43.96948,"lat":40.69452,"pop":0},{"id":616940,"name":"Ara","alt":["Arai","Bazardzhug","Արա"],"lon":44.37512,"lat":40.45831,"pop":0},{"id":11336787,"name":"Arabkiri","alt":["Արաբկիրի"],"lon":44.52087,"lat":40.22089,"pop":0},{"id":616944,"name":"Aragats","alt":["Aragac","Kaznafar","Арагац","Արագած"],"lon":44.3529,"lat":40.48889,"pop":2707},{"id":616946,"name":"Aragats","alt":["Aragac","Khznauz","Арагатс","Արագած"],"lon":44.23328,"lat":40.21948,"pop":0},{"id":11129535,"name":"Aragats","alt":["Aragac","Արագած"],"lon":44.01111,"lat":40.44452,"pop":0},{"id":616945,"name":"Aragatsavan","alt":["Alages","Alagez","Alagyaz","Alagyoz","Alagëz","Aragac","Aragacavan","Aragats","Арагац","Արագածավան"],"lon":43.66205,"lat":40.32121,"pop":0},{"id":11320030,"name":"Aragatsi","alt":["Aragaci","Արագածի"],"lon":44.37653,"lat":40.57507,"pop":0},{"id":616518,"name":"Aragatsotn","alt":["Aragacotn","Koytu","Koytul","Razvaliny Aragatsotn","Արագածոտն"],"lon":44.20007,"lat":40.34448,"pop":0},{"id":823792,"name":"Aragatsotn","alt":["Aragatzotn"],"lon":44.1815,"lat":40.26028,"pop":0},{"id":11106075,"name":"Aragili","alt":["Արագիլի"],"lon":45.86951,"lat":39.55548,"pop":0},{"id":616941,"name":"Aragyugh","alt":["Aragjukh","Aragyug","Aragyukh","Karadzhoran","Арагюх","Արագյուղ"],"lon":44.54449,"lat":40.40289,"pop":999},{"id":616938,"name":"Arak’s","alt":["Arak's","Nerkin Karkhun","Nizhniy Karkhun","Արաքս"],"lon":44.30292,"lat":40.05548,"pop":1442},{"id":11107455,"name":"Arak’s","alt":["Arak's","Արաքս"],"lon":43.95569,"lat":40.09729,"pop":0},{"id":11111095,"name":"Arak’s","alt":["Arak's","Արաքս"],"lon":44.47729,"lat":40.14868,"pop":0},{"id":866136,"name":"Arak’savan","alt":["Arak'savan","Արաքսավան"],"lon":44.46668,"lat":40.00012,"pop":0},{"id":11362867,"name":"Arakelots","alt":["Arrak'elots'","Arrak’elots’","Առաքելոց"],"lon":45.06671,"lat":41.03332,"pop":0},{"id":391233,"name":"Aralez","alt":["Aralek","Արալեզ"],"lon":44.6557,"lat":39.90008,"pop":2354},{"id":616936,"name":"Aramus","alt":["Արամուս"],"lon":44.66351,"lat":40.25095,"pop":3214},{"id":11128531,"name":"Aramus","alt":["Արամուս"],"lon":44.80829,"lat":40.19733,"pop":0},{"id":174991,"name":"Ararat","alt":["Araratas","Ararato","Davalinskiy Tsemzavod","Davalu","alalateu","ararat","ararat  armnstan","ararata","ararato","ya la la","Арарат","Արարատ","אררט","آرارات، ارمنستان","أرارات","ਅਰਾਰਤ","არარატი","アララト","亞拉臘","아라라트"],"lon":44.70569,"lat":39.83069,"pop":28832},{"id":10646279,"name":"Ararat-1","alt":["Արարատ-1"],"lon":45.66809,"lat":39.84168,"pop":0},{"id":10646280,"name":"Ararat-2","alt":["Արարատ-2"],"lon":45.67792,"lat":39.84168,"pop":0},{"id":174989,"name":"Arates","alt":["Ayasasi","Aysasi","Ghzlgyul","Kizilgyul","Արատես"],"lon":45.44171,"lat":39.9057,"pop":0},{"id":11272163,"name":"Aratun","alt":["Արատուն"],"lon":46.33327,"lat":39.56395,"pop":0},{"id":616934,"name":"Aravet","alt":["Chaybasar","Ilanli","Ilanly","Արավետ"],"lon":43.77766,"lat":41.04774,"pop":0},{"id":174987,"name":"Aravus","alt":["Արավուս"],"lon":46.4686,"lat":39.56547,"pop":0},{"id":8504944,"name":"Arayi Hoghamaser","lon":44.42062,"lat":40.4269,"pop":500},{"id":616933,"name":"Arazap’","alt":["Arazap","Arazap'","Evdzhilar","Аразап","Արազափ"],"lon":44.14728,"lat":40.04169,"pop":1373},{"id":174986,"name":"Arazdayan","alt":["Arazdəyən","Արազդայան"],"lon":44.7597,"lat":39.72089,"pop":0},{"id":616932,"name":"Arbat’","alt":["Arbat'","Արբաթ"],"lon":44.40289,"lat":40.13892,"pop":1884},{"id":616931,"name":"Archis","alt":["Arcis","Արճիս"],"lon":44.87631,"lat":41.16351,"pop":1235},{"id":11110586,"name":"Ardar Davit’","alt":["Ardar Davit'","Արդար Դավիթ"],"lon":44.30011,"lat":40.23889,"pop":0},{"id":389309,"name":"Ardech’","alt":["Ardech'","Ertich","Արդեչ"],"lon":45.26687,"lat":39.73318,"pop":0},{"id":616927,"name":"Ardenis","alt":["Dyolli","Gelli","Gëlli","Արդենիս"],"lon":43.72373,"lat":41.07784,"pop":0},{"id":616926,"name":"Ardvi","alt":["Արդվի"],"lon":44.59482,"lat":41.01581,"pop":0},{"id":11341820,"name":"Are","alt":["Արե"],"lon":43.94031,"lat":40.80829,"pop":0},{"id":11056205,"name":"Areg","alt":["Արեգ"],"lon":44.61108,"lat":39.85431,"pop":0},{"id":11129537,"name":"Areg","alt":["Արեգ"],"lon":44.0611,"lat":40.44311,"pop":0},{"id":11339982,"name":"Aregi","alt":["Արեգի"],"lon":45.45831,"lat":40.95569,"pop":0},{"id":616924,"name":"Aregnadem","alt":["Azizbekov","Karachanta"],"lon":43.75237,"lat":40.93146,"pop":0},{"id":616923,"name":"Areguni","alt":["Gjunej","Guney","Gyuney","Güney","Satanakhach","Гюней","Արեգունի"],"lon":45.60857,"lat":40.33783,"pop":0},{"id":174984,"name":"Areni","alt":["Arpa","Арени","Արենի"],"lon":45.18329,"lat":39.71668,"pop":1718},{"id":11230757,"name":"Areni","alt":["Արենի"],"lon":44.41107,"lat":40.33612,"pop":0},{"id":866138,"name":"Arevabuyr","alt":["Արևաբույր"],"lon":44.46948,"lat":40.03607,"pop":1041},{"id":9170097,"name":"Arevadasht","lon":43.93153,"lat":40.13285,"pop":0},{"id":616921,"name":"Arevashat","alt":["Arevasat","Arevashet","Varmaziar","Аревашат","Արևաշատ"],"lon":44.37512,"lat":40.14447,"pop":1403},{"id":616920,"name":"Arevashogh","alt":["Arevashokh","Arevasog","Chigdamal","Chikdamal","Аревашох","Արևաշող"],"lon":44.27438,"lat":40.86039,"pop":2435},{"id":616919,"name":"Arevatsag","alt":["Arevacag","Kachagan","Արևածագ"],"lon":44.60911,"lat":40.97211,"pop":0},{"id":616917,"name":"Arevik","alt":["Tapadolag","Tapadolak","Аревик","Արևիկ"],"lon":43.9043,"lat":40.7417,"pop":1522},{"id":616918,"name":"Arevik","alt":["Agdzharkh","Аревик","Արևիկ"],"lon":44.09448,"lat":40.1001,"pop":2455},{"id":10643323,"name":"Arevik","alt":["Արևիկ"],"lon":45.46668,"lat":39.6861,"pop":0},{"id":11277977,"name":"Areviki","alt":["Արևիկի"],"lon":43.82373,"lat":41.13751,"pop":0},{"id":174988,"name":"Arevis","alt":["Aravus","Sapar Ali","Shaharshik","Shehirchik","Արևիս"],"lon":45.90022,"lat":39.40634,"pop":0},{"id":616915,"name":"Arevshat","alt":["Arevsat","Yekan","Yekanlar","Аревшат","Արևշատ"],"lon":44.04419,"lat":40.65345,"pop":1623},{"id":616916,"name":"Arevshat","alt":["Arevsat","Arpavar","Lusakert","Nerkin Agbash","Nizhniy Agbash","Аревшат","Արևշատ"],"lon":44.54179,"lat":40.03963,"pop":2089},{"id":11215243,"name":"Arevut","alt":["Արևուտ"],"lon":43.8139,"lat":40.36389,"pop":0},{"id":616913,"name":"Argavand","alt":["Dzhafarapat","Аргаванд","Արգավանդ"],"lon":44.4389,"lat":40.15289,"pop":1703},{"id":616914,"name":"Argavand","alt":["Uzunoba","Аргаванд","Արգավանդ"],"lon":44.09448,"lat":40.0611,"pop":2047},{"id":11329984,"name":"Argavand","alt":["Արգավանդ"],"lon":46.5293,"lat":39.04449,"pop":0},{"id":616912,"name":"Argel","alt":["Arkel","Lusakert","Аргел","Արգել"],"lon":44.6001,"lat":40.37793,"pop":2528},{"id":10427090,"name":"Argichi","alt":["Argici","Արգիճի"],"lon":45.1001,"lat":39.96393,"pop":0},{"id":9170051,"name":"Argina","lon":43.73989,"lat":40.27312,"pop":0},{"id":823821,"name":"Argishti","lon":44.57167,"lat":40.13778,"pop":0},{"id":11255510,"name":"Argishti A-i Ardzanagrut’yun","alt":["Argishti A-i Ardzanagrut'yun","Արգիշտի Ա-ի արձանագրություն"],"lon":44.93048,"lat":40.52228,"pop":0},{"id":11107277,"name":"Argishtikhinili","alt":["Argistixinili","Արգիշտիխինիլի"],"lon":43.99451,"lat":40.08069,"pop":0},{"id":174925,"name":"Arin","alt":["Dailakhlu","Daylakhlu","Արին"],"lon":45.49451,"lat":39.7279,"pop":0},{"id":11190707,"name":"Arjadzor","lon":45.3515,"lat":39.92371,"pop":0},{"id":10426770,"name":"Arjadzori K’arer","alt":["Arjadzori K'arer","Արջաձորի քարեր"],"lon":45.2403,"lat":39.91388,"pop":0},{"id":174970,"name":"Arjaghbyur","alt":["Arjagbyur","Arjagur-Avsarlu","Arrjahur","Avsarlu","Razvaliny Avsarlu","Արջաղբյուր"],"lon":46.25848,"lat":39.13892,"pop":0},{"id":11363358,"name":"Arjal","alt":["Արջալ"],"lon":44.6543,"lat":41.00293,"pop":0},{"id":11370564,"name":"Arjanots’","alt":["Arjanots'","Արջանոց"],"lon":44.66388,"lat":40.7279,"pop":0},{"id":11190603,"name":"Arji Bner","lon":45.4057,"lat":39.82233,"pop":0},{"id":11324068,"name":"Arji Kokher","alt":["Arji koxer","Արջի կոխեր"],"lon":45.23328,"lat":40.76947,"pop":0},{"id":11342962,"name":"Arjik","alt":["Արջիկ"],"lon":45.02649,"lat":40.7417,"pop":0},{"id":11323250,"name":"Arjir","alt":["Արջիր"],"lon":44.76672,"lat":41.08069,"pop":0},{"id":11364254,"name":"Arjovit","alt":["Արջովիտ"],"lon":44.33612,"lat":40.83612,"pop":0},{"id":616930,"name":"Arjut","alt":["Archut","Արջուտ"],"lon":44.37587,"lat":40.86118,"pop":0},{"id":11364457,"name":"Arjut Kayaranin Kits’","alt":["Arjut Kayaranin Kits'","Արջուտ կայարանին կից"],"lon":44.38751,"lat":40.84869,"pop":0},{"id":11320469,"name":"Ark’a","alt":["Ark'a","Արքա"],"lon":44.3515,"lat":40.66528,"pop":0},{"id":10932820,"name":"Ark’anver","alt":["Ark'anver","Արքանվեր"],"lon":45.84168,"lat":40.15008,"pop":0},{"id":11315174,"name":"Ark’ayablur","alt":["Ark'ayablur","Արքայաբլուր"],"lon":43.78332,"lat":40.65692,"pop":0},{"id":11328188,"name":"Ark’ayatur","alt":["Ark'ayatur","Արքայատուր"],"lon":46.37793,"lat":39.42511,"pop":0},{"id":11336736,"name":"Ark’ayits’","alt":["Ark'ayits'","Արքայից"],"lon":44.54451,"lat":40.2611,"pop":0},{"id":11110510,"name":"Ark’episkopos Barseghi","alt":["Ark'episkopos Barseghi","Արքեպիսկոպոս Բարսեղի"],"lon":44.29309,"lat":40.16388,"pop":0},{"id":389339,"name":"Arkaz","alt":["Argyaz","Ferma Argyas","Արկազ"],"lon":45.42792,"lat":39.78332,"pop":0},{"id":616903,"name":"Armanis","alt":["Արմանիս"],"lon":44.32952,"lat":41.01085,"pop":0},{"id":174983,"name":"Armash","alt":["Armas","Արմաշ"],"lon":44.8111,"lat":39.76672,"pop":2434},{"id":616631,"name":"Armavir","alt":["Armaviras","Armaviro","Armawir","Armawîr","Hoktemberyan","Oktember","Oktemberyan","Sardar-Abad","Sardarapat","Sərdarabad","a er ma wei er","aleumabileu","armaviri","armawyr","arumavuiru","Армавир","Армавір","Октембер","Արմավիր","آرماویر","არმავირი","アルマヴィル","阿爾馬維爾","아르마비르"],"lon":44.03815,"lat":40.15446,"pop":25963},{"id":11336951,"name":"Armenakyan A.","alt":["Արմենակյան Ա."],"lon":44.53949,"lat":40.1875,"pop":0},{"id":10426504,"name":"Armok’","alt":["Armok'","Արմոք"],"lon":46.00568,"lat":39.90832,"pop":0},{"id":11277941,"name":"Arp’a","alt":["Arp'a","Արփա"],"lon":43.7959,"lat":41.0097,"pop":0},{"id":616901,"name":"Arp’eni","alt":["Arp'eni","Arpeni","Palutli","Арпени","Արփենի"],"lon":43.90393,"lat":40.91609,"pop":0},{"id":389308,"name":"Arp’i","alt":["Arp'i","Arpa","Արփի"],"lon":45.26672,"lat":39.73889,"pop":0},{"id":11225707,"name":"Arp’i","alt":["Arp'i","Արփի"],"lon":44.91809,"lat":39.98608,"pop":0},{"id":11365058,"name":"Arp’iani","alt":["Arp'iani","Արփիանի"],"lon":44.16248,"lat":40.6167,"pop":0},{"id":616899,"name":"Arpunk","alt":["Arp'unk'","Arp’unk’","Bagar","Արփունք"],"lon":45.7351,"lat":40.28708,"pop":0},{"id":174995,"name":"Arrajadzor","alt":["Ajizur","Arachadzor","Arajajor","Araqadzor","Arch'adzor","Arch’adzor","Arjadzor","Arjazur","Arrach'adzor","Arrach’adzor","Arrajnadzor","Առաջաձոր"],"lon":46.37243,"lat":39.26316,"pop":0},{"id":11105900,"name":"Arrak’eli","alt":["Arrak'eli","Առաքելի"],"lon":45.93469,"lat":39.53888,"pop":0},{"id":11129328,"name":"Arrandznatner","alt":["Aranjnatner","Առանձնատներ"],"lon":44.04169,"lat":40.31671,"pop":0},{"id":616935,"name":"Arrap’i","alt":["Arapi","Arrap'i","Odzhakhkuli","Առափի"],"lon":43.80583,"lat":40.78276,"pop":1738},{"id":11317525,"name":"Arrap’ii","alt":["Arrap'ii","Առափիի"],"lon":43.70288,"lat":40.99872,"pop":0},{"id":11191802,"name":"Arrataghbyur","alt":["Aratagbyur","Առատաղբյուր"],"lon":45.65008,"lat":39.64728,"pop":0},{"id":866082,"name":"Arratashen","alt":["Artashen"],"lon":44.22803,"lat":40.12824,"pop":0},{"id":389316,"name":"Arrinj","alt":["Arindzih","Arinj","Razvaliny Arindzh","Առինջ"],"lon":45.5473,"lat":39.7251,"pop":0},{"id":616908,"name":"Arrinj","alt":["Arindzh","Arinj","Առինջ"],"lon":44.57019,"lat":40.23084,"pop":0},{"id":10526229,"name":"Arrnet","alt":["Arnet","Առնետ"],"lon":45.20288,"lat":39.63751,"pop":0},{"id":11323185,"name":"Arroghjaranin Kits’","alt":["Arroghjaranin Kits'","Առողջարանին կից"],"lon":44.78888,"lat":41.1543,"pop":0},{"id":11108836,"name":"Arrvtnots’","alt":["Arrvtnots'","Առվտնոց"],"lon":45.18189,"lat":40.35968,"pop":0},{"id":11328899,"name":"Arrvtnots’","alt":["Arrvtnots'","Առվտնոց"],"lon":46.39728,"lat":39.30011,"pop":0},{"id":11214616,"name":"Arshaki Tun","alt":["Arsaki tun","Արշակի տուն"],"lon":43.80408,"lat":40.37512,"pop":0},{"id":616898,"name":"Arshaluys","alt":["Arsaluys","Arshalujs","Kerpalu","Kërpalu","Аршалуйс","Արշալույս"],"lon":44.21393,"lat":40.16949,"pop":3808},{"id":616887,"name":"Art’ik","alt":["Art'ik","Artik","Артик","Արթիկ"],"lon":43.97207,"lat":40.61918,"pop":0},{"id":448079,"name":"Artabuynk’","alt":["Artabuynk'","Erdapin","Yeghegis","Արտաբույնք"],"lon":45.32788,"lat":39.8667,"pop":0},{"id":9170076,"name":"Artamet","lon":43.85882,"lat":40.12293,"pop":0},{"id":616896,"name":"Artanish","alt":["Artanis","Артаниш","Արտանիշ"],"lon":45.36389,"lat":40.49731,"pop":0},{"id":616893,"name":"Artashar","alt":["Artasar","Արտաշար"],"lon":44.18329,"lat":40.11108,"pop":0},{"id":174979,"name":"Artashat","alt":["Artachat","Artasat","Artasatas","Artasato","Artaschat","Artasjat","Artaszat","Artaxat","Artaxata","Artaŝato","Artaşat","Artašat","Artašatas","Artașat","Kamarl","Kamarlu","Kamarlyu","Qəmərli","a er ta sha te","aratasata","artashat","artashat  armynya","Арташат","Արտաշատ","آرتاشات","آرتاشات، آرمینیا","أرتاشات","ਅਰਤਾਸ਼ਤ","არტაშატი","阿爾塔沙特"],"lon":44.54447,"lat":39.96144,"pop":20562},{"id":11056206,"name":"Artashat","alt":["Artasat","Արտաշատ"],"lon":44.57788,"lat":39.87793,"pop":0},{"id":616892,"name":"Artashavan","alt":["Artasavan","Ilanchalan","Арташаван","Արտաշավան"],"lon":44.38348,"lat":40.38892,"pop":0},{"id":174977,"name":"Artavan","alt":["Dzhul","Արտավան"],"lon":45.6167,"lat":39.65832,"pop":0},{"id":10643822,"name":"Artavani","alt":["Արտավանի"],"lon":45.4389,"lat":39.59729,"pop":0},{"id":616889,"name":"Artavaz","alt":["T'ak'yarrlu","Takyalu","Takyarlu","Tyakyalu","T’ak’yarrlu","Արտավազ"],"lon":44.56905,"lat":40.61715,"pop":0},{"id":616888,"name":"Arteni","alt":["Bogutlu","Артени","Արտենի"],"lon":43.76672,"lat":40.2973,"pop":3086},{"id":616872,"name":"Artimet","alt":["Alibeklu","Atarbekyan","Артимет","Արտիմետ"],"lon":44.26672,"lat":40.15008,"pop":1501},{"id":11319390,"name":"Arts’akhyan Herosneri","alt":["Arts'akhyan Herosneri","Արցախյան հերոսների"],"lon":44.3529,"lat":40.6001,"pop":0},{"id":11107298,"name":"Arts’akhyan Paterazmum Zohvats Azatamartik Avetis Baghdasaryani","alt":["Arts'akhyan Paterazmum Zohvats Azatamartik Avetis Baghdasaryani","Արցախյան պատերազմում զոհված ազատամարտիկ Ավետիս Բաղդասարյանի"],"lon":43.96527,"lat":40.16669,"pop":0},{"id":11107385,"name":"Arts’akhyan Paterazmum Zohvats Azatamartikneri","alt":["Arts'akhyan Paterazmum Zohvats Azatamartikneri","Արցախյան պատերազմում զոհված ազատամարտիկների"],"lon":43.77228,"lat":40.20831,"pop":0},{"id":11110142,"name":"Arts’akhyan Paterazmum Zohvats Azatamartikneri","alt":["Arts'akhyan Paterazmum Zohvats Azatamartikneri","Արցախյան պատերազմում զոհված ազատամարտիկների"],"lon":44.34308,"lat":40.24872,"pop":0},{"id":11110794,"name":"Arts’akhyan Paterazmum Zohvats Azatamartikneri","alt":["Arts'akhyan Paterazmum Zohvats Azatamartikneri","Արցախյան պատերազմում զոհված ազատամարտիկների"],"lon":44.26672,"lat":40.1861,"pop":0},{"id":11215159,"name":"Arts’akhyan Paterazmum Zohvats Azatamartikneri","alt":["Arts'akhyan Paterazmum Zohvats Azatamartikneri","Արցախյան պատերազմում զոհված ազատամարտիկների"],"lon":43.9917,"lat":40.35431,"pop":0},{"id":11230280,"name":"Arts’akhyan Paterazmum Zohvats Azatamartikneri","alt":["Arts'akhyan Paterazmum Zohvats Azatamartikneri","Արցախյան պատերազմում զոհված ազատամարտիկների"],"lon":44.3529,"lat":40.48749,"pop":0},{"id":11255546,"name":"Arts’akhyan Paterazmum Zohvats Azatamartikneri","alt":["Arts'akhyan Paterazmum Zohvats Azatamartikneri","Արցախյան պատերազմում զոհված ազատամարտիկների"],"lon":44.95972,"lat":40.54028,"pop":0},{"id":10646366,"name":"Artsat’ahank’","alt":["Artsat'ahank'","Արծաթահանք"],"lon":45.68329,"lat":39.75409,"pop":0},{"id":616885,"name":"Artsni","alt":["Arcni","Kizildag","Kizildash","Kizilkilisa","Kyzyldag","Արծնի"],"lon":44.36824,"lat":41.2096,"pop":0},{"id":616532,"name":"Artsvaberd","alt":["Arcvaberd","Kirgi","Արծվաբերդ"],"lon":45.47258,"lat":40.84123,"pop":0},{"id":823755,"name":"Artsvaberd","alt":["Arcvaberd","Арцваберд"],"lon":45.47033,"lat":40.83947,"pop":3193},{"id":10654397,"name":"Artsvadzor Mijnadar","alt":["Arcvajor Mijnadar","Արծվաձոր Միջնադար"],"lon":45.45007,"lat":40.02368,"pop":0},{"id":616884,"name":"Artsvakar","alt":["Kishlag"],"lon":45.1725,"lat":40.35528,"pop":0},{"id":174976,"name":"Artsvanik","alt":["Arcvanik","Artsevanik'","Artsevanik’","Artsvenik","Artzvanik","Karmir Vank'","Karmir Vank’","Yerets'","Yerets'-Yerets'vanik","Yerets'vanik","Yerets’","Yerets’-Yerets’vanik","Yerets’vanik","Yerits'vanik","Yerits'vank'","Yerits’vanik","Yerits’vank’","Yerts'u Vank'","Yerts’u Vank’","Արծվանիկ"],"lon":46.4737,"lat":39.26322,"pop":0},{"id":616379,"name":"Artsvanist","alt":["Alichali","Arcvanist","Nerkin Aluchalu","Nizhniy Aluchalu","Արծվանիստ"],"lon":45.50874,"lat":40.14857,"pop":0},{"id":616883,"name":"Artsvashen","alt":["Arcvasen","Arcvasenas","Arcvashen","Arcvašenas","Arcwaszen","Artsbashen","Artsvasen","Artsvasjen","Artsvašen","Artvasen","Arzwaschen","Arțvașen","Bashkend","Baskənd","Başkənd","artswashn","arutsuvuashen","Арцвашен","Արծվաշեն","آرتسواشن","არწვაშენი","アルツヴァシェン"],"lon":45.52552,"lat":40.64017,"pop":0},{"id":11190155,"name":"Artsvi","alt":["Arcvi","Արծվի"],"lon":45.35553,"lat":39.88892,"pop":0},{"id":823790,"name":"Aruch","alt":["Aruc","Arum","Аруч","Արուճ"],"lon":44.07798,"lat":40.28749,"pop":0},{"id":11321504,"name":"Aryutsaver","alt":["Arryutsaver","Aryucaver","Առյուծավեր"],"lon":44.59448,"lat":40.88751,"pop":0},{"id":616882,"name":"Arzakan","alt":["Arzakyand","Арзакан","Արզական"],"lon":44.60828,"lat":40.45007,"pop":2660},{"id":11320967,"name":"Arzakan","alt":["Արզական"],"lon":44.53748,"lat":40.93189,"pop":0},{"id":616881,"name":"Arzni","alt":["arzny","ʾrzny","Арзни","Արզնի","آرزني","آرزنی","ܐܪܙܢܝ"],"lon":44.59869,"lat":40.2973,"pop":2244},{"id":11365389,"name":"Asei","alt":["Ասեի"],"lon":44.01947,"lat":40.69733,"pop":0},{"id":11320467,"name":"Asei Avetaran","alt":["Asei avetaran","Ասեի ավետարան"],"lon":44.35968,"lat":40.67792,"pop":0},{"id":11369710,"name":"Ashgeghategh","alt":["Asgegateg","Աշգեղատեղ"],"lon":44.98608,"lat":40.76532,"pop":0},{"id":616879,"name":"Ashnak","alt":["Asnak","Ашнак","Աշնակ"],"lon":43.91669,"lat":40.33069,"pop":1131},{"id":11214576,"name":"Ashot Yerkat’i Nstavayr","alt":["Ashot Yerkat'i Nstavayr","Աշոտ Երկաթի նստավայր"],"lon":43.91949,"lat":40.3125,"pop":0},{"id":174975,"name":"Ashotavan","alt":["Aghk'end","Aghk’end","Asotavan","Khnok","Kirakosik","T'azak'end","T’azak’end","Աշոտավան"],"lon":46.00533,"lat":39.4792,"pop":0},{"id":11324020,"name":"Ashoti","alt":["Asoti","Աշոտի"],"lon":45.05969,"lat":40.79449,"pop":0},{"id":616878,"name":"Ashots’k’","alt":["Ashots'k'","Ghukasyan","Gukasjan","Gukasyan","Kizilkoch","Kyzyl-koch","Kyzylkach","Kyzyl”-koch”","Kzyl-Koch","Qizilqach","Verin-Gukasyan","Гукасян","Աշոցք"],"lon":43.85843,"lat":41.0377,"pop":0},{"id":11339543,"name":"Ashots’k’i","alt":["Ashots'k'i","Աշոցքի"],"lon":43.65008,"lat":41.01672,"pop":0},{"id":616877,"name":"Ashtarak","alt":["Achtarak","Aschtarak","Ashharak","Ashtarakats' Gyugh","Ashtarakats’ Gyugh","Astarak","Astarakas","Astarako","Asztarak","Aŝtarako","Aştarak","Aštarak","Aštarakas","Aștarak","a shen ta la ke","asataraka","ashtarak","ashutaraku","asyutalakeu","Əştərək","Аштарак","Ащарак","Աշտարակ","آشتاراك","آشتاراک","ਅਸ਼ਤਾਰਕ","აშტარაკი","アシュタラク","阿什塔拉克","아슈타라크"],"lon":44.36204,"lat":40.2991,"pop":18779},{"id":11341706,"name":"Aslamazyan K’uyreri","alt":["Aslamazyan K'uyreri","Ասլամազյան քույրերի"],"lon":43.84168,"lat":40.78607,"pop":0},{"id":11225702,"name":"Asni","alt":["Ասնի"],"lon":44.84948,"lat":39.7923,"pop":0},{"id":11363025,"name":"Asori Khmhat","alt":["Asori xmhat","Ասորի խմհատ"],"lon":45.05548,"lat":41.05829,"pop":0},{"id":10654180,"name":"Asoyi","alt":["Ասոյի"],"lon":45.41107,"lat":40.05292,"pop":0},{"id":11231160,"name":"Asoyi Dik’","alt":["Asoyi Dik'","Ասոյի դիք"],"lon":44.31811,"lat":40.32648,"pop":0},{"id":11230251,"name":"Astghaberd","alt":["Astgaberd","Աստղաբերդ"],"lon":44.25568,"lat":40.37512,"pop":0},{"id":616874,"name":"Astghadzor","alt":["Alikrykh","Astgajor","Astkhadzor","Астхадзор","Աստղաձոր"],"lon":45.35553,"lat":40.12231,"pop":3520},{"id":11330243,"name":"Astghadzor","alt":["Astgajor","Աստղաձոր"],"lon":46.37512,"lat":38.96948,"pop":0},{"id":11323630,"name":"Astvatsatsin Surb","alt":["Astvacacin Surb.","Աստվածածին Սուրբ."],"lon":45.12793,"lat":40.9751,"pop":0},{"id":10427089,"name":"Astvatsatur","alt":["Astvacatur","Աստվածատուր"],"lon":45.01392,"lat":39.99591,"pop":0},{"id":11364122,"name":"Astvatsatur","alt":["Astvacatur","Աստվածատուր"],"lon":44.35828,"lat":40.95709,"pop":0},{"id":799774,"name":"Astvatsynkal","alt":["Astvatsinkal","Աստվածընկալ"],"lon":44.44452,"lat":40.46393,"pop":0},{"id":10932774,"name":"At’arbeki","alt":["At'arbeki","Աթարբեկի"],"lon":45.75409,"lat":40.21668,"pop":0},{"id":616871,"name":"At’arbekyan","alt":["At'arbekyan","Atarbekyan"],"lon":44.77067,"lat":40.53016,"pop":0},{"id":11312572,"name":"At’ghuk’","alt":["At'ghuk'","Աթղուք"],"lon":46.1557,"lat":39.16107,"pop":0},{"id":616873,"name":"Atan","alt":["At'an","At’an","Атан","Աթան"],"lon":44.84302,"lat":40.92972,"pop":0},{"id":616870,"name":"Atdash","lon":45.18972,"lat":40.035,"pop":0},{"id":10932800,"name":"Atichani Papi Melik’beki","alt":["Atichani Papi Melik'beki","Մելիքբեկի  Ատիճանի Պապի"],"lon":45.76532,"lat":40.20569,"pop":0},{"id":11363280,"name":"Atorik","alt":["At'orrik","At’orrik","Աթոռիկ"],"lon":44.6875,"lat":41.08472,"pop":0},{"id":11363281,"name":"Atorik","alt":["At'orrik","At’orrik","Աթոռիկ"],"lon":44.6861,"lat":41.10431,"pop":0},{"id":11318163,"name":"Atrushan","alt":["Atrusan","Ատրուշան"],"lon":45.73608,"lat":40.12231,"pop":0},{"id":616869,"name":"Atsarat","alt":["Pashakend"],"lon":45.11333,"lat":40.34278,"pop":0},{"id":11021518,"name":"Atsivegher","alt":["Aciveger","Ածիվեղեր"],"lon":46.24872,"lat":39.39868,"pop":0},{"id":800314,"name":"Avagabinaper","lon":45.29111,"lat":40.785,"pop":0},{"id":616863,"name":"Avan","lon":44.16738,"lat":40.33537,"pop":0},{"id":616864,"name":"Avan","alt":["Ավան"],"lon":44.57846,"lat":40.21436,"pop":0},{"id":11365553,"name":"Avan","alt":["Ավան"],"lon":44.16949,"lat":40.59168,"pop":0},{"id":866161,"name":"Avan-Arrinj","alt":["Avan-Arinj","Ավան-Առինջ"],"lon":44.57028,"lat":40.2225,"pop":0},{"id":793680,"name":"Avanik","alt":["Kerpikend","Ավանիկ"],"lon":44.83249,"lat":40.07261,"pop":0},{"id":11128621,"name":"Avanik","alt":["Ավանիկ"],"lon":44.83612,"lat":40.07233,"pop":0},{"id":11338615,"name":"Avat","alt":["Ավատ"],"lon":44.78332,"lat":40.3529,"pop":0},{"id":11343001,"name":"Avat","alt":["Ավատ"],"lon":45.12512,"lat":40.58331,"pop":0},{"id":616862,"name":"Avazan","alt":["Geysu","Gëysu","Koysu","Köysu","Ավազան"],"lon":45.7036,"lat":40.30204,"pop":0},{"id":866119,"name":"Avazan","alt":["Avazak","Ավազան"],"lon":44.59235,"lat":40.40616,"pop":0},{"id":11225491,"name":"Avazani Surb","alt":["Ավազանի Սուրբ"],"lon":44.98187,"lat":39.8529,"pop":0},{"id":11108375,"name":"Avaznots’","alt":["Avaznots'","Ավազնոտց"],"lon":45.21808,"lat":40.3111,"pop":0},{"id":11230473,"name":"Avaznots’","alt":["Avaznots'","Ավազնոց"],"lon":44.42651,"lat":40.43469,"pop":0},{"id":11277886,"name":"Avaznots’","alt":["Avaznots'","Ավազնոց"],"lon":43.75293,"lat":41.10828,"pop":0},{"id":11255762,"name":"Avazov Aghbyur","alt":["Avazov agbyur","Ավազով աղբյուր"],"lon":44.97229,"lat":40.63611,"pop":0},{"id":10646426,"name":"Avazut","alt":["Ավազուտ"],"lon":45.5097,"lat":39.7807,"pop":0},{"id":11108389,"name":"Avazut","alt":["Ավազուտ"],"lon":45.21948,"lat":40.3139,"pop":0},{"id":11314906,"name":"Avdalents’ Antik","alt":["Avdalents' Antik","Ավդալենց անտիկ"],"lon":43.84869,"lat":40.55408,"pop":0},{"id":11278047,"name":"Avei Surb","alt":["Ավեի Սուրբ"],"lon":43.90692,"lat":41.16107,"pop":0},{"id":11315643,"name":"Aver","alt":["Ավեր"],"lon":43.91107,"lat":40.62372,"pop":0},{"id":11339289,"name":"Aver","alt":["Ավեր"],"lon":43.70288,"lat":40.55408,"pop":0},{"id":11341360,"name":"Aver","alt":["Ավեր"],"lon":43.76392,"lat":40.96393,"pop":0},{"id":11105970,"name":"Averak","alt":["Ավերակ"],"lon":45.77508,"lat":39.67651,"pop":0},{"id":11214744,"name":"Averak","alt":["Ավերակ"],"lon":43.9375,"lat":40.41107,"pop":0},{"id":11225673,"name":"Averak","alt":["Ավերակ"],"lon":44.11107,"lat":39.12908,"pop":0},{"id":11336334,"name":"Averak","alt":["Ավերակ"],"lon":44.7251,"lat":40.19171,"pop":0},{"id":11338591,"name":"Averak","alt":["Ավերակ"],"lon":44.7793,"lat":40.25848,"pop":0},{"id":11339290,"name":"Averak","alt":["Ավերակ"],"lon":43.70148,"lat":40.55292,"pop":0},{"id":11339535,"name":"Averak","alt":["Ավերակ"],"lon":43.71527,"lat":41.01111,"pop":0},{"id":11225674,"name":"Averak Dahnaks","alt":["Ավերակ Դահնակս"],"lon":44.11107,"lat":39.13048,"pop":0},{"id":11230409,"name":"Averi Darer","alt":["Averi darer","Ավերի դարեր"],"lon":44.4223,"lat":40.45148,"pop":0},{"id":10426422,"name":"Averk’","alt":["Averk'","Ավերք"],"lon":45.01813,"lat":39.78888,"pop":0},{"id":10643819,"name":"Averk’","alt":["Averk'","Ավերք"],"lon":45.46808,"lat":39.58612,"pop":0},{"id":10646365,"name":"Averk’","alt":["Averk'","Ավերք"],"lon":45.64032,"lat":39.7793,"pop":0},{"id":11022217,"name":"Averk’","alt":["Averk'","Ավերք"],"lon":46.03888,"lat":39.46668,"pop":0},{"id":11105972,"name":"Averk’","alt":["Averk'","Ավերք"],"lon":45.79309,"lat":39.67511,"pop":0},{"id":11128715,"name":"Averk’","alt":["Averk'","Ավերք"],"lon":44.82092,"lat":40.10968,"pop":0},{"id":11231091,"name":"Averk’","alt":["Averk'","Ավերք"],"lon":44.39868,"lat":40.39447,"pop":0},{"id":11318284,"name":"Averk’","alt":["Averk'","Ավերք"],"lon":45.65149,"lat":40.1889,"pop":0},{"id":11318332,"name":"Averk’","alt":["Averk'","Ավերք"],"lon":45.59168,"lat":40.16669,"pop":0},{"id":11318894,"name":"Averk’","alt":["Averk'","Ավերք"],"lon":44.14172,"lat":40.78607,"pop":0},{"id":11319058,"name":"Averk’","alt":["Averk'","Ավերք"],"lon":44.04449,"lat":40.80829,"pop":0},{"id":11319274,"name":"Averk’","alt":["Averk'","Ավերք"],"lon":44.22089,"lat":40.88892,"pop":0},{"id":11319399,"name":"Averk’","alt":["Averk'","Ավերք"],"lon":44.33331,"lat":40.50708,"pop":0},{"id":11320268,"name":"Averk’","alt":["Averk'","Ավերք"],"lon":44.35431,"lat":40.55829,"pop":0},{"id":11365033,"name":"Averk’","alt":["Averk'","Ավերք"],"lon":44.1001,"lat":40.63348,"pop":0},{"id":11318977,"name":"Avetyats’","alt":["Avetyats'","Ավետյաց"],"lon":44.09168,"lat":40.75708,"pop":0},{"id":800441,"name":"Avgeat","lon":44.62139,"lat":41.01917,"pop":0},{"id":10643820,"name":"Avoyi K’arut","alt":["Avoyi K'arut","Ավոյի քարուտ"],"lon":45.4903,"lat":39.59448,"pop":0},{"id":174969,"name":"Avshar","alt":["Avsar","Ավշար"],"lon":44.65832,"lat":39.85553,"pop":4215},{"id":616861,"name":"Avshen","alt":["Avsen","Chobanmaz","Ավշեն"],"lon":44.29223,"lat":40.72278,"pop":0},{"id":616857,"name":"Aygabats","alt":["Ajgabac","Ilkhiabi","Айгабац"],"lon":43.90514,"lat":40.70355,"pop":0},{"id":174968,"name":"Aygavan","alt":["Ajgavan","Reganlu","Айгаван","Այգավան"],"lon":44.66984,"lat":39.87327,"pop":3758},{"id":174966,"name":"Aygedzor","alt":["Ajgedzor","Aygejor","Ayqedzor","Magandzh","Magandzhug","Maghanjugh","Mugandzhug","Mughanjugh","Айгедзор","Այգեձոր"],"lon":46.41445,"lat":39.4661,"pop":0},{"id":174967,"name":"Aygedzor","alt":["Ajgedzor","Pushi","Pushkag","Айгедзор"],"lon":46.21667,"lat":38.96667,"pop":0},{"id":616856,"name":"Aygedzor","alt":["Ajgedzor","Aygejor","Kulali","Айгедзор","Այգեձոր"],"lon":45.54483,"lat":40.83121,"pop":0},{"id":11330433,"name":"Aygegortsakan Tntesut’yun","alt":["Aygegortsakan Tntesut'yun","Այգեգործական Տնտեսություն"],"lon":46.04169,"lat":39.53192,"pop":0},{"id":616767,"name":"Aygehat","alt":["Aygeat","Danushavan"],"lon":44.62509,"lat":41.01528,"pop":0},{"id":616855,"name":"Aygehovit","alt":["Ajgeovit","Aygeovit","Ayqeovit","Onut","Uzuntala","Айгеовит","Այգեհովիտ"],"lon":45.25033,"lat":40.97951,"pop":2888},{"id":11323605,"name":"Aygehovti","alt":["Այգեհովտի"],"lon":45.23749,"lat":40.94031,"pop":0},{"id":866098,"name":"Aygek","alt":["Այգեկ"],"lon":44.38611,"lat":40.1889,"pop":1095},{"id":11324060,"name":"Aygepani Bats’at","alt":["Aygepani Bats'at","Այգեպանի բացատ"],"lon":45.1723,"lat":40.7973,"pop":0},{"id":616854,"name":"Aygepar","alt":["Aytapar","Aytəpər","Այգեպար"],"lon":45.46626,"lat":40.92953,"pop":0},{"id":174965,"name":"Aygepat","alt":["Ajgepat","Dargalu Verkhniy","Masumlu","Verkhniy Dargalu","Айгепат","Այգեպատ"],"lon":44.59981,"lat":39.95845,"pop":1349},{"id":616850,"name":"Aygeshat","alt":["Ajgeshat","Aygesat","Gadzhikara","Айгешат","Այգեշատ"],"lon":44.28888,"lat":40.23608,"pop":1358},{"id":616851,"name":"Aygeshat","alt":["Ajgeshat","Aygesat","Kuzigidan","Айгешат","Այգեշատ"],"lon":44.0611,"lat":40.07507,"pop":1606},{"id":616849,"name":"Aygestan","alt":["Ajgestan","Ayaslu","Айгестан","Այգեստան"],"lon":44.55829,"lat":40.00293,"pop":2431},{"id":11321264,"name":"Aygestan","alt":["Այգեստան"],"lon":44.68189,"lat":40.9751,"pop":0},{"id":11324347,"name":"Aygestan","alt":["Այգեստան"],"lon":45.5611,"lat":40.88348,"pop":0},{"id":11107440,"name":"Aygevan","alt":["Այգեվան"],"lon":43.9751,"lat":40.14172,"pop":0},{"id":11339542,"name":"Aygevet","alt":["Այգեվետ"],"lon":43.51672,"lat":41.02368,"pop":0},{"id":174964,"name":"Aygezard","alt":["Ajgezard","Anastasavan","Aygedzor","Dargalu","Айгезард","Այգեզարդ"],"lon":44.60229,"lat":39.95436,"pop":3192},{"id":616848,"name":"Aygut","alt":["Gelkend","Golkand","Gëlkend","Gölkənd","Гелкенд","Այգուտ"],"lon":45.17634,"lat":40.68298,"pop":997},{"id":11230255,"name":"Aygut","alt":["Այգուտ"],"lon":44.30011,"lat":40.48749,"pop":0},{"id":11278045,"name":"Aylots’","alt":["Aylots'","Այլոց"],"lon":43.84869,"lat":41.14587,"pop":0},{"id":11110066,"name":"Ayna","alt":["Այնա"],"lon":44.48468,"lat":40.00153,"pop":0},{"id":823814,"name":"Aynt’ap","alt":["Aynt'ap","Այնթապ"],"lon":44.46668,"lat":40.09168,"pop":0},{"id":11323181,"name":"Ayoyi Tap’","alt":["Ayoyi Tap'","Այոյի տափ"],"lon":44.7793,"lat":41.15289,"pop":0},{"id":11370611,"name":"Ayraghbyur","alt":["Ayragbyur","Այրաղբյուր"],"lon":44.55969,"lat":40.7265,"pop":0},{"id":11342905,"name":"Ayrijur","alt":["Այրիջուր"],"lon":45.13892,"lat":40.66528,"pop":0},{"id":11330676,"name":"Ayritap’","alt":["Ayritap'","Այրիտափ"],"lon":43.73187,"lat":40.16107,"pop":0},{"id":616841,"name":"Ayrk","alt":["Ayrk'","Ayrk’","Dashkand","Dashkend","Daskand","Daşkənd","Дашкенд","Այրք"],"lon":45.81557,"lat":40.11294,"pop":0},{"id":11315521,"name":"Ayrk’","alt":["Ayrk'","Այրք"],"lon":43.85431,"lat":40.6167,"pop":0},{"id":616840,"name":"Ayrum","alt":["Ajrum","Айрум","Այրում"],"lon":44.90404,"lat":41.18826,"pop":0},{"id":616837,"name":"Azat","alt":["Akhkilisa","Azad","Ազատ"],"lon":45.87142,"lat":40.17895,"pop":0},{"id":11335906,"name":"Azat","alt":["Ազատ"],"lon":45.12512,"lat":40.11108,"pop":0},{"id":11108716,"name":"Azat K’aghak’","alt":["Azat K'aghak'","Ազատ քաղաք"],"lon":45.10553,"lat":40.4209,"pop":0},{"id":11336971,"name":"Azatamartik Harut’yunin","alt":["Azatamartik Harut'yunin","Ազատամարտիկ Հարությունին"],"lon":44.53332,"lat":40.20288,"pop":0},{"id":11319431,"name":"Azatamartikneri","alt":["Ազատամարտիկների"],"lon":44.38892,"lat":41.00708,"pop":0},{"id":616512,"name":"Azatamut","alt":["Krivoy Most","Ազատամուտ"],"lon":45.20428,"lat":40.9903,"pop":0},{"id":823748,"name":"Azatamut","alt":["Azanut","Азанут"],"lon":45.18551,"lat":40.98204,"pop":1850},{"id":616835,"name":"Azatan","alt":["Karakhs","Karakilisa","Pokr Karakilisa","Азатан","Ազատան"],"lon":43.82727,"lat":40.71959,"pop":4448},{"id":616834,"name":"Azatashen","alt":["Azatasen","Ազատաշեն"],"lon":44.41669,"lat":40.13611,"pop":0},{"id":11324376,"name":"Azatashen","alt":["Azatasen","Ազատաշեն"],"lon":45.57507,"lat":40.87512,"pop":0},{"id":174961,"name":"Azatavan","alt":["Chigdamlu","Chikdamlu","Азатаван","Ազատավան"],"lon":44.50568,"lat":39.98608,"pop":0},{"id":616833,"name":"Azatavan","alt":["Ազատավան"],"lon":44.07788,"lat":40.13611,"pop":0},{"id":174960,"name":"Azatek","alt":["Ազատեկ"],"lon":45.4389,"lat":39.65008,"pop":0},{"id":11108719,"name":"Azati","alt":["Ազատի"],"lon":45.10553,"lat":40.41949,"pop":0},{"id":11317476,"name":"Azati","alt":["Ազատի"],"lon":43.73328,"lat":40.84168,"pop":0},{"id":11318437,"name":"Azizbeki","alt":["Ազիզբեկի"],"lon":45.69311,"lat":40.1889,"pop":0},{"id":174958,"name":"Azizkend","lon":44.97083,"lat":39.94932,"pop":0},{"id":11365353,"name":"Azn","alt":["Ազն"],"lon":44.04449,"lat":40.64868,"pop":0},{"id":616662,"name":"Aznvadzor","alt":["Aznvajor","Gezaldara","Khandzhugaz","Ազնվաձոր"],"lon":44.42611,"lat":40.87964,"pop":0},{"id":616830,"name":"Babadzhan","alt":["Babajan","Kzylk'end","Kzylk’end","Qizilkand","Qızılkənd"],"lon":45.47662,"lat":40.40684,"pop":0},{"id":10932777,"name":"Babajani","alt":["Բաբաջանի"],"lon":45.75409,"lat":40.21668,"pop":0},{"id":11107885,"name":"Babajur","alt":["Բաբաջուր"],"lon":44.71112,"lat":40.30408,"pop":0},{"id":616810,"name":"Baberd","alt":["Bayburd","Yellidzha","Բաբերդ"],"lon":44.78489,"lat":40.09149,"pop":0},{"id":11215016,"name":"Bad","alt":["Բադ"],"lon":43.75568,"lat":40.37793,"pop":0},{"id":11339436,"name":"Badnots’","alt":["Badnots'","Բադնոց"],"lon":43.62372,"lat":41.00409,"pop":0},{"id":11319275,"name":"Bado","alt":["Բադո"],"lon":44.24731,"lat":40.91107,"pop":0},{"id":823803,"name":"Bagaran","alt":["Багаран","Բագարան"],"lon":43.6602,"lat":40.14739,"pop":0},{"id":11362125,"name":"Baghak’ari","alt":["Baghak'ari","Բաղաքարի"],"lon":46.11108,"lat":38.9903,"pop":0},{"id":616829,"name":"Baghanis","alt":["Baganis","Բաղանիս"],"lon":45.05658,"lat":41.10925,"pop":0},{"id":799770,"name":"Baghnik’","alt":["Amamalu","Baghnik'","Razvaliny Amamlu","Բաղնիք"],"lon":44.40832,"lat":40.40832,"pop":0},{"id":11230698,"name":"Baghnik’","alt":["Baghnik'","Բաղնիք"],"lon":44.41669,"lat":40.42792,"pop":0},{"id":174955,"name":"Baghramyan","alt":["Baghramian","Bagramjan","Bagramyan","Bashnalu","Баграмян","Բաղրամյան"],"lon":44.51392,"lat":39.98053,"pop":0},{"id":823801,"name":"Baghramyan","alt":["Bagramjan","Bagramyan","Баграмян","Բաղրամյան"],"lon":43.83069,"lat":40.17511,"pop":0},{"id":823809,"name":"Baghramyan","alt":["Bagramyan","Բաղրամյան"],"lon":44.36951,"lat":40.19452,"pop":2346},{"id":616755,"name":"Bagratashen","alt":["Bagratasen","Debedashen","Debetashen","Lambalu","Բագրատաշեն"],"lon":44.81961,"lat":41.24297,"pop":0},{"id":616828,"name":"Bagratashen","alt":["Bagratasen","Debedashen","Debetashen","Lambalu","Баграташен","Բագրատաշեն"],"lon":44.81737,"lat":41.24358,"pop":3024},{"id":616827,"name":"Bagravan","alt":["Bugdashen","Բագրավան"],"lon":43.6709,"lat":40.47931,"pop":0},{"id":174957,"name":"Baharlu","alt":["Bagarlu"],"lon":46.21941,"lat":39.22064,"pop":0},{"id":11323022,"name":"Bakabats’at","alt":["Bakabats'at","Բակաբացատ"],"lon":44.9361,"lat":41.10828,"pop":0},{"id":11321315,"name":"Baker","alt":["Բակեր"],"lon":44.56671,"lat":40.8125,"pop":0},{"id":11364231,"name":"Baker","alt":["Բակեր"],"lon":44.2807,"lat":40.77789,"pop":0},{"id":616825,"name":"Bakhchalar","alt":["Gadzhi Bayram"],"lon":43.66667,"lat":40.13333,"pop":0},{"id":11270563,"name":"Bakunts’ A.","alt":["Bakunts' A.","Gorus","Բակունց Ա."],"lon":46.34168,"lat":39.51111,"pop":0},{"id":616824,"name":"Balahovit","alt":["Balakhovit","Balaovit","Mehub","Mekhub","Mgub","Балаовит","Балаховит","Բալահովիտ"],"lon":44.60828,"lat":40.25153,"pop":2982},{"id":174954,"name":"Balak’","alt":["Balak'","Բալաք"],"lon":45.92932,"lat":39.55169,"pop":0},{"id":616823,"name":"Bambakashat","alt":["Bambakasat","Molla Bayazet","Бамбакашат","Բամբակաշատ"],"lon":44.01947,"lat":40.10828,"pop":3089},{"id":616821,"name":"Bandivan","alt":["Verkhniy Bandivan","Բանդիվան"],"lon":43.81105,"lat":40.95769,"pop":0},{"id":389219,"name":"Barabat’um","alt":["Barabat'um","Barbatum","Brrat'umb","Brrat’umb","Parravat'ap'","Parravat’ap’","Prravt'umb","Prravt’umb"],"lon":46.41627,"lat":39.21218,"pop":0},{"id":616820,"name":"Bardidzor","lon":45.10744,"lat":40.80576,"pop":0},{"id":11231338,"name":"Bardineri","alt":["Բարդիների"],"lon":44.26813,"lat":40.25708,"pop":0},{"id":11321131,"name":"Bardut","alt":["Բարդուտ"],"lon":44.73053,"lat":40.96393,"pop":0},{"id":11128537,"name":"Bardzradir","alt":["Barjradir","Բարձրադիր"],"lon":44.78332,"lat":40.20831,"pop":0},{"id":10654402,"name":"Bardzragah","alt":["Barjragah","Բարձրագահ"],"lon":45.44311,"lat":40.05689,"pop":0},{"id":616816,"name":"Bardzrashen","alt":["Baburli","Barjrasen","Bartsrashen","Բարձրաշեն"],"lon":43.73724,"lat":40.59289,"pop":0},{"id":793672,"name":"Bardzrashen","alt":["Barjrasen","Bartsrashen","Բարձրաշեն"],"lon":44.57957,"lat":40.08533,"pop":1273},{"id":11324072,"name":"Bardzrategh","alt":["Barjrateg","Բարձրատեղ"],"lon":45.22089,"lat":40.78748,"pop":0},{"id":174951,"name":"Bardzravan","alt":["Barcravan","Barjravan","Bartsravan","Yeritsatumb","Барцраван","Բարձրավան"],"lon":46.33069,"lat":39.40008,"pop":0},{"id":10932829,"name":"Bardzraver","alt":["Barjraver","Բարձրավեր"],"lon":45.81671,"lat":40.13068,"pop":0},{"id":174949,"name":"Bardzruni","alt":["Barjruni","Bartsruni","Sultanbek","Բարձրունի"],"lon":45.48328,"lat":39.51947,"pop":0},{"id":616819,"name":"Barekamavan","alt":["Dostlu","Kurumsulu","Բարեկամավան"],"lon":45.11503,"lat":41.17334,"pop":0},{"id":616818,"name":"Barepat","alt":["Bariabad","Բարեպատ"],"lon":45.114,"lat":40.66945,"pop":0},{"id":174814,"name":"Bargushat","alt":["Bargusat","Nerk'in Gyodak'lu","Nerkin Gedaklu","Nerk’in Gyodak’lu","Բարգուշատ"],"lon":46.4779,"lat":39.23053,"pop":0},{"id":11318106,"name":"Barkis","alt":["Բարկիս"],"lon":45.71668,"lat":40.06952,"pop":0},{"id":11230647,"name":"Baroyi Narek","alt":["Baroyi narek","Բարոյի նարեկ"],"lon":44.3653,"lat":40.47369,"pop":0},{"id":616391,"name":"Basen","alt":["Mets Kyapanak","Musaeljan","Musayelyan","Мусаелян","Բասեն"],"lon":43.99274,"lat":40.75767,"pop":1499},{"id":616815,"name":"Bashgyugh","alt":["Basgyug","Bashgyukh","Բաշգյուղ"],"lon":43.96935,"lat":40.9444,"pop":0},{"id":11323853,"name":"Bats’at","alt":["Bats'at","Բացատ"],"lon":45.01672,"lat":40.9057,"pop":0},{"id":616813,"name":"Bavra","alt":["Titoy-Kharabase"],"lon":43.81029,"lat":41.12027,"pop":0},{"id":616812,"name":"Bayandur","alt":["Բայանդուր"],"lon":43.77087,"lat":40.69311,"pop":0},{"id":616808,"name":"Baysyz","alt":["Baysuz"],"lon":44.06141,"lat":40.36618,"pop":0},{"id":616807,"name":"Bazmaghbyur","alt":["Bazmagbyur","Bazmaghbiar","Bazmakhpyur","Takiya","Բազմաղբյուր"],"lon":44.3139,"lat":40.33612,"pop":0},{"id":11192014,"name":"Bazmaghbyur","alt":["Bazmagbyur","Բազմաղբյուր"],"lon":45.5473,"lat":39.74451,"pop":0},{"id":616806,"name":"Bazum","alt":["Bzovdal","Базум","Բազում"],"lon":44.43978,"lat":40.86763,"pop":1114},{"id":11105452,"name":"Bekhnasar","alt":["Bexnasar","Բեխնասար"],"lon":46.4931,"lat":39.11249,"pop":0},{"id":11318439,"name":"Bekjani Aghabeki","alt":["Bekjani Agabeki","Բեկջանի Աղաբեկի"],"lon":45.69311,"lat":40.19171,"pop":0},{"id":800427,"name":"Bendik","alt":["Բենդիկ"],"lon":44.71329,"lat":41.15488,"pop":0},{"id":616803,"name":"Beniamin","alt":["Chlokhan","Բենիամին"],"lon":43.8529,"lat":40.69031,"pop":0},{"id":11214680,"name":"Benoyi","alt":["Բենոյի"],"lon":43.8653,"lat":40.33752,"pop":0},{"id":616802,"name":"Berd","alt":["Berrdagyugh","Berrdgyugh","Bert","Ghalak'yand","Ghalak’yand","Shlorut","T'auzk'end","T'auzkala","T'avuzghala","T'ous","T'ous Gale","T'ovuz","T'uzukala","Taua Kale","Taya-Kala","Tovuz","Tovuzkala","Tovuzqala","T’auzkala","T’auzk’end","T’avuzghala","T’ous","T’ous Gale","T’ovuz","T’uzukala","Volorut","Берд","Товуз","Բերդ"],"lon":45.38901,"lat":40.88135,"pop":8374},{"id":11335278,"name":"Berd","alt":["Բերդ"],"lon":45.97229,"lat":39.46668,"pop":0},{"id":11340152,"name":"Berdadzori","alt":["Berdajori","Բերդաձորի"],"lon":45.4361,"lat":40.90832,"pop":0},{"id":10654404,"name":"Berdagrak","alt":["Բերդագրակ"],"lon":45.45569,"lat":40.11108,"pop":0},{"id":11315460,"name":"Berdak","alt":["Բերդակ"],"lon":43.99731,"lat":40.65149,"pop":0},{"id":11323025,"name":"Berdak","alt":["Բերդակ"],"lon":44.88348,"lat":41.14172,"pop":0},{"id":11369713,"name":"Berdak’ar","alt":["Berdak'ar","Բերդաքար"],"lon":44.96112,"lat":40.80548,"pop":0},{"id":616182,"name":"Berdashen","alt":["Berdasen","Bol'shoy Tapakey","Bol’shoy Tapakey","Mets Tapakey","T'ap'akyoy","Tapakej","Tapakey","T’ap’akyoy","Тапакей","Բերդաշեն"],"lon":43.6746,"lat":41.0573,"pop":0},{"id":10526236,"name":"Berdat’agh","alt":["Berdat'agh","Բերդաթաղ"],"lon":45.20007,"lat":39.64313,"pop":0},{"id":11321390,"name":"Berdat’agh","alt":["Berdat'agh","Բերդաթաղ"],"lon":44.66107,"lat":40.89172,"pop":0},{"id":11106172,"name":"Berdatak","alt":["Բերդատակ"],"lon":45.87512,"lat":39.60828,"pop":0},{"id":11106173,"name":"Berdatak","alt":["Բերդատակ"],"lon":45.87793,"lat":39.62512,"pop":0},{"id":616801,"name":"Berdavan","alt":["Kalacha","Բերդավան"],"lon":44.99967,"lat":41.20503,"pop":3000},{"id":11105453,"name":"Berdi K’ar","alt":["Berdi K'ar","Բերդի քար"],"lon":46.47229,"lat":39.11108,"pop":0},{"id":11108120,"name":"Berdi K’arap’","alt":["Berdi K'arap'","Բերդի քարափ"],"lon":44.58209,"lat":40.25708,"pop":0},{"id":11191950,"name":"Berdi Viz","alt":["Berdi viz","Բերդի վիզ"],"lon":45.51672,"lat":39.63751,"pop":0},{"id":174939,"name":"Berdik","alt":["Akhund Bzovan","Bzovan","Բերդիկ"],"lon":44.57233,"lat":39.99451,"pop":0},{"id":11214818,"name":"Berdik","alt":["Բերդիկ"],"lon":43.95972,"lat":40.48187,"pop":0},{"id":616800,"name":"Berdkunk","alt":["Akhkala","Berdkunk'","Berdkunk’","Բերդկունք"],"lon":45.10553,"lat":40.45007,"pop":0},{"id":11277808,"name":"Berdsar","alt":["Բերդսար"],"lon":43.77649,"lat":41.07788,"pop":0},{"id":174947,"name":"Berk’anush","alt":["Berk'anush","Berkanush","Ogurbeklu","Բերքանուշ"],"lon":44.51672,"lat":39.9779,"pop":1682},{"id":616798,"name":"Berk’arrat","alt":["Akhula","Berk'arrat","Berkarat","Բերքառատ"],"lon":44.16801,"lat":40.67602,"pop":0},{"id":616797,"name":"Berk’ashat","alt":["Berk'ashat","Berkashat","Բերքաշատ"],"lon":43.91107,"lat":40.04169,"pop":0},{"id":11330010,"name":"Berk’nakhut’","alt":["Berk'nakhut'","Բերքնախութ"],"lon":46.51392,"lat":39.08893,"pop":0},{"id":616732,"name":"Berkaber","alt":["Berk'aber","Berk’aber","Dzhogaz","Pipis","Բերքաբեր"],"lon":45.14715,"lat":41.05571,"pop":0},{"id":7646438,"name":"Berqaber","lon":45.15,"lat":41.06667,"pop":0},{"id":11328599,"name":"Berrnak’ol","alt":["Berrnak'ol","Բեռնաքոլ"],"lon":46.38068,"lat":39.25848,"pop":0},{"id":11363444,"name":"Bgavor","alt":["Բգավոր"],"lon":44.60828,"lat":41.10687,"pop":0},{"id":174946,"name":"Birali","lon":44.96515,"lat":39.82956,"pop":0},{"id":616789,"name":"Bjni","alt":["Bzhni","Բջնի"],"lon":44.65008,"lat":40.45831,"pop":2771},{"id":616796,"name":"Blagodarnoye","alt":["Blagodarnoe","Благодарное","Բլագոդարնոյե"],"lon":44.18071,"lat":41.08655,"pop":0},{"id":11277841,"name":"Blats","alt":["Blac","Բլած"],"lon":43.89172,"lat":41.04028,"pop":0},{"id":10426559,"name":"Blbuli Bner","alt":["Blbuli bner","Բլբուլի բներ"],"lon":45.02368,"lat":39.83472,"pop":0},{"id":11341416,"name":"Blkonner","alt":["Բլկոններ"],"lon":43.79449,"lat":40.91107,"pop":0},{"id":11325095,"name":"Blrabats’at","alt":["Blrabats'at","Բլրաբացատ"],"lon":45.34308,"lat":40.68189,"pop":0},{"id":11336737,"name":"Blrashen","alt":["Blrasen","Բլրաշեն"],"lon":44.23608,"lat":40.8001,"pop":0},{"id":11320863,"name":"Bndzor","alt":["Bnjor","Բնձոր"],"lon":44.59027,"lat":40.82788,"pop":0},{"id":174945,"name":"Bnunis","alt":["Bnunik'","Bnunik’","Bununis","Pnunis","Բնունիս"],"lon":46.00734,"lat":39.44462,"pop":0},{"id":11362221,"name":"Boghak’ar","alt":["Boghak'ar","Բողաքար"],"lon":46.15008,"lat":38.99451,"pop":0},{"id":11364124,"name":"Boghoyan","alt":["Bogoyan","Բողոյան"],"lon":44.47369,"lat":40.75153,"pop":0},{"id":174944,"name":"Boloraberd","alt":["Kurdkulag","Kurtkulag","Proshaberd","Բոլորաբերդ"],"lon":45.34589,"lat":39.66949,"pop":0},{"id":11321317,"name":"Bolork’ar","alt":["Bolork'ar","Բոլորքար"],"lon":44.55408,"lat":40.87091,"pop":0},{"id":11335911,"name":"Borborraghbyur","alt":["Borboragbyur","Բորբոռաղբյուր"],"lon":45.12793,"lat":40.07233,"pop":0},{"id":11106260,"name":"Borotn","alt":["Բորոտն"],"lon":45.9021,"lat":39.61952,"pop":0},{"id":11132922,"name":"Bots’ik","alt":["Bots'ik","Բոցիկ"],"lon":43.6029,"lat":40.33893,"pop":0},{"id":11133035,"name":"Botut","alt":["Բոտուտ"],"lon":43.7431,"lat":40.39313,"pop":0},{"id":616450,"name":"Bovadzor","alt":["Aleksandrovka","Bovajor","Maksim Gor'kiy","Maksim Gor'kly","Maksim Gor’kiy","Maksim Gor’kly","Բովաձոր"],"lon":44.40312,"lat":41.03708,"pop":0},{"id":11323361,"name":"Bover","alt":["Բովեր"],"lon":44.84788,"lat":41.10255,"pop":0},{"id":11323362,"name":"Bover","alt":["Բովեր"],"lon":44.85101,"lat":41.10058,"pop":0},{"id":11133116,"name":"Bozoyi Gomer","alt":["Bozoyi gomer","Բոզոյի գոմեր"],"lon":43.7279,"lat":40.48608,"pop":0},{"id":11323365,"name":"Braghdzor","alt":["Bragjor","Բրաղձոր"],"lon":44.79732,"lat":41.11175,"pop":0},{"id":11312673,"name":"Brgunk’","alt":["Brgunk'","Բրգունք"],"lon":46.13068,"lat":39.14313,"pop":0},{"id":174942,"name":"Brrnakot’","alt":["Brnakot","Brrnakot'","Բռնակոթ"],"lon":45.97241,"lat":39.49742,"pop":1912},{"id":11328602,"name":"Brut","alt":["Բրուտ"],"lon":46.30011,"lat":39.2973,"pop":0},{"id":10426425,"name":"Brutanots’","alt":["Brutanots'","Բրուտանոց"],"lon":45.05011,"lat":39.8501,"pop":0},{"id":389317,"name":"Bulakhlar","lon":45.53778,"lat":39.73528,"pop":0},{"id":174940,"name":"Burastan","alt":["Karagamzalu","Tamamlu","Բուրաստան"],"lon":44.49681,"lat":39.99157,"pop":1998},{"id":616793,"name":"Buravet","alt":["Persi","Razvaliny Buravet","Բուրավետ"],"lon":44.33069,"lat":40.3667,"pop":0},{"id":10526157,"name":"Burt’el Ishkhani","alt":["Burt'el Ishkhani","Բուրթել իշխանի"],"lon":45.23608,"lat":39.68189,"pop":0},{"id":616792,"name":"Buzhakan","alt":["Babakishi","Buzakan","Бужакан","Բուժական"],"lon":44.51947,"lat":40.45569,"pop":1678},{"id":11370233,"name":"Buzhakani","alt":["Buzakani","Բուժականի"],"lon":44.50568,"lat":40.50848,"pop":0},{"id":616791,"name":"Byurakan","alt":["Biurakan","Bjurakan","Burakan","Бюракан","Բյուրական"],"lon":44.27275,"lat":40.33894,"pop":3902},{"id":11317475,"name":"Byurakn","alt":["Բյուրակն"],"lon":43.71668,"lat":40.8681,"pop":0},{"id":616822,"name":"Byuravan","alt":["Bambakavan","Bjuravan","Verin Kuylasar","Verkhniy Kuylasar","Бюраван","Բյուրավան"],"lon":44.51889,"lat":40.01604,"pop":1228},{"id":616790,"name":"Byureghavan","alt":["Bjuregavan","Byuregavan","Бюрегаван","Բյուրեղավան"],"lon":44.59333,"lat":40.31417,"pop":6972},{"id":11325114,"name":"Ch’akhch’akh","alt":["Ch'akhch'akh","Չախչախ"],"lon":45.40008,"lat":40.7403,"pop":0},{"id":11338697,"name":"Ch’amankut","alt":["Ch'amankut","Չամանկուտ"],"lon":44.81671,"lat":40.48187,"pop":0},{"id":174937,"name":"Ch’anakhch’i","alt":["Ch'anakhch'i"],"lon":46.38333,"lat":39.28333,"pop":0},{"id":174936,"name":"Ch’ap’ni","alt":["Capni","Ch'ap'ni","Ch'apni","Chapin","Ch’apni","Չափնի"],"lon":46.45792,"lat":39.26899,"pop":0},{"id":11336897,"name":"Ch’arents’ Ye.","alt":["Ch'arents' Ye.","Չարենց Ե."],"lon":44.51111,"lat":40.18329,"pop":0},{"id":616785,"name":"Ch’arents’avan","alt":["Ch'arants'avan","Ch'arents'avan","Charencavan","Charentsavan","Choentsavan","Ch’arants’avan","Lusavan","Чаренцаван","Չարենցավան"],"lon":44.64447,"lat":40.40289,"pop":18500},{"id":11318739,"name":"Ch’ich’kani","alt":["Ch'ich'kani","Չիչկանի"],"lon":44.03473,"lat":40.92792,"pop":0},{"id":11319156,"name":"Ch’ich’khan","alt":["Ch'ich'khan","Չիչխան"],"lon":44.16388,"lat":40.8667,"pop":0},{"id":11336957,"name":"Ch’inari Tsarri","alt":["Ch'inari Tsarri","Չինարի ծառի"],"lon":44.54028,"lat":40.19171,"pop":0},{"id":174933,"name":"Ch’iva","alt":["Ch'iva","Չիվա"],"lon":45.13611,"lat":39.76672,"pop":0},{"id":616775,"name":"Ch’k’nagh","alt":["Ch'k'nagh","Chknag","Chknakh","Samadarvish","Չքնաղ"],"lon":44.43591,"lat":40.57925,"pop":0},{"id":616776,"name":"Ch’kalovka","alt":["Aleksandrovka","Ch'kalovka","Chkalovka","Чкаловка","Չկալովկա"],"lon":44.98053,"lat":40.50848,"pop":0},{"id":174932,"name":"Ch’obanlu","alt":["Ch'obanlu"],"lon":46.36667,"lat":39.26667,"pop":0},{"id":11108453,"name":"Ch’or Averakner","alt":["Ch'or Averakner","Չոր Ավերակներ"],"lon":45.20831,"lat":40.25409,"pop":0},{"id":616772,"name":"Ch’orat’an","alt":["Ch'orat'an","Choratan","Coratan","Çoratan","Չորաթան"],"lon":45.48793,"lat":40.86185,"pop":0},{"id":11108454,"name":"Ch’oraver","alt":["Ch'oraver","Չորավեր"],"lon":45.20831,"lat":40.25568,"pop":0},{"id":11231036,"name":"Ch’orut","alt":["Ch'orut","Չորուտ"],"lon":44.32788,"lat":40.32373,"pop":0},{"id":11328755,"name":"Ch’ughghu Navi","alt":["Ch'ughghu Navi","Չուղղու նավի"],"lon":46.41669,"lat":39.29309,"pop":0},{"id":11255829,"name":"Ch’yrrch’yrr","alt":["Ch'yrrch'yrr","Չըռչըռ"],"lon":44.9209,"lat":40.55151,"pop":0},{"id":11339696,"name":"Ch’yrrch’yrr","alt":["Ch'yrrch'yrr","Չըռչըռ"],"lon":45.39587,"lat":40.82373,"pop":0},{"id":11362422,"name":"Chaghak","alt":["Cagak","Ճաղակ"],"lon":46.20288,"lat":38.92511,"pop":0},{"id":11110207,"name":"Chahichner","alt":["Cahicner","Ճահիճներ"],"lon":44.41809,"lat":40.1029,"pop":0},{"id":11339886,"name":"Chak’ats","alt":["Chak'ats","Ճաքած"],"lon":45.33893,"lat":40.9361,"pop":0},{"id":174938,"name":"Chakaten","alt":["Cakaten","Chakidyn","Ճակատեն"],"lon":46.44452,"lat":39.14728,"pop":0},{"id":11369775,"name":"Chala","alt":["Cala","Ճալա"],"lon":44.83069,"lat":40.85828,"pop":0},{"id":616787,"name":"Chalabi","lon":45.52611,"lat":40.82556,"pop":0},{"id":11132935,"name":"Chalarani Etev","alt":["Calarani etev","Ճալարանի ետև"],"lon":43.66107,"lat":40.35687,"pop":0},{"id":10932719,"name":"Cham","alt":["Cam","Ճամ"],"lon":45.89447,"lat":40.15289,"pop":0},{"id":616786,"name":"Chambarak","alt":["Kraside","Krasnosel'sk","Krasnosel’sk","Krasnoye","Mikhaylovka","Чамбарак"],"lon":45.35498,"lat":40.59655,"pop":6153},{"id":10643204,"name":"Champ’ateghi","alt":["Champ'ateghi","Ճամփատեղի"],"lon":45.27789,"lat":39.6723,"pop":0},{"id":11225406,"name":"Chanchanots’","alt":["Chanchanots'","Ճանճանոց"],"lon":44.91809,"lat":39.86249,"pop":0},{"id":11363329,"name":"Chankadzor","alt":["Cankajor","Ճանկաձոր"],"lon":44.61389,"lat":41.14172,"pop":0},{"id":11278060,"name":"Chapkani","alt":["Capkani","Ճապկանի"],"lon":43.91107,"lat":41.15973,"pop":0},{"id":11342765,"name":"Chapkut","alt":["Capkut","Ճապկուտ"],"lon":45.20709,"lat":40.6557,"pop":0},{"id":11330059,"name":"Chapotik’","alt":["Chapotik'","Ճապոտիք"],"lon":46.49643,"lat":39.24852,"pop":0},{"id":616754,"name":"Charchakis","alt":["Carcakis","Derek","Dzhardzharis","Дерек","Ճարճակիս"],"lon":44.32398,"lat":40.69974,"pop":0},{"id":11320449,"name":"Charchakis","alt":["Carcakis","Ճարճակիս"],"lon":44.30548,"lat":40.70428,"pop":0},{"id":11231076,"name":"Chermak","alt":["Cermak","Ճերմակ"],"lon":44.28607,"lat":40.25568,"pop":0},{"id":11342986,"name":"Chermakavan","alt":["Cermakavan","Ճերմակավան"],"lon":45.0293,"lat":40.70709,"pop":0},{"id":11342987,"name":"Chermakavan","alt":["Cermakavan","Ճերմակավան"],"lon":45.03192,"lat":40.70709,"pop":0},{"id":11270629,"name":"Chghats K’ar","alt":["Cgac Far","Chghats K'ar","Ճղած Ֆար"],"lon":46.28748,"lat":39.5307,"pop":0},{"id":11321173,"name":"Chghut","alt":["Cgut","Ճղուտ"],"lon":44.73053,"lat":40.93048,"pop":0},{"id":11105919,"name":"Chgnavor","alt":["Cgnavor","Ճգնավոր"],"lon":45.92792,"lat":39.54169,"pop":0},{"id":11321168,"name":"Chgnavor","alt":["Cgnavor","Ճգնավոր"],"lon":44.73053,"lat":40.95007,"pop":0},{"id":11324987,"name":"Chgnavor","alt":["Cgnavor","Ճգնավոր"],"lon":45.28332,"lat":40.62793,"pop":0},{"id":11321169,"name":"Chgnavori","alt":["Cgnavori","Ճգնավորի"],"lon":44.73053,"lat":40.94452,"pop":0},{"id":11225557,"name":"Chgnavori Dasht","alt":["Cgnavori dast","Ճգնավորի դաշտ"],"lon":44.90289,"lat":39.85431,"pop":0},{"id":11225558,"name":"Chgnavori Dasht","alt":["Cgnavori dast","Ճգնավորի դաշտ"],"lon":44.9043,"lat":39.85553,"pop":0},{"id":11230969,"name":"Chil","alt":["Cil","Ճիլ"],"lon":44.26672,"lat":40.34027,"pop":0},{"id":11319449,"name":"Chimanis Bnakateghi","alt":["Ch'imanis Bnakateghi","Ch’imanis Bnakateghi","Չիմանիս բնակատեղի"],"lon":44.37653,"lat":41.00409,"pop":0},{"id":174934,"name":"Chimankend","alt":["Nerkin Karabakhlar","Nizhniy Karabaglyar"],"lon":44.82073,"lat":39.91833,"pop":0},{"id":616780,"name":"Chinari","alt":["Ch'inari","Ch’inari","Cinari","Çinari","Չինարի"],"lon":45.57781,"lat":40.85469,"pop":0},{"id":616779,"name":"Chinchin","alt":["Ch'inch'in","Ch’inch’in","Cincin","Çinçin","Չինչին"],"lon":45.35052,"lat":40.90838,"pop":0},{"id":11364142,"name":"Chipot","alt":["Cipot","Ճիպոտ"],"lon":44.29169,"lat":40.96393,"pop":0},{"id":800298,"name":"Chirchiri","lon":45.13417,"lat":40.8175,"pop":0},{"id":616777,"name":"Chkalov","alt":["Ch'kalov","Ch’kalov","Sadibagdi","Չկալով"],"lon":44.65193,"lat":40.93403,"pop":0},{"id":10426608,"name":"Chlut","alt":["Clut","Ճլուտ"],"lon":45.02789,"lat":39.8667,"pop":0},{"id":11108214,"name":"Chluti","alt":["Cluti","Ճլուտի"],"lon":44.55292,"lat":40.3515,"pop":0},{"id":616773,"name":"Chochkan","alt":["Cockan","Ճոճկան"],"lon":44.83217,"lat":41.18118,"pop":1740},{"id":389320,"name":"Chrag","alt":["Chirakhlu","Crag","Ճրագ"],"lon":45.60431,"lat":39.68329,"pop":0},{"id":11231116,"name":"Chragi","alt":["Cragi","Ճրագի"],"lon":44.25568,"lat":40.34589,"pop":0},{"id":11362902,"name":"Chrrvoghan","alt":["Crvogan","Ճռվողան"],"lon":45.06488,"lat":41.0029,"pop":0},{"id":389223,"name":"Chullu","lon":46.41389,"lat":39.27333,"pop":0},{"id":11324137,"name":"Chyughavran","alt":["Cyugavran","Ճյուղավրան"],"lon":45.24872,"lat":40.78332,"pop":0},{"id":11343104,"name":"Dadoner","alt":["Դադոներ"],"lon":45.02368,"lat":40.50153,"pop":0},{"id":11225382,"name":"Daghnig","alt":["Dagnig","Դաղնիգ"],"lon":44.90008,"lat":39.90692,"pop":0},{"id":11343010,"name":"Dahar","alt":["Դահար"],"lon":45.21668,"lat":40.71948,"pop":0},{"id":11225629,"name":"Dahnaks","alt":["Դահնակս"],"lon":44.29447,"lat":39.14592,"pop":0},{"id":174931,"name":"Dalar","alt":["Dalular","Далар","Դալար"],"lon":44.52649,"lat":39.97653,"pop":2504},{"id":11107716,"name":"Dalar","alt":["Դալար"],"lon":44.59448,"lat":40.48889,"pop":0},{"id":11312583,"name":"Dalardzor","alt":["Dalarjor","Դալարձոր"],"lon":46.19733,"lat":39.15692,"pop":0},{"id":616769,"name":"Dalarik","alt":["Mastara","Даларик","Դալարիկ"],"lon":43.87793,"lat":40.2279,"pop":3080},{"id":11338828,"name":"Daluk","alt":["Դալուկ"],"lon":44.98328,"lat":40.41528,"pop":0},{"id":11277943,"name":"Dambaranadasht","alt":["Dambaranadast","Դամբարանադաշտ"],"lon":43.83752,"lat":41.02508,"pop":0},{"id":11277944,"name":"Dambaranadasht","alt":["Dambaranadast","Դամբարանադաշտ"],"lon":43.83069,"lat":41.00409,"pop":0},{"id":11319500,"name":"Dambaranadasht","alt":["Dambaranadast","Դամբարանադաշտ"],"lon":44.40289,"lat":41.0307,"pop":0},{"id":11323186,"name":"Dambaranadasht","alt":["Dambaranadast","Դամբարանադաշտ"],"lon":44.77789,"lat":41.14868,"pop":0},{"id":11339281,"name":"Dambaranadasht","alt":["Dambaranadast","Դամբարանադաշտ"],"lon":43.7403,"lat":40.65149,"pop":0},{"id":11363302,"name":"Dambaranadasht","alt":["Dambaranadast","Դամբարանադաշտ"],"lon":44.6543,"lat":41.12909,"pop":0},{"id":11370327,"name":"Dambaranadasht","alt":["Dambaranadast","Դամբարանադաշտ"],"lon":44.71112,"lat":40.57928,"pop":0},{"id":11328507,"name":"Dambarank’","alt":["Dambarank'","Դամբարանք"],"lon":46.30829,"lat":39.35828,"pop":0},{"id":11321393,"name":"Damblut","alt":["Դամբլուտ"],"lon":44.62372,"lat":40.90289,"pop":0},{"id":823811,"name":"Darakert","alt":["Դարակերտ"],"lon":44.41388,"lat":40.10553,"pop":2325},{"id":616766,"name":"Daranak","alt":["Dara","Դարանակ"],"lon":45.56809,"lat":40.36751,"pop":0},{"id":174929,"name":"Darbas","alt":["Darabas","Darabaz","Darapas","Դարբաս"],"lon":46.12746,"lat":39.4389,"pop":0},{"id":11191812,"name":"Darbink’","alt":["Darbink'","Դարբինք"],"lon":45.61389,"lat":39.6825,"pop":0},{"id":616765,"name":"Darbnik","alt":["Demurchi","Malyye Demurchi","Pokr Shorlu Demurchi","Դարբնիկ"],"lon":44.37793,"lat":40.10828,"pop":0},{"id":11278014,"name":"Dari Surb","alt":["Դարի Սուրբ"],"lon":43.82092,"lat":41.05011,"pop":0},{"id":616764,"name":"Darik","alt":["Oksuz","Oksyuz","Դարիկ"],"lon":43.67651,"lat":41.11931,"pop":0},{"id":11319465,"name":"Darmanat’agh","alt":["Darmanat'agh","Դարմանաթաղ"],"lon":44.45007,"lat":41.00568,"pop":0},{"id":616763,"name":"Darpas","alt":["Darbas","Дарпас","Դարպաս"],"lon":44.42494,"lat":40.83674,"pop":1785},{"id":11362824,"name":"Darpasi","alt":["Դարպասի"],"lon":45.14313,"lat":41.00568,"pop":0},{"id":11324077,"name":"Darrnadzor","alt":["Darnajor","Դառնաձոր"],"lon":45.23053,"lat":40.7959,"pop":0},{"id":389311,"name":"Dashalty","lon":45.44167,"lat":39.70556,"pop":0},{"id":616762,"name":"Dashkerpi","lon":43.76667,"lat":40.96667,"pop":0},{"id":389405,"name":"Dashnoa","lon":45.21837,"lat":39.44854,"pop":0},{"id":616761,"name":"Dasht","alt":["Dast","Դաշտ"],"lon":44.30011,"lat":40.2279,"pop":0},{"id":616369,"name":"Dashtadem","alt":["Dastadem","Nerkin Talin","Nizhniy Talin","Դաշտադեմ"],"lon":43.85828,"lat":40.34168,"pop":0},{"id":616625,"name":"Dashtadem","alt":["Dastadem","Illmazlu","Ilmazlu","Илмазлу","Դաշտադեմ"],"lon":44.17488,"lat":41.13977,"pop":0},{"id":823717,"name":"Dashtadem","lon":44.175,"lat":41.13667,"pop":0},{"id":7668961,"name":"Dashtadem","lon":43.85824,"lat":40.34455,"pop":0},{"id":11365337,"name":"Dashtak","alt":["Dastak","Դաշտակ"],"lon":44.1889,"lat":40.62793,"pop":0},{"id":174928,"name":"Dashtak’ar","alt":["Dashlu","Dashtak'ar","Dashtakar","Դաշտաքար"],"lon":44.75568,"lat":39.9223,"pop":0},{"id":823812,"name":"Dashtavan","alt":["Dastavan","Դաշտավան"],"lon":44.39172,"lat":40.1001,"pop":1762},{"id":11255528,"name":"Dashtik","alt":["Dastik","Դաշտիկ"],"lon":44.80151,"lat":40.64447,"pop":0},{"id":11255601,"name":"Dashtik","alt":["Dastik","Դաշտիկ"],"lon":44.8515,"lat":40.61108,"pop":0},{"id":11339477,"name":"Dashuyn","alt":["Dasuyn","Դաշույն"],"lon":43.69873,"lat":41.09168,"pop":0},{"id":174927,"name":"Dastakert","alt":["Dastakern","Dastakertas","Dastakyurd","Dəstəgird","da si ta kai te","dastakrt","Дастакерт","Դաստակերտ","داستاكرت","داستاکرت","დასტაკერტი","達斯塔凱特"],"lon":46.03084,"lat":39.38117,"pop":0},{"id":10427107,"name":"Dastakert","alt":["Dastakert - 1","Դաստակերտ - 1"],"lon":45.08472,"lat":39.9903,"pop":0},{"id":10427108,"name":"Dastakert","alt":["Dastakert - 2","Դաստակերտ - 2"],"lon":45.10828,"lat":39.97931,"pop":0},{"id":11320872,"name":"Datark Vran","alt":["Datark vran","Դատարկ վրան"],"lon":44.73328,"lat":40.80292,"pop":0},{"id":11132955,"name":"Datavorats’","alt":["Datavorats'","Դատավորաց"],"lon":43.61108,"lat":40.37512,"pop":0},{"id":11339314,"name":"Davak’arap’","alt":["Davak'arap'","Դավաքարափ"],"lon":43.74451,"lat":40.54871,"pop":0},{"id":174992,"name":"Davalu","alt":["Ararat","Арарат"],"lon":44.70489,"lat":39.83166,"pop":0},{"id":174926,"name":"Davit’ Bek","alt":["Ashaga Zeyva","Ashaya-Zeyva","David Bay","David Bəy","David-Bek","Davit' Bek","Zeyva","Դավիթ Բեկ"],"lon":46.49461,"lat":39.31997,"pop":0},{"id":11022174,"name":"Davit’ Bek","alt":["Davit' Bek","Դավիթ Բեկ"],"lon":46.13751,"lat":39.48608,"pop":0},{"id":10654087,"name":"Davit’ Vardapeti","alt":["Davit' Vardapeti","Դավիթ Վարդապետի"],"lon":45.35687,"lat":40.1181,"pop":0},{"id":11230478,"name":"Davoyi","alt":["Դավոյի"],"lon":44.44452,"lat":40.45288,"pop":0},{"id":616758,"name":"Davt’ashen","alt":["Davidashen","Davitashen","Davt'ashen","Davtashen","Դավթաշեն"],"lon":44.48088,"lat":40.21642,"pop":0},{"id":616759,"name":"Davt’ashen","alt":["Aynali","Davdashen","Davt'ashen","Դավթաշեն"],"lon":43.95569,"lat":40.36108,"pop":0},{"id":616610,"name":"Ddmasar","alt":["Kabakhtapa","Դդմասար"],"lon":43.82507,"lat":40.34168,"pop":0},{"id":616757,"name":"Ddmashen","alt":["Ddmasen","Dodmashen","Totmashen","Ддмашен","Դդմաշեն"],"lon":44.82295,"lat":40.57028,"pop":2157},{"id":10643155,"name":"Ddmashen","alt":["Ddmasen","Դդմաշեն"],"lon":45.41949,"lat":39.66949,"pop":0},{"id":616756,"name":"Debet","alt":["Debed","Khachigyukh","Դեբետ"],"lon":44.64933,"lat":40.91786,"pop":0},{"id":616494,"name":"Debetavan","alt":["Lalvar","Դեբետավան"],"lon":44.81243,"lat":41.27945,"pop":0},{"id":866143,"name":"Deghdzut","alt":["Deghtsut","Degjut","Dekhtsut","Դեղձուտ"],"lon":44.54914,"lat":40.02616,"pop":0},{"id":11362879,"name":"Deghdzut","alt":["Degjut","Դեղձուտ"],"lon":45.03332,"lat":41.01813,"pop":0},{"id":11255603,"name":"Demdemashen","alt":["Demdemasen","Դեմդեմաշեն"],"lon":44.84168,"lat":40.57507,"pop":0},{"id":11315334,"name":"Demer","alt":["Դեմեր"],"lon":43.89172,"lat":40.51947,"pop":0},{"id":11318171,"name":"Demer","alt":["Դեմեր"],"lon":45.71527,"lat":40.13348,"pop":0},{"id":11320197,"name":"Demer","alt":["Դեմեր"],"lon":44.41528,"lat":40.58472,"pop":0},{"id":11336836,"name":"Demirchyan D.","alt":["Demircyan D.","Դեմիրճյան Դ."],"lon":44.52429,"lat":40.1875,"pop":0},{"id":11192083,"name":"Derbn","alt":["Դերբն"],"lon":45.63068,"lat":39.70569,"pop":0},{"id":11190279,"name":"Deroyi Gom","alt":["Deroyi gom","Դերոյի գոմ"],"lon":45.47369,"lat":39.86951,"pop":0},{"id":11319440,"name":"Desin","alt":["Դեսին"],"lon":44.38611,"lat":41.01611,"pop":0},{"id":10643359,"name":"Dghyak","alt":["Dgyak","Դղյակ"],"lon":45.4751,"lat":39.73328,"pop":0},{"id":616753,"name":"Dian","alt":["Ditavan","Դիան"],"lon":44.07507,"lat":40.35553,"pop":0},{"id":616752,"name":"Dilijan","alt":["Delijan","Delishan","Delizhan","Dili","Dili P'ok'r","Dili P’ok’r","Dilican","Dilichan","Dilidjan","Dilidschan","Dilidzan","Dilidzhan","Dilidżan","Dilidžan","Diligano","Dilishan","Dilizanas","Dilizhan","Diliĝano","Diližanas","Hin","Tili","Tilichan","di li ran","dilijani","dylyjan","Дилиджан","Дилижан","Дилиџан","Діліжан","Դիլիջան","دیلیجان","დილიჯანი","迪利然"],"lon":44.8501,"lat":40.7417,"pop":13478},{"id":866135,"name":"Dimitrov","alt":["Դիմիտրով"],"lon":44.4917,"lat":40.00848,"pop":1212},{"id":616750,"name":"Ditak","alt":["Դիտակ"],"lon":44.51942,"lat":40.04519,"pop":0},{"id":11369940,"name":"Ditak’ar","alt":["Ditak'ar","Դիտաքար"],"lon":44.77789,"lat":40.87231,"pop":0},{"id":616749,"name":"Ditavan","alt":["Revaz","Revazlu","Դիտավան"],"lon":45.20701,"lat":40.9744,"pop":0},{"id":11277890,"name":"Ditaver","alt":["Դիտավեր"],"lon":43.77087,"lat":41.1153,"pop":0},{"id":174924,"name":"Dits’mayri","alt":["Darach'iman","Darach’iman","Dits'mayri","Karachiman","Kharachiman","Դիցմայրի"],"lon":46.50012,"lat":39.20831,"pop":0},{"id":11324951,"name":"Divategh","alt":["Divateg","Դիվատեղ"],"lon":45.29449,"lat":40.64868,"pop":0},{"id":616748,"name":"Doghs","alt":["Dogs","Dokhs","Դողս"],"lon":44.27228,"lat":40.22229,"pop":1186},{"id":11108854,"name":"Dolakner","alt":["Դոլակներ"],"lon":45.14172,"lat":40.34027,"pop":0},{"id":11321435,"name":"Dolmenner","alt":["Դոլմեններ"],"lon":44.63348,"lat":40.95007,"pop":0},{"id":11364514,"name":"Dolmenner","alt":["Դոլմեններ"],"lon":44.39172,"lat":40.81531,"pop":0},{"id":11319723,"name":"Dorbantavank’","alt":["Dorbantavank'","Դորբանտավանք"],"lon":44.4361,"lat":41.11389,"pop":0},{"id":616747,"name":"Dovegh","alt":["Balakend","Doveg","Dovekh","Dovex","Duvakh","Դովեղ"],"lon":45.02817,"lat":41.18426,"pop":0},{"id":11362366,"name":"Dovoni Makaghots’","alt":["Dovoni Makaghots'","Դովոնի մակաղոց"],"lon":46.14587,"lat":38.93189,"pop":0},{"id":616745,"name":"Dprabak","alt":["Caykand","Chaykend","Çaykənd","Դպրաբակ"],"lon":45.12505,"lat":40.68785,"pop":0},{"id":11128922,"name":"Dprevank’","alt":["Dprevank'","Դպրեվանք"],"lon":44.09729,"lat":40.29169,"pop":0},{"id":616744,"name":"Drakhtik","alt":["Draxtik","Tokhludzha","Тохлуджа","Դրախտիկ"],"lon":45.2367,"lat":40.56497,"pop":1016},{"id":11224470,"name":"Drakhtik","alt":["Draxtik","Դրախտիկ"],"lon":44.08069,"lat":40.06952,"pop":0},{"id":11321395,"name":"Drndatap’","alt":["Drndatap'","Դրնդատափ"],"lon":44.65832,"lat":40.88208,"pop":0},{"id":11363585,"name":"Drunk’","alt":["Drunk'","Դրունք"],"lon":44.74451,"lat":41.11389,"pop":0},{"id":11365623,"name":"Drunk’","alt":["Drunk'","Դրունք"],"lon":44.2417,"lat":40.73328,"pop":0},{"id":11330158,"name":"Drunk’atap’","alt":["Drunk'atap'","Դրունքատափ"],"lon":46.26947,"lat":38.98053,"pop":0},{"id":616742,"name":"Dsegh","alt":["Dseg","Dsekh","Tumanyan","Дсех","Դսեղ"],"lon":44.65003,"lat":40.9617,"pop":2484},{"id":11315336,"name":"Dvalner","alt":["Դվալներ"],"lon":43.93048,"lat":40.5293,"pop":0},{"id":616741,"name":"Dvin","alt":["Dvin Armyanskiy","Nerkin Dvin","Nizhniy Dvin","Двин","Դվին"],"lon":44.58376,"lat":40.01984,"pop":2795},{"id":616740,"name":"Dvoragyukh","alt":["Dzoragjukh","Дзорагюх"],"lon":45.18333,"lat":40.16667,"pop":0},{"id":11190134,"name":"Dzagavan","alt":["Jagavan","Ձագավան"],"lon":45.25568,"lat":39.91388,"pop":0},{"id":11324133,"name":"Dzakh Bats’at","alt":["Dzakh Bats'at","Ձախ բացատ"],"lon":45.2417,"lat":40.80292,"pop":0},{"id":389363,"name":"Dzhani","lon":45.50057,"lat":39.90113,"pop":0},{"id":11330684,"name":"Dzhdem","alt":["Dzdem","Դժդեմ"],"lon":43.71668,"lat":40.16107,"pop":0},{"id":800081,"name":"Dzhiviskli","lon":45.2425,"lat":40.66417,"pop":0},{"id":11329169,"name":"Dzhokhadzor","alt":["Dzoxajor","Դժոխաձոր"],"lon":46.36389,"lat":39.39728,"pop":0},{"id":616719,"name":"Dzit’hank’ov","alt":["Bazirkhana","Dzit'hank'ov","Dzitankov","Dzitkhankov","Дзитанков","Ձիթհանքով"],"lon":43.82092,"lat":40.50848,"pop":1162},{"id":11215232,"name":"Dzknakerp","alt":["Jknakerp","Ձկնակերպ"],"lon":43.98608,"lat":40.36951,"pop":0},{"id":11339529,"name":"Dzknorsneri","alt":["Jknorsneri","Ձկնորսների"],"lon":43.59168,"lat":41.05011,"pop":0},{"id":11190488,"name":"Dzmerrots’","alt":["Dzmerrots'","Ձմեռոց"],"lon":45.28607,"lat":39.8529,"pop":0},{"id":616712,"name":"Dzoraghbyur","alt":["Dzhorakhpyur","Dzoraghp'yur","Dzoraghp’yur","Dzorakhbjur","Dzorakhpyur","Joragbyur","Tedshirabad","Tedzhirabad","Tedzhrabak","Дзорахбюр","Ձորաղբյուր"],"lon":44.6415,"lat":40.20412,"pop":2011},{"id":616717,"name":"Dzoraglukh","alt":["Gyulablu","Joraglux","Ձորագլուխ"],"lon":44.48896,"lat":40.57627,"pop":0},{"id":616714,"name":"Dzoragyugh","alt":["Darakend","Dzoraget","Dzoragyukh","Joragyug","Дзорагет","Ձորագյուղ"],"lon":44.61559,"lat":40.94833,"pop":0},{"id":616715,"name":"Dzoragyugh","alt":["Dzhoragyukh","Dzoragjukh","Dzoragyukh","Joragyug","Nerkin Pirtikan","Nizhniy Pirtikan","Дзорагюх","Ձորագյուղ"],"lon":43.9057,"lat":40.46668,"pop":0},{"id":616716,"name":"Dzoragyugh","alt":["Dvoragyukh","Dzoraget","Dzoragyukh","Joragyug","Vali Agalu","Дзорагет","Ձորագյուղ"],"lon":45.18337,"lat":40.16957,"pop":3570},{"id":11278059,"name":"Dzoragyugh","alt":["Joragyug","Ձորագյուղ"],"lon":43.8847,"lat":41.15973,"pop":0},{"id":11323230,"name":"Dzoragyugh","alt":["Joragyug","Ձորագյուղ"],"lon":44.85687,"lat":41.10553,"pop":0},{"id":11336876,"name":"Dzoragyugh","alt":["Joragyug","Ձորագյուղ"],"lon":44.50293,"lat":40.17792,"pop":0},{"id":11328393,"name":"Dzorak","alt":["Jorak","Ձորակ"],"lon":46.44171,"lat":39.33893,"pop":0},{"id":616713,"name":"Dzorakap","alt":["Bogazkyasan","Jorakap","Ձորակապ"],"lon":43.88068,"lat":40.56811,"pop":0},{"id":616711,"name":"Dzoramut","alt":["Evlu","Joramut","Molla Eylublu","Molla Eyublu","Ձորամուտ"],"lon":44.28785,"lat":41.19773,"pop":0},{"id":389291,"name":"Dzorashen","alt":["Aigedzor","Alighulashen","Alighuli Ashaghy","Alikulik'yand","Alikulik’yand","Artashe","Artashen","At'ghunk'","At’ghunk’","Azatashen-Alighuli","Dzorasen","Dzoraşen","Hart'ashen","Hart’ashen","Jorasen","Keru","Këru","Last","Арташен","Հարթաշեն","Ձորաշեն"],"lon":46.41887,"lat":39.48665,"pop":0},{"id":389297,"name":"Dzorashen","alt":["Darakend","Jorasen","Ձորաշեն"],"lon":45.4029,"lat":39.80608,"pop":0},{"id":616709,"name":"Dzorashen","alt":["Jorasen","Karakilisa Tret'ya","Karakilisa Tret’ya","Yerord Karakilisa","Ձորաշեն"],"lon":44.06806,"lat":40.93114,"pop":0},{"id":616710,"name":"Dzorashen","alt":["Jorasen","Krykh","Ձորաշեն"],"lon":43.79729,"lat":40.57791,"pop":0},{"id":800243,"name":"Dzorashen","alt":["Darakend","Jorasen","Ձորաշեն"],"lon":44.12533,"lat":40.94441,"pop":0},{"id":11315216,"name":"Dzorasheni","alt":["Joraseni","Ձորաշենի"],"lon":43.77649,"lat":40.54028,"pop":0},{"id":11215119,"name":"Dzorasheni P’arakhner","alt":["Dzorasheni P'arakhner","Ձորաշենի փարախներ"],"lon":43.82373,"lat":40.42651,"pop":0},{"id":174918,"name":"Dzorastan","alt":["Akhtakhana","Jorastan","Khlatag","Ձորաստան"],"lon":46.3572,"lat":39.27059,"pop":1034},{"id":616708,"name":"Dzoravank’","alt":["Dzoravank'","Karakaya","Qaraqaya","Ձորավանք"],"lon":45.10577,"lat":40.69918,"pop":0},{"id":10654278,"name":"Dzori Surb","alt":["Jori Surb","Ձորի Սուրբ"],"lon":45.49731,"lat":40.12653,"pop":0},{"id":11318095,"name":"Dzori Tner","alt":["Jori tner","Ձորի տներ"],"lon":45.50568,"lat":40.05011,"pop":0},{"id":11191921,"name":"Dzork’","alt":["Dzork'","Ձորք"],"lon":45.80553,"lat":39.40553,"pop":0},{"id":11330502,"name":"Dzorshen","alt":["Jorsen","Ձորշեն"],"lon":46.09729,"lat":39.52508,"pop":0},{"id":616528,"name":"Dzyunashogh","alt":["Dzhudzhakyand","Jyunasog","Kizilshafak","Ձյունաշող"],"lon":44.18549,"lat":41.18527,"pop":0},{"id":823716,"name":"Dzyunashogh","lon":44.18111,"lat":41.17944,"pop":0},{"id":10643489,"name":"Eloyi K’ar","alt":["Eloyi K'ar","Էլոյի քար"],"lon":45.32788,"lat":39.64032,"pop":0},{"id":388496,"name":"Erandzor","lon":46.46449,"lat":38.95779,"pop":0},{"id":866152,"name":"Erebuni","alt":["Castillo de Erebuni","Ehrebuni","Erebouni","Erebuni Fortress","Erebuni Kalesi","Erebuni qalasi","Erebuni qalası","Fortikajo Erebuno","Fortikaĵo Erebuno","elebuni yosae","Еребуні","Эребуни","Էրեբունի","에레부니 요새"],"lon":44.53009,"lat":40.13309,"pop":0},{"id":11111104,"name":"Erebuni","alt":["Էրեբունի"],"lon":44.47089,"lat":40.12793,"pop":0},{"id":11321557,"name":"Ergenmat","alt":["Էրգենմատ"],"lon":44.54169,"lat":40.87231,"pop":0},{"id":616703,"name":"Eridzor","alt":["Erijor","Էրիձոր"],"lon":45.52508,"lat":40.82788,"pop":0},{"id":11369949,"name":"Erohudkut","alt":["Էրոհուդկուտ"],"lon":44.80548,"lat":40.99451,"pop":0},{"id":11318442,"name":"Evazi","alt":["Էվազի"],"lon":45.69171,"lat":40.1889,"pop":0},{"id":11864159,"name":"Ərkenats","alt":["Arkenats"],"lon":48.45893,"lat":35.27712,"pop":0},{"id":616701,"name":"Fantan","alt":["Fontan","Ֆանտան"],"lon":44.6861,"lat":40.39447,"pop":1019},{"id":866099,"name":"Ferik","alt":["Ֆերիկ"],"lon":44.21112,"lat":40.1861,"pop":0},{"id":11277905,"name":"Finto","alt":["Ֆինտո"],"lon":43.80689,"lat":41.1153,"pop":0},{"id":616702,"name":"Fioletovo","alt":["Nikitino","Фиолетово","Ֆիոլետովո"],"lon":44.71769,"lat":40.72241,"pop":1264},{"id":616700,"name":"Franganots","lon":44.2725,"lat":40.24639,"pop":0},{"id":616699,"name":"Gagarin","alt":["Гагарин","Գագարին"],"lon":44.86962,"lat":40.54026,"pop":1305},{"id":11223995,"name":"Gagoyi Anvan Jrhan Kayan","alt":["Gagoyi anvan jrhan kayan","Գագոյի անվան ջրհան կայան"],"lon":44.09589,"lat":40.06952,"pop":0},{"id":11214945,"name":"Galshoyan M.","alt":["Galsoyan M.","Գալշոյան Մ."],"lon":43.95148,"lat":40.37653,"pop":0},{"id":11214710,"name":"Galusti","alt":["Գալուստի"],"lon":43.96252,"lat":40.3501,"pop":0},{"id":11321392,"name":"Galusti","alt":["Գալուստի"],"lon":44.62793,"lat":40.89313,"pop":0},{"id":616814,"name":"Gandzak","alt":["Batikjan","Batikyan","Ganjak","Kesamamed","Kësamamed","Батикян","Գանձակ"],"lon":45.11469,"lat":40.32541,"pop":0},{"id":823800,"name":"Gandzak","lon":45.11139,"lat":40.31472,"pop":3841},{"id":823750,"name":"Gandzak’ar","alt":["Gandzak'ar","Gandzakar","Гандзакар"],"lon":45.16158,"lat":40.84373,"pop":0},{"id":617016,"name":"Gandzakar","alt":["Agdan","Gandzak'ar","Gandzak’ar","Qandzakar","Verin-Agdan","Verkhniy Agdan","Գանձաքար"],"lon":45.16136,"lat":40.84508,"pop":0},{"id":11255685,"name":"Gandzavank’","alt":["Gandzavank'","Գանձավանք"],"lon":44.95007,"lat":40.50848,"pop":0},{"id":11319184,"name":"Garedzor","alt":["Garejor","Գարեձոր"],"lon":44.17908,"lat":40.79028,"pop":0},{"id":11370012,"name":"Garenots’","alt":["Garenots'","Գարենոց"],"lon":44.75848,"lat":40.96948,"pop":0},{"id":616675,"name":"Gargar","alt":["Armyanskiy Gerger","Dyarrgyarr","Gargarr","Garrgarr","Gerger","Gerger Russkiy","Gergeri","Herher","Գարգառ"],"lon":44.44161,"lat":40.9577,"pop":0},{"id":11330117,"name":"Garov","alt":["Գարով"],"lon":46.2973,"lat":38.96393,"pop":0},{"id":616694,"name":"Garrnahovit","alt":["Adyaman","Garnahovit","Garnovit","Գառնահովիտ"],"lon":43.95831,"lat":40.49731,"pop":0},{"id":616504,"name":"Garrnarrich","alt":["Garnaric","Garnarich","Khozikend","Kuzikend","Кузикенд","Գառնառիճ"],"lon":43.60447,"lat":41.07775,"pop":0},{"id":11339451,"name":"Garrnarrichi","alt":["Garnarici","Գառնառիճի"],"lon":43.55829,"lat":41.07788,"pop":0},{"id":11365603,"name":"Garrnhoviti","alt":["Garnhoviti","Գառնհովիտի"],"lon":44.00153,"lat":40.50293,"pop":0},{"id":616697,"name":"Garrni","alt":["Bash Gyarni","Garni","Гарни","Գառնի"],"lon":44.73442,"lat":40.11931,"pop":6827},{"id":11215099,"name":"Garrniki Hanats","alt":["Garniki hanac","Գառնիկի հանած"],"lon":43.84308,"lat":40.48468,"pop":0},{"id":11321453,"name":"Garunk","alt":["Garunk'","Garunk’","Գարունք"],"lon":44.62372,"lat":40.94873,"pop":0},{"id":11365604,"name":"Gaspari","alt":["Գասպարի"],"lon":44.1723,"lat":40.59448,"pop":0},{"id":616599,"name":"Gavar","alt":["Gavarr","Kamo","Kyavar","Nor-Bajaset","Novo Bayazet","Гавар","Камо","Գավառ"],"lon":45.12386,"lat":40.35398,"pop":21680},{"id":11335913,"name":"Gavarri Hovtun","alt":["Gavari hovtun","Գավառի հովտուն"],"lon":45.21252,"lat":40.04309,"pop":0},{"id":11108394,"name":"Gavarrni","alt":["Gavarni","Գավառնի"],"lon":45.08472,"lat":40.32648,"pop":0},{"id":823808,"name":"Gay","lon":44.30528,"lat":40.08444,"pop":3309},{"id":11312677,"name":"Gaylak’ar","alt":["Gaylak'ar","Գայլաքար"],"lon":46.13892,"lat":39.19452,"pop":0},{"id":11369790,"name":"Gaylategh","alt":["Gaylateg","Գայլատեղ"],"lon":44.91107,"lat":40.95831,"pop":0},{"id":11369878,"name":"Gaz","alt":["Գազ"],"lon":44.85687,"lat":40.88751,"pop":0},{"id":11329826,"name":"Gazakhut’","alt":["Gazakhut'","Գազախութ"],"lon":46.55689,"lat":39.1861,"pop":0},{"id":11133117,"name":"Gegh","alt":["Geg","Գեղ"],"lon":43.69452,"lat":40.48328,"pop":0},{"id":616685,"name":"Geghadir","alt":["Gegadir","Gekhadir","Nizhnyaya Gezaldara","Гехадир","Գեղադիր"],"lon":44.10581,"lat":40.65213,"pop":0},{"id":616686,"name":"Geghadir","alt":["Gegadir","Gekhadir","Kyarpichlu","Գեղադիր"],"lon":44.65141,"lat":40.15466,"pop":0},{"id":11323251,"name":"Geghadir","alt":["Gegadir","Գեղադիր"],"lon":44.78332,"lat":41.1029,"pop":0},{"id":616684,"name":"Geghadzor","alt":["Gegajor","Gekhadzor","Gezaldara","Verkhnyaya Gezaldara","Գեղաձոր"],"lon":44.17095,"lat":40.62731,"pop":0},{"id":823819,"name":"Geghahovit","alt":["Gegahovit","Gekhovit","Геховит","Գեղահովիտ"],"lon":45.28728,"lat":40.11147,"pop":0},{"id":616690,"name":"Geghak’ar","alt":["Geghak'ar","Subatan","Գեղաքար"],"lon":45.68263,"lat":40.11568,"pop":0},{"id":616278,"name":"Geghakert","alt":["Gegakert","Gekhakert","Samagar","Samaghar","Samakhar","Самахар","Գեղակերտ"],"lon":44.24331,"lat":40.18516,"pop":2343},{"id":11315325,"name":"Geghakhorrik","alt":["Gegaxorik","Գեղախոռիկ"],"lon":43.95709,"lat":40.51392,"pop":0},{"id":616689,"name":"Geghamabak","alt":["Gegamabak","Kayabash","Qayabasi","Qayabaşı","Qusabulaq","Quşabulaq","Գեղամաբակ"],"lon":45.80688,"lat":40.16528,"pop":0},{"id":616646,"name":"Geghamasar","alt":["Gegamasar","Gukarrich","Shishkaja","Shishkaya","Sisqaya","Şişqaya","Шишкая","Գեղամասար"],"lon":45.67924,"lat":40.31091,"pop":1060},{"id":616692,"name":"Geghamavan","alt":["Gegamavan","Shagriz","Гегамаван","Գեղամավան"],"lon":44.88892,"lat":40.5625,"pop":1597},{"id":11320695,"name":"Geghani","alt":["Gegani","Գեղանի"],"lon":44.49731,"lat":40.71668,"pop":0},{"id":616681,"name":"Geghanist","alt":["Geganist","Geghadir","Gekhadir","Gekhanist","Golgat","Գեղանիստ"],"lon":44.02333,"lat":40.68467,"pop":0},{"id":616682,"name":"Geghanist","alt":["Geganist","Gekhanist","Getapnia","Geygmbet","Gëygmbet","Геханист","Գեղանիստ"],"lon":44.43048,"lat":40.14587,"pop":2409},{"id":174912,"name":"GeGhanush","alt":["Gekhanush","Gyutkum"],"lon":46.4196,"lat":39.1719,"pop":0},{"id":616680,"name":"Geghard","alt":["Artiz","Gegard","Gekhard","Гехард","Գեղարդ"],"lon":44.79686,"lat":40.15636,"pop":100},{"id":11230416,"name":"Geghard","alt":["Gegard","Գեղարդ"],"lon":44.40008,"lat":40.4361,"pop":0},{"id":616688,"name":"Geghark’unik’","alt":["Bashkend","Geghark'unik'","Gekharkuni","Gekharkunik","Գեղարքունիք"],"lon":45.14728,"lat":40.25568,"pop":0},{"id":616678,"name":"Gegharot","alt":["Gegarot","Gekharot","Keshishkend","Գեղարոտ"],"lon":44.21975,"lat":40.70615,"pop":0},{"id":616181,"name":"Geghasar","alt":["Gegasar","Tapan","Tapanli","Գեղասար"],"lon":44.1825,"lat":40.84798,"pop":0},{"id":616284,"name":"Geghashen","alt":["Chatkran","Gegasen","Gekhashen","Razdan","Гехашен","Գեղաշեն"],"lon":44.72464,"lat":40.22754,"pop":0},{"id":11371357,"name":"Geghashen","alt":["Gegasen","Գեղաշեն"],"lon":44.94171,"lat":39.73608,"pop":0},{"id":11255522,"name":"Geghatap’","alt":["Geghatap'","Գեղատափ"],"lon":44.98608,"lat":40.67792,"pop":0},{"id":11369880,"name":"Geghatari Gomer","alt":["Geghat'arri Gomer","Geghat’arri Gomer","Գեղաթառի գոմեր"],"lon":44.80689,"lat":40.90008,"pop":0},{"id":11255479,"name":"Geghategh","alt":["Gegateg","Գեղատեղ"],"lon":44.99872,"lat":40.73608,"pop":0},