[{"id":3336402,"name":"Alebo","lon":19.78,"lat":60.09972,"pop":0},{"id":845860,"name":"Alfhem","lon":20.00139,"lat":60.14139,"pop":0},{"id":3041842,"name":"Ämnäs","alt":["Amnas","Emnas","Omnes","Ömnes"],"lon":19.98333,"lat":60.21667,"pop":0},{"id":3336490,"name":"Andersböle","lon":19.94111,"lat":60.18139,"pop":0},{"id":661183,"name":"Ängö","lon":20.3057,"lat":60.15579,"pop":0},{"id":12225672,"name":"Apallund","lon":20.15245,"lat":59.99931,"pop":0},{"id":660954,"name":"Åsgårda","lon":20.07022,"lat":60.31631,"pop":0},{"id":660905,"name":"Asterholma","lon":21.0548,"lat":60.2991,"pop":0},{"id":3041837,"name":"Åttböle","lon":19.91667,"lat":60.25,"pop":0},{"id":660821,"name":"Åva","lon":21.07796,"lat":60.45785,"pop":0},{"id":660779,"name":"Baggholma","lon":21.01645,"lat":60.39164,"pop":0},{"id":3041835,"name":"Bamböle","lon":19.85,"lat":60.23333,"pop":0},{"id":3041833,"name":"Bastö","lon":19.86667,"lat":60.31667,"pop":0},{"id":3336436,"name":"Bengtas","lon":19.84583,"lat":60.11083,"pop":0},{"id":3041831,"name":"Bergö","lon":19.83333,"lat":60.3,"pop":0},{"id":660683,"name":"Bistorp","alt":["Bustorp"],"lon":20.11043,"lat":60.0819,"pop":0},{"id":3336478,"name":"Bjärström","lon":19.85917,"lat":60.21333,"pop":0},{"id":850224,"name":"Björby","lon":20.13127,"lat":60.25732,"pop":0},{"id":3336479,"name":"Björkbacka","lon":19.85417,"lat":60.21556,"pop":0},{"id":3336516,"name":"Björkbo","lon":19.77306,"lat":60.22028,"pop":0},{"id":3336511,"name":"Björknäs","lon":19.8275,"lat":60.20056,"pop":0},{"id":660654,"name":"Björkö","lon":20.91921,"lat":60.33192,"pop":0},{"id":660637,"name":"Björnholma","alt":["Bjornholma"],"lon":21.03021,"lat":60.43362,"pop":0},{"id":3041830,"name":"Björnhuvud","lon":19.66578,"lat":60.18515,"pop":0},{"id":660629,"name":"Björsboda","alt":["Bierboda","Biersboda","Bjorsboda"],"lon":20.41503,"lat":60.007,"pop":0},{"id":3041828,"name":"Björsby","alt":["Biersby","Biorsby"],"lon":19.96175,"lat":60.18678,"pop":0},{"id":3336495,"name":"Boda","lon":19.80472,"lat":60.185,"pop":0},{"id":3336526,"name":"Bohem","lon":19.73833,"lat":60.20806,"pop":0},{"id":3336415,"name":"Böjsas","lon":19.81472,"lat":60.12444,"pop":0},{"id":3336603,"name":"Böle","lon":19.595,"lat":60.22833,"pop":0},{"id":3336508,"name":"Bolstad","lon":19.78278,"lat":60.18556,"pop":0},{"id":660567,"name":"Bomarsund","lon":20.24023,"lat":60.21234,"pop":0},{"id":3336537,"name":"Bonäs","lon":19.59694,"lat":60.17778,"pop":0},{"id":3336454,"name":"Boskas","lon":19.89972,"lat":60.13417,"pop":0},{"id":3041825,"name":"Bovik","lon":19.70778,"lat":60.25919,"pop":0},{"id":3336439,"name":"Brandö","lon":19.88028,"lat":60.11417,"pop":0},{"id":660521,"name":"Brändö","alt":["Braendoe"],"lon":21.04534,"lat":60.41165,"pop":515},{"id":660522,"name":"Brändö","lon":20.53906,"lat":60.04952,"pop":0},{"id":660530,"name":"Brännbolstad","alt":["Brandbolstad","Brannbolstad","Brändbolstad"],"lon":20.14889,"lat":60.26589,"pop":0},{"id":3336600,"name":"Brännskär","lon":19.53278,"lat":60.2425,"pop":0},{"id":3336627,"name":"Brantsböle","lon":19.91944,"lat":60.27611,"pop":0},{"id":660499,"name":"Bråttö","alt":["Bratto","Brattoby","Brotoby","Brotto","Brottö","Brotöby","Bråttöby"],"lon":20.32093,"lat":59.99323,"pop":0},{"id":3041823,"name":"Bredbolstad","lon":19.72355,"lat":60.24475,"pop":0},{"id":3041821,"name":"Buskböle","alt":["Buskbele","Buskbole","Buskbële"],"lon":19.95,"lat":60.18333,"pop":0},{"id":660434,"name":"Daglösa","alt":["Daglosa","Daglose Degero","Daglöse Degerö"],"lon":20,"lat":60.35,"pop":0},{"id":3041820,"name":"Dalkarby","lon":19.95,"lat":60.13333,"pop":0},{"id":3041818,"name":"Dånö","lon":19.77359,"lat":60.40154,"pop":0},{"id":660415,"name":"Degerby","alt":["Degerby Al","Degerby Ål"],"lon":20.38876,"lat":60.0305,"pop":0},{"id":3041815,"name":"Degersand","lon":19.6,"lat":60.15,"pop":0},{"id":3041813,"name":"Djäkenböle","lon":19.78333,"lat":60.2,"pop":0},{"id":3041812,"name":"Djurvik","lon":19.76667,"lat":60.11667,"pop":0},{"id":660383,"name":"Domarböle","alt":["Domarbele","Domarbole","Domarbële"],"lon":20.12778,"lat":60.23302,"pop":0},{"id":3041810,"name":"Drygsböle","lon":19.8,"lat":60.18333,"pop":0},{"id":3041807,"name":"Eckerö","alt":["Eckeroe","Eckeroe vald","Eckerö vald","Ehkkerjo","ai ke lei","Эккерё","埃克勒"],"lon":19.61442,"lat":60.21249,"pop":1028},{"id":846314,"name":"Ekdal","lon":20.56438,"lat":60.04475,"pop":0},{"id":3041806,"name":"Emkarby","alt":["Omkarby","Ömkarby"],"lon":19.88556,"lat":60.21111,"pop":0},{"id":849769,"name":"Emtvik","lon":20.79462,"lat":60.27921,"pop":0},{"id":660245,"name":"Enklinge","lon":20.76446,"lat":60.34141,"pop":0},{"id":660205,"name":"Erikvalla","lon":21.06934,"lat":60.35725,"pop":0},{"id":845901,"name":"Estvik","lon":20.18391,"lat":60.2047,"pop":0},{"id":3336437,"name":"Fagerlund","lon":19.86528,"lat":60.10111,"pop":0},{"id":3041802,"name":"Finbo","lon":19.58333,"lat":60.35,"pop":0},{"id":660018,"name":"Finby","lon":20.1801,"lat":60.2248,"pop":0},{"id":846320,"name":"Finholma","lon":20.51957,"lat":60.0632,"pop":0},{"id":659997,"name":"Finnö","lon":20.72031,"lat":60.07489,"pop":0},{"id":659998,"name":"Finnö","alt":["Finnby","Finno"],"lon":20.91667,"lat":59.91667,"pop":0},{"id":849940,"name":"Finnslätt","lon":20.77,"lat":60.35917,"pop":0},{"id":3041798,"name":"Finström","alt":["Finstroem"],"lon":19.93333,"lat":60.26667,"pop":2412},{"id":659984,"name":"Fiskö","lon":20.93874,"lat":60.45178,"pop":0},{"id":659973,"name":"Flaka","alt":["Flakka"],"lon":20.16149,"lat":60.02481,"pop":0},{"id":659958,"name":"Flisö","lon":20.34475,"lat":60.01459,"pop":0},{"id":659949,"name":"Föglö","alt":["Foegloe","Fogleo","Fögleö"],"lon":20.41377,"lat":60.01392,"pop":632},{"id":850226,"name":"Främmanby","lon":20.06157,"lat":60.26755,"pop":0},{"id":3041796,"name":"Frebbenby","lon":19.71667,"lat":60.21667,"pop":0},{"id":3336423,"name":"Furubo","lon":19.76111,"lat":60.15917,"pop":0},{"id":3336538,"name":"Furulund","lon":19.57917,"lat":60.18444,"pop":0},{"id":3336609,"name":"Furulund","lon":19.77417,"lat":60.22944,"pop":0},{"id":659844,"name":"Germundö","lon":20,"lat":60.28333,"pop":0},{"id":12368022,"name":"Gesterby","lon":20.08115,"lat":60.24826,"pop":0},{"id":3041792,"name":"Geta","alt":["Eta","Geta vald","gai ta","Ета","蓋塔"],"lon":19.84455,"lat":60.37453,"pop":452},{"id":3336456,"name":"Gibböle","lon":19.99139,"lat":60.21167,"pop":0},{"id":659823,"name":"Godby","lon":19.9881,"lat":60.22995,"pop":0},{"id":3041786,"name":"Gölby","lon":19.95,"lat":60.18333,"pop":0},{"id":3336424,"name":"Görans","lon":19.80056,"lat":60.15333,"pop":0},{"id":3041785,"name":"Gottby","alt":["Godby","Godtby"],"lon":19.82191,"lat":60.12992,"pop":0},{"id":3336853,"name":"Gräggnäs","lon":19.84861,"lat":60.35194,"pop":0},{"id":659810,"name":"Granboda","lon":20.19775,"lat":60.07513,"pop":0},{"id":659811,"name":"Granboda","lon":20.44306,"lat":60.04533,"pop":0},{"id":3336492,"name":"Grins","lon":19.94444,"lat":60.18667,"pop":0},{"id":3336444,"name":"Grönbacka","lon":19.97889,"lat":60.13806,"pop":0},{"id":3336529,"name":"Grops","lon":19.77472,"lat":60.19806,"pop":0},{"id":659746,"name":"Grundsunda","alt":["Gransunda"],"lon":20.37914,"lat":60.20957,"pop":0},{"id":659733,"name":"Gundby","lon":20.75,"lat":60.18333,"pop":0},{"id":659476,"name":"Haddnäs","alt":["Haddnas","Haddnes","Hadnes"],"lon":20.20713,"lat":60.0595,"pop":0},{"id":659473,"name":"Haga","lon":20.01667,"lat":60.3,"pop":0},{"id":3336504,"name":"Hällesby Sand","lon":19.6975,"lat":60.18833,"pop":0},{"id":3041776,"name":"Hammarland","alt":["Khammarland"],"lon":19.75,"lat":60.21667,"pop":1395},{"id":3041774,"name":"Hamnäs","lon":19.83333,"lat":60.1,"pop":0},{"id":12368011,"name":"Hamnsundet","lon":20.08482,"lat":60.37368,"pop":0},{"id":658949,"name":"Haraldsby","lon":20.03333,"lat":60.25,"pop":0},{"id":658749,"name":"Harvaluoto","lon":20.46667,"lat":60.36667,"pop":0},{"id":658727,"name":"Hastersboda","alt":["Hasteboda","Hasterboda","Hestersboda"],"lon":20.57886,"lat":60.02753,"pop":0},{"id":3336527,"name":"Hellesby","lon":19.73861,"lat":60.20361,"pop":0},{"id":658238,"name":"Hellestorp","lon":20.09747,"lat":60.06023,"pop":0},{"id":658235,"name":"Hellsö","alt":["Helso","Helsö"],"lon":20.94764,"lat":59.9501,"pop":0},{"id":3041769,"name":"Hindersböle","alt":["Hindasbele","Hindasbële","Hinderbole","Hinderböle","Hindersbole"],"lon":19.95,"lat":60.11667,"pop":0},{"id":3336625,"name":"Hjortö","lon":19.99014,"lat":60.28175,"pop":0},{"id":657615,"name":"Högbolstad","alt":["Hegbolsta","Hogbolsta","Hogbolstad"],"lon":20.08565,"lat":60.20734,"pop":0},{"id":657352,"name":"Horsholma","lon":20.56205,"lat":60.04581,"pop":0},{"id":850147,"name":"Hullberga","lon":20.88238,"lat":60.5258,"pop":0},{"id":12368021,"name":"Hullby","lon":20.07636,"lat":60.26082,"pop":0},{"id":657140,"name":"Hulta","lon":20.23643,"lat":60.2726,"pop":0},{"id":3336602,"name":"Hummelvik","lon":19.54056,"lat":60.245,"pop":0},{"id":657118,"name":"Hummersö","alt":["Humersby","Hummerby","Hummersby","Hummerso"],"lon":20.35661,"lat":60.00197,"pop":0},{"id":657052,"name":"Husö","lon":20.80461,"lat":60.06824,"pop":0},{"id":3041765,"name":"Ingby","lon":19.95,"lat":60.16667,"pop":0},{"id":845805,"name":"Ingela","lon":20.2655,"lat":60.06731,"pop":0},{"id":3041763,"name":"Isaksö","lon":19.74956,"lat":60.36773,"pop":0},{"id":3336491,"name":"Jans","lon":19.93972,"lat":60.18944,"pop":0},{"id":845864,"name":"Janses","lon":20.00778,"lat":60.12444,"pop":0},{"id":3336452,"name":"Janses","lon":19.85861,"lat":60.135,"pop":0},{"id":3041762,"name":"Jättböle","alt":["Iattbole","Jattbole","Yattbele","Yattbële"],"lon":19.98333,"lat":60.13333,"pop":0},{"id":3041760,"name":"Jomala","lon":19.951,"lat":60.14902,"pop":3662},{"id":3041759,"name":"Jomalby","alt":["Jomala","Jomalaby"],"lon":19.98333,"lat":60.18333,"pop":0},{"id":845857,"name":"Jonases","lon":20.00667,"lat":60.12,"pop":0},{"id":3336453,"name":"Julle","lon":19.8975,"lat":60.12861,"pop":0},{"id":655377,"name":"Jurmo","lon":21.07744,"lat":60.51848,"pop":0},{"id":654597,"name":"Kallsö","lon":20.39323,"lat":59.99354,"pop":0},{"id":3336450,"name":"Kalmsta","lon":19.9675,"lat":60.11861,"pop":0},{"id":3336564,"name":"Kalsborg","lon":19.53028,"lat":60.17389,"pop":0},{"id":846582,"name":"Känskit","lon":20.70278,"lat":60.20528,"pop":0},{"id":3336413,"name":"Karlberg","lon":19.81472,"lat":60.11222,"pop":0},{"id":653943,"name":"Karlby","alt":["Kaarlenkyla","Kaarlenkylä","Karleby"],"lon":20.90387,"lat":59.92071,"pop":0},{"id":3041753,"name":"Karlgård","lon":19.71667,"lat":60.15,"pop":0},{"id":3336416,"name":"Karls","lon":19.82861,"lat":60.13194,"pop":0},{"id":3336544,"name":"Karls","lon":19.65417,"lat":60.20917,"pop":0},{"id":3336563,"name":"Karlsdal","lon":19.52333,"lat":60.17806,"pop":0},{"id":3336510,"name":"Karlsö","lon":19.81833,"lat":60.19278,"pop":0},{"id":3041752,"name":"Karrböle","alt":["Karbele","Karbële","Karrbole"],"lon":19.93333,"lat":60.18333,"pop":0},{"id":653740,"name":"Kastelholm","alt":["Kastelholma"],"lon":20.07601,"lat":60.23387,"pop":0},{"id":3041750,"name":"Kattby","lon":19.74026,"lat":60.21638,"pop":0},{"id":3336523,"name":"Kattnäs","lon":19.69333,"lat":60.19833,"pop":0},{"id":3336447,"name":"Kihla","lon":19.98389,"lat":60.15833,"pop":0},{"id":3336545,"name":"Klemes","lon":19.66111,"lat":60.21111,"pop":0},{"id":7667965,"name":"Klemetsby","lon":20.26188,"lat":60.12203,"pop":0},{"id":850216,"name":"Kleven","lon":20.17915,"lat":60.28363,"pop":0},{"id":3336348,"name":"Klinten","lon":19.93,"lat":60.10861,"pop":0},{"id":652265,"name":"Knutsboda","alt":["Knutboda","Knutsoda","Knutsöda"],"lon":20.03333,"lat":60.06667,"pop":0},{"id":651986,"name":"Kökar","alt":["Koekar","Koeoekari","Köökari"],"lon":20.90883,"lat":59.92051,"pop":355},{"id":651288,"name":"Korsö","alt":["Korso","Koskenpaeae","Koskenpää"],"lon":20.9865,"lat":60.41683,"pop":0},{"id":651101,"name":"Koskenpää","lon":21.01667,"lat":60.41667,"pop":0},{"id":650756,"name":"Krokstad","alt":["Krogstad","Kroksta"],"lon":20.26009,"lat":60.09708,"pop":0},{"id":650472,"name":"Kulla","lon":20.06687,"lat":60.24422,"pop":0},{"id":3336476,"name":"Kullaö","lon":19.85917,"lat":60.20389,"pop":0},{"id":650395,"name":"Kumlinge","alt":["Kumlinki"],"lon":20.77892,"lat":60.26013,"pop":384},{"id":850241,"name":"Kvarnbo","lon":20.04906,"lat":60.27586,"pop":0},{"id":849771,"name":"Kvarnkulla","lon":20.75851,"lat":60.26577,"pop":0},{"id":3336554,"name":"Kyrkoby","lon":19.60528,"lat":60.21639,"pop":0},{"id":3336448,"name":"Kyrkobyn","lon":19.95167,"lat":60.15139,"pop":0},{"id":649634,"name":"Kyrkogårdsö","lon":20.82372,"lat":60.03649,"pop":0},{"id":3336624,"name":"Laby","lon":19.99667,"lat":60.31889,"pop":0},{"id":850242,"name":"Lagmansby","lon":20.08016,"lat":60.27785,"pop":0},{"id":3336517,"name":"Laine","lon":19.76028,"lat":60.21833,"pop":0},{"id":649125,"name":"Långbergsöda","lon":20.13326,"lat":60.30058,"pop":0},{"id":12217817,"name":"Långnäs hamn","alt":["Langnaesin satama","Långnäsin satama"],"lon":20.29711,"lat":60.1169,"pop":0},{"id":648868,"name":"Lappo","alt":["Lappaby","Lappoby-Aland","Lappoby-Åland"],"lon":20.98488,"lat":60.31626,"pop":0},{"id":845834,"name":"Lemböte","lon":20.00389,"lat":60.08028,"pop":0},{"id":648382,"name":"Lemland","alt":["Lemlanti"],"lon":20.08472,"lat":60.07178,"pop":1829},{"id":12225704,"name":"Lemström","lon":20.01536,"lat":60.09676,"pop":0},{"id":3041739,"name":"Lillbolstad","lon":19.76667,"lat":60.25,"pop":0},{"id":647969,"name":"Lilleböle","lon":20.88333,"lat":59.93333,"pop":0},{"id":849690,"name":"Lillposten","lon":20.39278,"lat":60.24778,"pop":0},{"id":647823,"name":"Listersby","alt":["Listerby"],"lon":20.37969,"lat":60.23025,"pop":0},{"id":647566,"name":"Lövö","alt":["Lefo","Lovo","Lëfö"],"lon":20.37175,"lat":60.26147,"pop":0},{"id":647459,"name":"Lumparby","lon":20.24433,"lat":60.12181,"pop":0},{"id":647455,"name":"Lumparland","alt":["Lumparlanti"],"lon":20.25819,"lat":60.11695,"pop":335},{"id":647453,"name":"Lumpo","alt":["Lumho","Lumpoby"],"lon":20.23791,"lat":60.14625,"pop":0},{"id":3336518,"name":"Månäng","lon":19.74056,"lat":60.21861,"pop":0},{"id":3041735,"name":"Mangelbo","lon":19.9792,"lat":60.26532,"pop":0},{"id":646808,"name":"Mångstäkta","alt":["Mangstekta","Mångstekta"],"lon":20.22937,"lat":60.25323,"pop":0},{"id":3336499,"name":"Mannes","lon":19.74556,"lat":60.16833,"pop":0},{"id":3041734,"name":"Marby","lon":19.66667,"lat":60.2,"pop":0},{"id":3041732,"name":"Mariehamn","alt":["MHQ","Maarianhamina","Marianhamina","Mariankhamina","Mariehameena","Mariekhamn","Mariuhoefn","Mariyekhamn","Marrianhamina","Maríuhöfn","malieham","mariehamun","Мариехамн","マリエハムン","마리에함"],"lon":19.93481,"lat":60.09726,"pop":10682},{"id":3336463,"name":"Markusas","lon":19.95,"lat":60.16806,"pop":0},{"id":3336626,"name":"Markusböle","lon":19.91611,"lat":60.25333,"pop":0},{"id":3041729,"name":"Marsund","lon":19.7,"lat":60.2,"pop":0},{"id":846583,"name":"Mattas","lon":20.6973,"lat":60.19883,"pop":0},{"id":3336421,"name":"Mellangård","lon":19.75833,"lat":60.155,"pop":0},{"id":3336493,"name":"Mellangård","lon":19.82944,"lat":60.19,"pop":0},{"id":3041724,"name":"Möckelby","alt":["Mikkelby","Mockelby"],"lon":19.93944,"lat":60.15083,"pop":0},{"id":3041720,"name":"Mörby","lon":19.71667,"lat":60.23333,"pop":0},{"id":849709,"name":"Nabbas","lon":20.79149,"lat":60.24764,"pop":0},{"id":3041717,"name":"Näfsby","alt":["Nafsby","Navsby","Nävsby"],"lon":19.8,"lat":60.2,"pop":0},{"id":850236,"name":"Näs","lon":20.02083,"lat":60.32278,"pop":0},{"id":845932,"name":"Näset","lon":20.00528,"lat":60.18917,"pop":0},{"id":3041718,"name":"Nåtö","lon":19.98333,"lat":60.05,"pop":0},{"id":846362,"name":"Näversholma","lon":20.46597,"lat":60.02175,"pop":0},{"id":3336525,"name":"Nedergård","lon":19.73472,"lat":60.20194,"pop":0},{"id":845831,"name":"Nedre Börs","lon":20.03528,"lat":60.07194,"pop":0},{"id":3336524,"name":"Nordström","lon":19.70083,"lat":60.19917,"pop":0},{"id":3336417,"name":"Norra Gottby","lon":19.81667,"lat":60.13389,"pop":0},{"id":3336635,"name":"Norra Vandö","lon":19.91222,"lat":60.32333,"pop":0},{"id":3336462,"name":"Norrängen","lon":19.98583,"lat":60.16583,"pop":0},{"id":3336457,"name":"Norrberg","lon":19.97583,"lat":60.20806,"pop":0},{"id":644396,"name":"Norrboda","lon":20.26729,"lat":60.14138,"pop":0},{"id":644394,"name":"Norrby","lon":20.08215,"lat":60.07862,"pop":0},{"id":845837,"name":"Norrgård","lon":20.03611,"lat":60.07583,"pop":0},{"id":3336352,"name":"Norrgård","lon":19.9,"lat":60.10528,"pop":0},{"id":3336400,"name":"Norrgård","lon":19.76861,"lat":60.11722,"pop":0},{"id":3336451,"name":"Norrgård","lon":19.89722,"lat":60.1375,"pop":0},{"id":3336455,"name":"Norrgård","lon":19.89694,"lat":60.13806,"pop":0},{"id":3336487,"name":"Norrgård","lon":19.91306,"lat":60.19833,"pop":0},{"id":3336502,"name":"Norrgård","lon":19.69028,"lat":60.18361,"pop":0},{"id":3041713,"name":"Norrsunda","lon":19.88333,"lat":60.16667,"pop":0},{"id":850023,"name":"Nötholm","alt":["Notholm"],"lon":20.93428,"lat":60.43977,"pop":0},{"id":644334,"name":"Nötö","lon":20.47836,"lat":60.09232,"pop":0},{"id":3336435,"name":"Nybacka","lon":19.83,"lat":60.12583,"pop":0},{"id":845827,"name":"Nygård","lon":20.0725,"lat":60.07333,"pop":0},{"id":845865,"name":"Nygård","lon":20.01139,"lat":60.12167,"pop":0},{"id":3336509,"name":"Nygård","lon":19.79639,"lat":60.18722,"pop":0},{"id":3041711,"name":"Ödkarby","lon":19.98016,"lat":60.30908,"pop":0},{"id":3336796,"name":"Olofsnäs","lon":19.83361,"lat":60.35528,"pop":0},{"id":643718,"name":"Önningby","alt":["Oningeby","Onningeby","Öningeby","Önningeby"],"lon":20.00782,"lat":60.11754,"pop":0},{"id":3336749,"name":"Öra","lon":19.59056,"lat":60.27722,"pop":0},{"id":3336520,"name":"Örliden","lon":19.685,"lat":60.21528,"pop":0},{"id":3336486,"name":"Östanåker","lon":19.9025,"lat":60.20611,"pop":0},{"id":643562,"name":"Österbygge","alt":["Osterbuggo","Ostrabyugo","Österbuggo","Östrabyugo"],"lon":20.98013,"lat":59.93726,"pop":0},{"id":3336320,"name":"Östergård","lon":19.99889,"lat":60.02222,"pop":0},{"id":3336498,"name":"Östergård","lon":19.83361,"lat":60.18472,"pop":0},{"id":3336547,"name":"Östergård","lon":19.635,"lat":60.2175,"pop":0},{"id":3041709,"name":"Östergeta","lon":19.88333,"lat":60.38333,"pop":0},{"id":3336445,"name":"Österkalmare","lon":19.99583,"lat":60.13028,"pop":0},{"id":845826,"name":"Österlunds","alt":["Osterlund","Osterlunds","Österlund"],"lon":20.10313,"lat":60.06173,"pop":0},{"id":3336540,"name":"Östra Mangsjö","lon":19.59361,"lat":60.18833,"pop":0},{"id":3336356,"name":"Östra Ytternäs","lon":19.96278,"lat":60.08306,"pop":0},{"id":643446,"name":"Överboda","alt":["Everboda","Overboda"],"lon":20.9,"lat":59.93333,"pop":0},{"id":3041707,"name":"Överby","lon":19.63333,"lat":60.21667,"pop":0},{"id":3041708,"name":"Överby","alt":["Ofverby","Overby"],"lon":19.98333,"lat":60.15,"pop":0},{"id":3336507,"name":"Övergård","lon":19.75778,"lat":60.1875,"pop":0},{"id":643435,"name":"Överö","lon":20.51905,"lat":60.10671,"pop":0},{"id":3041706,"name":"Pålsböle","lon":19.93246,"lat":60.26319,"pop":0},{"id":3336639,"name":"Pantsarnäs","lon":19.85194,"lat":60.33389,"pop":0},{"id":3336410,"name":"Pellas","lon":19.82417,"lat":60.10917,"pop":0},{"id":3336488,"name":"Pellas","lon":19.84194,"lat":60.20583,"pop":0},{"id":850199,"name":"Persby","lon":20.18945,"lat":60.24536,"pop":0},{"id":3336845,"name":"Pettböle","lon":19.98333,"lat":60.35611,"pop":0},{"id":3041705,"name":"Posta","alt":["Postad"],"lon":19.78333,"lat":60.23333,"pop":0},{"id":845910,"name":"Prästö","lon":20.25711,"lat":60.20722,"pop":0},{"id":3041704,"name":"Rågetsböle","alt":["Ragertsbole","Ragetsbole","Rågertsböle"],"lon":19.9,"lat":60.26667,"pop":0},{"id":849707,"name":"Ramsholm","lon":20.80073,"lat":60.24375,"pop":0},{"id":850244,"name":"Rangsby","lon":20.0709,"lat":60.2779,"pop":0},{"id":3041702,"name":"Ringsböle","alt":["Ringsbole","Ringsbote"],"lon":19.91667,"lat":60.2,"pop":0},{"id":3336349,"name":"Rommarn","lon":19.91528,"lat":60.0975,"pop":0},{"id":3336483,"name":"Rönnhem","lon":19.89778,"lat":60.21444,"pop":0},{"id":638993,"name":"Rörstorp","lon":20.13235,"lat":60.07338,"pop":0},{"id":638222,"name":"Såg","lon":20.01667,"lat":60.11667,"pop":0},{"id":3041698,"name":"Sålis","alt":["Sales","Såles"],"lon":19.74037,"lat":60.25566,"pop":0},{"id":637878,"name":"Saltvik","lon":20.05,"lat":60.28333,"pop":1691},{"id":849939,"name":"Sälvik","alt":["Salvik"],"lon":20.74537,"lat":60.34869,"pop":0},{"id":637825,"name":"Samppa","lon":20.13333,"lat":60.36667,"pop":0},{"id":3336500,"name":"Samuelstorp","lon":19.74472,"lat":60.16917,"pop":0},{"id":846313,"name":"Sanda","lon":20.53984,"lat":60.03664,"pop":0},{"id":3336503,"name":"Sandhagen","lon":19.69972,"lat":60.18472,"pop":0},{"id":637226,"name":"Seglinge","alt":["Seilonen"],"lon":20.69569,"lat":60.20496,"pop":0},{"id":637065,"name":"Sibby","lon":20.19579,"lat":60.25733,"pop":0},{"id":846588,"name":"Simas","lon":20.69631,"lat":60.2036,"pop":0},{"id":636765,"name":"Simskäla","lon":20.3097,"lat":60.34139,"pop":0},{"id":636601,"name":"Skag","lon":20.23147,"lat":60.08729,"pop":0},{"id":3336736,"name":"Skag","lon":19.595,"lat":60.29083,"pop":0},{"id":3336691,"name":"Skarpnåtö","lon":19.7541,"lat":60.32559,"pop":0},{"id":3041692,"name":"Skeppsvik","lon":19.53333,"lat":60.16667,"pop":0},{"id":636548,"name":"Skogboda","alt":["Skugboda"],"lon":20.51309,"lat":60.02535,"pop":0},{"id":3336522,"name":"Smeds","lon":19.67472,"lat":60.20861,"pop":0},{"id":636494,"name":"Smedsböle","alt":["Smedsbele","Smedsbole","Smedsby","Smedsbële"],"lon":20.16203,"lat":60.22222,"pop":0},{"id":3041687,"name":"Snäckö","lon":19.8,"lat":60.35,"pop":0},{"id":636461,"name":"Söderby","lon":20.0714,"lat":60.06682,"pop":0},{"id":636463,"name":"Söderby","lon":20.96667,"lat":59.93333,"pop":0},{"id":845833,"name":"Södergård","lon":20.01194,"lat":60.07722,"pop":0},{"id":3336449,"name":"Södergård","lon":19.97972,"lat":60.175,"pop":0},{"id":3336515,"name":"Södergård","lon":19.77944,"lat":60.2225,"pop":0},{"id":846055,"name":"Söderholm","lon":20.95417,"lat":59.92639,"pop":0},{"id":3041685,"name":"Söderlund","lon":19.66667,"lat":60.23333,"pop":0},{"id":3041684,"name":"Södersunda","alt":["Sedersunda","Sodersunda"],"lon":19.86667,"lat":60.15,"pop":0},{"id":3336414,"name":"Södra Gottby","lon":19.82333,"lat":60.11944,"pop":0},{"id":636332,"name":"Sommarö","lon":20.56186,"lat":60.03563,"pop":0},{"id":636336,"name":"Sommarö","alt":["Ostersocknen","Sommaro","Östersocknen"],"lon":20.56142,"lat":60.03807,"pop":0},{"id":636291,"name":"Sonnboda","alt":["Sonboda"],"lon":20.47976,"lat":60.047,"pop":0},{"id":636158,"name":"Sottunga","lon":20.66683,"lat":60.13023,"pop":144},{"id":3041679,"name":"Stålsby","alt":["Stalsby","Stalsvy"],"lon":19.98333,"lat":60.35,"pop":0},{"id":845927,"name":"Storängen","lon":20.0525,"lat":60.21972,"pop":0},{"id":3041675,"name":"Storby","lon":19.55948,"lat":60.22317,"pop":0},{"id":3336546,"name":"Storhaga","lon":19.66111,"lat":60.2225,"pop":0},{"id":3336485,"name":"Stornäs","lon":19.94722,"lat":60.22333,"pop":0},{"id":3336514,"name":"Strandäng","lon":19.77472,"lat":60.21444,"pop":0},{"id":3336347,"name":"Strandnäs","lon":19.94556,"lat":60.115,"pop":0},{"id":850222,"name":"Strömbolstad","lon":20.17929,"lat":60.25883,"pop":0},{"id":3041672,"name":"Strömma","lon":19.78333,"lat":60.3,"pop":0},{"id":845929,"name":"Strömsgärdan","lon":20.00472,"lat":60.21639,"pop":0},{"id":635815,"name":"Sund","alt":["Sundi vald","song de","Сунд","松德"],"lon":20.11667,"lat":60.25,"pop":1020},{"id":3041670,"name":"Svartsmara","lon":19.88016,"lat":60.24935,"pop":0},{"id":850211,"name":"Sveden","lon":20.19194,"lat":60.31005,"pop":0},{"id":845912,"name":"Svensböle","lon":20.14986,"lat":60.22484,"pop":0},{"id":12225703,"name":"Sviby","lon":19.9173,"lat":60.13393,"pop":0},{"id":635424,"name":"Svinö","lon":20.26263,"lat":60.07974,"pop":0},{"id":635395,"name":"Syllöda","lon":20.12373,"lat":60.28501,"pop":0},{"id":3336401,"name":"Tallöga","lon":19.74583,"lat":60.11083,"pop":0},{"id":634959,"name":"Tängsöda","alt":["Tangsoda","Tengsoda","Tengsöda"],"lon":20.14315,"lat":60.29571,"pop":0},{"id":3041667,"name":"Tärnbolstad","alt":["Tarnbolsta","Tarnbolstad","Tarnebolsta","Tarnebolstad","Tärnbolsta","Tärnebolsta","Tärnebolstad"],"lon":19.96667,"lat":60.26667,"pop":0},{"id":845926,"name":"Tjudnäs","lon":20.0525,"lat":60.21389,"pop":0},{"id":3041666,"name":"Tjudö","lon":19.95,"lat":60.33333,"pop":0},{"id":634335,"name":"Töftö","lon":20.29396,"lat":60.20991,"pop":0},{"id":3041662,"name":"Torp","alt":["Torpby","Torpoby","Torpöby"],"lon":19.58333,"lat":60.18333,"pop":0},{"id":3041663,"name":"Torp","lon":19.76667,"lat":60.15,"pop":0},{"id":3041664,"name":"Torp","lon":19.9,"lat":60.13333,"pop":0},{"id":3041659,"name":"Torrbolstad","alt":["Torrbolsta"],"lon":19.91667,"lat":60.28333,"pop":0},{"id":634065,"name":"Torsholma","lon":21.06551,"lat":60.35642,"pop":0},{"id":854003,"name":"Torsholma","lon":21.06382,"lat":60.35723,"pop":0},{"id":634042,"name":"Tosarby","alt":["Turserby"],"lon":20.1,"lat":60.21667,"pop":0},{"id":846049,"name":"Trångsund","lon":20.97861,"lat":59.94694,"pop":0},{"id":634002,"name":"Tranvik","lon":20.14984,"lat":60.20049,"pop":0},{"id":3336351,"name":"Trovill","lon":19.91056,"lat":60.0925,"pop":0},{"id":845880,"name":"Tullen","lon":20.26297,"lat":60.12875,"pop":0},{"id":633398,"name":"Ulversö","lon":20.53923,"lat":60.09885,"pop":0},{"id":3336446,"name":"Ulvsby","lon":19.93083,"lat":60.15861,"pop":0},{"id":632565,"name":"Vålö","lon":21,"lat":59.95,"pop":0},{"id":632421,"name":"Vårdö","lon":20.38333,"lat":60.25,"pop":411},{"id":632410,"name":"Vargata","lon":20.34439,"lat":60.24424,"pop":0},{"id":3336474,"name":"Vargsunda","lon":19.85583,"lat":60.18028,"pop":0},{"id":3041652,"name":"Västansunda","alt":["Vastansunda","Vestansunda"],"lon":19.85,"lat":60.15,"pop":0},{"id":3336849,"name":"Västanträsk","lon":19.92889,"lat":60.34222,"pop":0},{"id":632219,"name":"Västeränga","lon":20.13435,"lat":60.01914,"pop":0},{"id":3336519,"name":"Västerbo","lon":19.71167,"lat":60.21667,"pop":0},{"id":3336422,"name":"Västergård","lon":19.75639,"lat":60.15889,"pop":0},{"id":3336494,"name":"Västergård","lon":19.8075,"lat":60.18528,"pop":0},{"id":3041651,"name":"Västergeta","lon":19.85,"lat":60.38333,"pop":0},{"id":3041650,"name":"Västerkalmare","alt":["Vaster-Kalmare","Vasterkalmare","Väster-Kalmare"],"lon":19.96667,"lat":60.13333,"pop":0},{"id":849974,"name":"Västernäs","alt":["Vasternas"],"lon":20.91511,"lat":60.34178,"pop":0},{"id":3336357,"name":"Västra Ytternäs","lon":19.9375,"lat":60.07944,"pop":0},{"id":631841,"name":"Vessingsboda","alt":["Vessingboda"],"lon":20.17501,"lat":60.044,"pop":0},{"id":3336477,"name":"Vikhem","lon":19.85889,"lat":60.20972,"pop":0},{"id":630705,"name":"Ytterby","alt":["Itterby"],"lon":20.01667,"lat":60.16667,"pop":0},{"id":3041648,"name":"Ytternäs","lon":19.95,"lat":60.08333,"pop":0}]