[{"id":290354,"name":"‘Ālī","alt":["`Ali","عَالِي"],"lon":50.51639,"lat":26.16194,"pop":0},{"id":290316,"name":"‘Arād","alt":["Sar","Sār","`Arad","عَرَاد"],"lon":50.63222,"lat":26.25611,"pop":0},{"id":290304,"name":"‘Askar","alt":["Al `Askar","Al ‘Askar","`Askar","عَسْكَر"],"lon":50.61639,"lat":26.05722,"pop":0},{"id":290299,"name":"‘Awālī","alt":["Al Chirabia","Al Ghiraibat","Al `Awali","Al ‘Awālī","Bapco","Kirabad","Oil City","`Awali","عَوَالِي"],"lon":50.55056,"lat":26.08444,"pop":0},{"id":290298,"name":"‘Ayn ad Dār","alt":["'Ain-ad-Dar","Ain al-Dar","`An ad Dar","`Ayn ad Dar","عَيْن اَلدَّار","‘An ad Dār","’Ain-ad-Dār"],"lon":50.53333,"lat":26.21667,"pop":0},{"id":11048876,"name":"A'ali","lon":50.51594,"lat":26.16298,"pop":0},{"id":290395,"name":"Abū Bahām","alt":["Abu Baham","aabu baham","أَبُو بَهَام"],"lon":50.54417,"lat":26.2075,"pop":0},{"id":11048877,"name":"Abu Saiba","lon":50.50199,"lat":26.21782,"pop":0},{"id":290392,"name":"Abū Şaybi‘","alt":["Abu Saibi'","Abu Saibi’","Abu Saybi`","أَبُو صَيْبِع"],"lon":50.50694,"lat":26.2175,"pop":0},{"id":290386,"name":"Ad Dayr","alt":["Dair","Dair-ar-Rahib","Dair-ar-Rāhib","Dayr ar Rahib","Dayr ar Rāhib","aaldayr","اَلدَّيْر"],"lon":50.62361,"lat":26.28417,"pop":0},{"id":290385,"name":"Ad Dirāz","alt":["Ad Diraz","Diraz","aaldiraz","اَلدِّرَاز"],"lon":50.47056,"lat":26.21806,"pop":0},{"id":290384,"name":"Ad Dūr","alt":["Ad Dur","Dar al Manadil","Dur","Dār al Manādīl","aalduwr","اَلدُّور"],"lon":50.61499,"lat":25.97889,"pop":0},{"id":11048878,"name":"Adliya","lon":50.58458,"lat":26.21604,"pop":0},{"id":290377,"name":"Al ‘Adlīyah","alt":["Al `Adliyah","اَلْعَدْلِيَّة"],"lon":50.54056,"lat":26.21722,"pop":0},{"id":290376,"name":"Al ‘Akr","alt":["'Aqur","Al `Akr","Al `Akur","Al `Aqr","Al `Aqur","Al ‘Akur","Al ‘Aqr","Al ‘Aqur","Ikur","اَلْعَكْر","’Aqur"],"lon":50.61028,"lat":26.14306,"pop":0},{"id":290375,"name":"Al ‘Amar","alt":["Al `Amar","Al `Umar","Al ‘Umar","Amar","`Amur","اَلْعَمَر","‘Amur"],"lon":50.52791,"lat":25.98813,"pop":0},{"id":290369,"name":"Al Bid‘ah","alt":["Al Bid`ah","Bid`ah","Bid‘ah","اَلْبِدْعَة"],"lon":50.53722,"lat":26.22528,"pop":0},{"id":290368,"name":"Al Budayyi‘","alt":["Al Buday`","Al Budayyi`","Al Buday‘","Badaiya`a","Badaiya‘a","Budaia","Budaiya","Buday`ah","Budayya`","Budayya‘","Buday‘ah","اَلْبُدَيِّع"],"lon":50.45,"lat":26.21306,"pop":0},{"id":290366,"name":"Al Busaytīn","alt":["Al Busaytin","Basatin","Basātīn","Busaitin","aalbusaytin","اَلْبُسَيْتِين"],"lon":50.60778,"lat":26.26944,"pop":0},{"id":290363,"name":"Al Ḩadd","alt":["Al Hadd","Al Hidd","Al Ḩidd","Hadd","Hidd","aalhad","اَلْحَدّ"],"lon":50.65417,"lat":26.24556,"pop":12797},{"id":290360,"name":"Al Ḩajar","alt":["Al Hajar","Hajar","aalhajar","اَلْحَجَر"],"lon":50.51389,"lat":26.21111,"pop":0},{"id":290359,"name":"Al Hamalah","alt":["Al-Hamla","Hamala","Hamalah","aalhamalat","اَلْهَمَلَة"],"lon":50.45944,"lat":26.14333,"pop":0},{"id":290356,"name":"Al Hujayr","alt":["Hujair","Husair","aalhujayr","اَلْهُجَيْر"],"lon":50.55,"lat":26.18333,"pop":0},{"id":290352,"name":"Al Janabīyah","alt":["Al Janabiyah","Janabiya","Janabiyah","Janābīyah","aaljanabiat","اَلْجَنَبِيَّة"],"lon":50.46778,"lat":26.19,"pop":0},{"id":290351,"name":"Al Jasrah","alt":["Al-Djasra","Jasra","Jasrah","Jesera","aaljasrat","اَلْجَسْرَة"],"lon":50.44917,"lat":26.16222,"pop":0},{"id":290348,"name":"Al Jubaylāt","alt":["Al Jubaylat","Jabailat","Jubailat","Jubailāt","aaljubaylaat","اَلْجُبَيْلاَت"],"lon":50.55333,"lat":26.18194,"pop":0},{"id":290347,"name":"Al Jufayr","alt":["Al-Djufayr","Jafair","Jufair","aaljufayr","اَلْجُفَيْر"],"lon":50.61167,"lat":26.21056,"pop":0},{"id":8643327,"name":"Al Juffair","lon":50.60111,"lat":26.21111,"pop":0},{"id":290346,"name":"Al Khārijīyah","alt":["Al Kharijiyah","Al-Kharidjiyya","Al-Khāridjiyya","Kharijiya","Kharijiyah","Khārijīyah","aalkharijiat","اَلْخَارِجِيَّة"],"lon":50.60472,"lat":26.16361,"pop":0},{"id":290345,"name":"Al Ma‘āmīr","alt":["Al Ma`amir","Ma'amir","Ma’amir","اَلْمَعَامِير"],"lon":50.60861,"lat":26.13333,"pop":0},{"id":290344,"name":"Al Māḩūz","alt":["Al Mahuz","Mahuz","aalmahuz","اَلْمَاحُوز"],"lon":50.58889,"lat":26.21222,"pop":0},{"id":290342,"name":"Al Mālikīyah","alt":["Al Malikiyah","Al-Malikiyya","Al-Mālikiyya","Malichiya","Malikiyah","Mālikīyah","aalmalikiat","اَلْمَالِكِيَّة"],"lon":50.48667,"lat":26.09806,"pop":0},{"id":290341,"name":"Al Mamţalah","alt":["Al M'ttalah","Al Mamtalah","Al Matallah","Al Maţallah","Al Mumattalah","Al Mumaţţalah","Al Mutallah","Al M’ţţalah","Mattala","Mutallah","Muţallah","aalmamtalat","اَلْمَمْطَلَة"],"lon":50.51944,"lat":25.92417,"pop":0},{"id":290336,"name":"Al Markh","alt":["Markh","aalmarkh","اَلْمَرْخ"],"lon":50.47333,"lat":26.21028,"pop":0},{"id":290332,"name":"Al Muharraq","alt":["Al Muharrak","Al Muḩarraq","Al'-Mukharrak","Al-Muharrak","Al-Muharraq","Al-Muḥarrak","Moharek","Muharrak","Muharraq","Muharraq Town","Muhurraq","aalmuharaq","al-Muharraq","mhrq","Аль-Мухаррак","اَلْمُحَرَّق","محرق"],"lon":50.61194,"lat":26.25722,"pop":97458},{"id":290330,"name":"Al Muşallá","alt":["Al Musalla","Musalla","aalmusalay","اَلْمُصَلَّى"],"lon":50.53722,"lat":26.21222,"pop":0},{"id":290328,"name":"Al Muwaylighah","alt":["Muwailaha","Muwailghah","aalmuaylighat","اَلْمُوَيْلِغَة"],"lon":50.55889,"lat":26.20667,"pop":0},{"id":290327,"name":"Al Qadam","alt":["Qadam","aalqadam","اَلْقَدَم"],"lon":50.51917,"lat":26.21556,"pop":0},{"id":385042,"name":"Al Qal‘ah","alt":["Al Qal`ah","اَلْقَلْعَة"],"lon":50.53056,"lat":25.98083,"pop":0},{"id":290324,"name":"Al Qaryah","alt":["Kariya","Qariya","Qarya","Qaryah","Qurayyah","Quryah","aalqaryat","اَلْقَرْيَة"],"lon":50.58361,"lat":26.18278,"pop":0},{"id":290325,"name":"Al Qaryah","alt":["Kuriya","aalqaryat","اَلْقَرْيَة"],"lon":50.61056,"lat":26.17222,"pop":0},{"id":290323,"name":"Al Qurayyah","alt":["Kuraiya","Kuriya","Quraiyah","Qurayyah","aalqurayat","اَلْقُرَيَّة"],"lon":50.46278,"lat":26.19722,"pop":0},{"id":290322,"name":"Al Wasmīyah","alt":["Al Wasmiyah","Wasmiya","Wasmiyah","Wasmīyah","aalwasmiat","اَلْوَسْمِيَّة"],"lon":50.475,"lat":26.02111,"pop":0},{"id":290240,"name":"Almaqsha","alt":["Almaqsha'","Almaqsha","almqshʿ","المقشع"],"lon":50.51667,"lat":26.22139,"pop":0},{"id":290319,"name":"An Nuwaydirāt","alt":["An Nuwaydirat","Nuwaidirat","Nuwaidrat","Nuwaydirat","Nuwaydirāt","aalnuwaydirat","اَلنُّوَيْدِرَات"],"lon":50.5975,"lat":26.13472,"pop":0},{"id":385038,"name":"Ar Rifā‘","alt":["Ar Rifa","Ar Rifa`","Riffa","اَلرِّفَاع"],"lon":50.555,"lat":26.13,"pop":195606},{"id":290315,"name":"Ar Rifā‘ al Gharbī","alt":["Al-Rifa` al Gharbi","Al-Rifā‘ al Gharbī","Ar Rifa` al Gharbi","Rifa` al Gharbi","Rifa` al Qibli","Rifaa Al Gharbi","Rifā‘ al Gharbī","Rifā‘ al Qiblī","West Rifa`","West Rifā‘","اَلرِّفَاع اَلْغَرْبِي"],"lon":50.52028,"lat":26.13278,"pop":0},{"id":290312,"name":"Ar Rifā‘ ash Shamālī","alt":["Al-Rifa` al-Shamali","Al-Rifā‘ al-Shamālī","Ar Rifa` ash Shamali","North Rifa`","North Rifā‘","Rifa'a Ash Shamal","Rifa` ash Shamal","Rifa’a Ash Shamal","Rifā‘ ash Shamāl","اَلرِّفَاع اَلشَّمَالِي"],"lon":50.55111,"lat":26.1375,"pop":0},{"id":290311,"name":"Ar Rifā‘ ash Sharqī","alt":["Al-Rifa` al-Sharki","Al-Rifā‘ al-Shārki","Ar Rifa` ash Sharqi","Rifa' Ash Sharqi","Rifa`a Ash Sharqi","Rifa‘a Ash Sharqi","Rifa’ Ash Sharqi","اَلرِّفَاع اَلشَّرْقِي"],"lon":50.57361,"lat":26.12389,"pop":0},{"id":290309,"name":"Ar Rumaythah","alt":["Al-Rumaytha'","Al-Rumaythā’","Ar Rumaytha","Ar Rumaythā","Rumaidha","Rumaidhah","Rumaitha","Rumaithah","Rumayzah","Rumayz̧ah","aalrumaythat","alrmytha","الرميثا","اَلرُّمَيْثَة"],"lon":50.55583,"lat":25.92043,"pop":0},{"id":290308,"name":"Ar Ruq‘ah","alt":["Ar Ruq`ah","Ruka'a","Ruka’a","Ruq`ah","Ruqa'ah","Ruqa’ah","Ruq‘ah","اَلرُّقْعَة"],"lon":50.5,"lat":26.23333,"pop":0},{"id":385036,"name":"As Sahlah al Fawqīyah","alt":["As Sahlah al Fawqiyah","Sahlat al Fuqiyah","Sahlat al Fūqīyah","Sihlatal Fukiya","aalsahlat aalfawqiat","اَلسَّهْلَة اَلْفَوْقِيَّة"],"lon":50.53056,"lat":26.20556,"pop":0},{"id":385037,"name":"As Sahlat al Ḩadrīyah","alt":["As Sahlat al Hadriyah","Sahlat al Hadriyah","Sahlat al `Awdah","Sahlat al Ḩadrīyah","Sahlat al ‘Awdah","Sahlat-al-`Audah","Sahlat-al-‘Audah","Sahlat-as-Saghirah","Sahlat-as-Saghīrah","Sihlatal Hadriya","aalsahlat aalhadriat","اَلسَّهْلَة اَلْحَدْرِيَّة"],"lon":50.53583,"lat":26.20167,"pop":0},{"id":290303,"name":"Aş Şakhīr","alt":["As Sakhir","Sakhir","aalsakhir","اَلصَّخِير"],"lon":50.52722,"lat":26.0625,"pop":0},{"id":290302,"name":"Aş Şāliḩīyah","alt":["As Salihiyah","aalsaalihiat","اَلصَّالِحِيَّة"],"lon":50.55,"lat":26.21556,"pop":0},{"id":290306,"name":"Ash Shākhūrah","alt":["Al-Shakhura","Al-Shākhūra","Ash Shakhurah","Shakhura","Shakhurah","Shakhurq","Shākhūrah","aalshaakhurat","اَلشَّاخُورَة"],"lon":50.50694,"lat":26.21472,"pop":0},{"id":290296,"name":"Az Zallāq","alt":["Al-Zallak","Al-Zallāk","Az Zallaq","Zallaq","Zellaq","Zelzaq","aalzalaaq","اَلزَّلاَّق"],"lon":50.48639,"lat":26.0475,"pop":0},{"id":290295,"name":"Az Zimmah","alt":["Zimma","Zimmah","aalzimat","اَلزِّمَّة"],"lon":50.64694,"lat":26.25528,"pop":0},{"id":290294,"name":"Az Zinj","alt":["Zinj","aalzinj","اَلزِّنْج"],"lon":50.56417,"lat":26.21528,"pop":0},{"id":290287,"name":"Banī Jamrah","alt":["Bani Jamrah","Jamra","Jamrah","bani jamrat","بَنِي جَمْرَة"],"lon":50.45972,"lat":26.20972,"pop":0},{"id":290286,"name":"Bārbār","alt":["Barbar","barbar","بَارْبَار"],"lon":50.48083,"lat":26.22944,"pop":0},{"id":11874014,"name":"Beit Al Quran","lon":50.5917,"lat":26.2397,"pop":0},{"id":290282,"name":"Bilād al Qadīm","alt":["Bilad al Qadim","Bilad al-Kadim","Bilād al-Kadīm","bilaad aalqadim","بِلاَد اَلْقَدِيم"],"lon":50.56194,"lat":26.21167,"pop":0},{"id":290280,"name":"Bū ‘Ashīrah","alt":["Bu Ashira","Bu `Ashirah","بُو عَشِيرَة"],"lon":50.57722,"lat":26.20778,"pop":0},{"id":290275,"name":"Bū Qūwah","alt":["Bu Quwah","Bu Quwwah","Bukuwa","Bū Quwwah","bu quwat","بُو قُووَة"],"lon":50.52,"lat":26.20472,"pop":0},{"id":290274,"name":"Būrī","alt":["Buri","buri","بُورِي"],"lon":50.4975,"lat":26.15139,"pop":0},{"id":290269,"name":"Dār Kulayb","alt":["Dar Chulaib","Dar Kulaib","Dar Kulayb","Dār Kulaib","dar kulayb","دَار كُلَيْب"],"lon":50.50389,"lat":26.06861,"pop":65466},{"id":290260,"name":"Dumistān","alt":["Dumistan","dumistan","دُمِسْتَان"],"lon":50.48111,"lat":26.12639,"pop":0},{"id":290364,"name":"Ghuraifa","alt":["Al Ghurayfah","Gharaifa","Ghuraifah","Ghurayfah","aalghurayfat","اَلْغُرَيْفَة"],"lon":50.602,"lat":26.20549,"pop":0},{"id":290255,"name":"Ḩālah","alt":["Halah","Halat","halat","حَالَة","Ḩālāt"],"lon":50.62139,"lat":26.17333,"pop":0},{"id":290253,"name":"Ḩālat Abū Māhir","alt":["Abu Mahir","Abū Māhir","Halat Abu Mahir","Halat Abu Mahur","Halat Abu Māhur","halat aabu mahir","حَالَة أَبُو مَاهِر"],"lon":50.61917,"lat":26.24444,"pop":0},{"id":290252,"name":"Ḩālat al Khulayfāt","alt":["Halat","Halat al Khulayfat","Halat-al-Khalaifat","Halat-at-Khulaifat","Hālat-al-Khalaifāt","Khulaffat","halat aalkhulayfat","حَالَة اَلْخُلَيْفَات"],"lon":50.63333,"lat":26.25,"pop":0},{"id":290251,"name":"Ḩālat an Na‘īm","alt":["Halat Nu`aym","Halat al Naim","Halat an Na`im","Naim","حَالَة اَلنَّعِيم","Ḥālat Nu‘aym"],"lon":50.63528,"lat":26.23889,"pop":0},{"id":290250,"name":"Ḩālat as Sulţah","alt":["Halat As Suluta","Halat al-Salata","Halat as Sultah","Hālat al-Salaṭa","halat aalsultat","حَالَة اَلسُّلْطَة"],"lon":50.63861,"lat":26.24278,"pop":0},{"id":290249,"name":"Ḩālat Umm al Bayḑ","alt":["Halat As-Saud","Halat Umm al Baidh","Halat Umm al Bayd","Um al-Baidh","halat aum aalbayd","حَالَة أُمّ اَلْبَيْض"],"lon":50.63333,"lat":26.11667,"pop":0},{"id":290245,"name":"Harbadīyah","alt":["Harbadiyah","harbadiat","هَرْبَدِيَّة"],"lon":50.5,"lat":26.23333,"pop":0},{"id":290239,"name":"Ḩillat as Sūq","alt":["Hillat as Suq","hilat aalsuwq","حِلَّة اَلسُّوق"],"lon":50.55,"lat":26.2,"pop":0},{"id":290353,"name":"Jabalat al Burhāmah","alt":["Al Jabalah","Jabala","Jabalah","Jabalat al Burhamah","jabalat aalburhamat","جَبَلَة اَلْبُرْهَامَة"],"lon":50.54972,"lat":26.22306,"pop":0},{"id":290234,"name":"Jabalat Ḩabashī","alt":["Jabalat Habashi","Jabalat Habshi","jabalat habashi","جَبَلَة حَبَشِي"],"lon":50.5275,"lat":26.21722,"pop":0},{"id":290229,"name":"Jamālah","alt":["Jamala","Jamalah","Jumaylat","Jumaylāt","jamalat","جَمَالَة"],"lon":50.55,"lat":26.2,"pop":0},{"id":290226,"name":"Jannūsān","alt":["Djannusan","Djannusān","Jannusan","januwsan","جَنُّوسَان"],"lon":50.49472,"lat":26.23056,"pop":0},{"id":290221,"name":"Jaww","alt":["Djaww","Jau","Jaw","jaw","جَوّ"],"lon":50.61667,"lat":25.99861,"pop":0},{"id":290217,"name":"Jidd ‘Alī","alt":["Jidd `Ali","Judd Ali","جِدّ عَلِي"],"lon":50.56028,"lat":26.17917,"pop":0},{"id":290218,"name":"Jidd al Ḩājj","alt":["Jidd al Hajj","jid aalhaj","جِدّ اَلْحَاجّ"],"lon":50.5,"lat":26.23333,"pop":0},{"id":290215,"name":"Jidd Ḩafş","alt":["Djidd Hafs","Djidd Ḥafṣ","Jadd Hafs","Jid Hafs","Jidd Hafs","Judd Hafs","Judd Ḩafş","jid hafs","جِدّ حَفْص"],"lon":50.54778,"lat":26.21861,"pop":31735},{"id":290212,"name":"Jurdāb","alt":["Jurdab","Jurdah","jurdab","جُرْدَاب"],"lon":50.57528,"lat":26.16944,"pop":0},{"id":290210,"name":"Jusayrah","alt":["Jasaira","Jasairah","jusayrat","جُسَيْرَة"],"lon":50.6,"lat":25.88333,"pop":0},{"id":290205,"name":"Kaflān","alt":["Kaflan","Kaflar","kaflaan","كَفْلاَن"],"lon":50.58333,"lat":26.18333,"pop":0},{"id":290204,"name":"Karbābād","alt":["Karbabad","karbabad","كَرْبَابَاد"],"lon":50.52944,"lat":26.23028,"pop":0},{"id":290203,"name":"Karrānah","alt":["Karanah","Karrama","Karramah","Karranah","Karrāmah","Karānah","karaanat","كَرَّانَة"],"lon":50.50944,"lat":26.22917,"pop":0},{"id":290201,"name":"Karzakkān","alt":["Karrzakkan","Karrzakkān","Karzakkan","karzakaan","كَرْزَكَّان"],"lon":50.48194,"lat":26.11556,"pop":0},{"id":290198,"name":"Kawrah","alt":["Kawarah","kawrat","كَوْرَة"],"lon":50.56667,"lat":26.18333,"pop":0},{"id":290193,"name":"Khuwayş","alt":["Huwais","Khuwais","Khuways","khuays","خُوَيْص"],"lon":50.5,"lat":26.16667,"pop":0},{"id":290187,"name":"Madīnat ‘Īsá","alt":["Isa","Isa Town","Madinat `Isa","Medinat Isa","مَدِينَة عِيسَى"],"lon":50.54778,"lat":26.17361,"pop":38090},{"id":290247,"name":"Madīnat Ḩamad","alt":["Hamad Town","Madinat Hamad","madinat hamad","مَدِينَة حَمَد"],"lon":50.50694,"lat":26.11528,"pop":52718},{"id":290331,"name":"Magsha","alt":["Mugsha","Muqsha'","Muqshā’","mqshʿ alymn","مقشع اليمن"],"lon":40,"lat":26,"pop":0},{"id":290186,"name":"Mahazzah","alt":["Muhazza","mahazat","مَهَزَّة"],"lon":50.62611,"lat":26.16944,"pop":0},{"id":290340,"name":"Manama","alt":["Al Manama","Al Manamah","Al Manāma","Al Manāmah","Al-Manama","Al-Manamah","Al-Manāmah","Maenamae","Manaama","Manam","Manamae","Manamah","Manameh","Manamo","Manáma","Manāma","Menama","Mename","Mänamä","WGF","aalmanamat","almnamh","almnamt","mai na ma","mai na mai","manama","mnamh","mnamہ","Μανάμα","Манамæ","Манама","Մանամա","מנאמה","المنامة","المنامه","اَلْمَنَامَة","منامه","منامہ","مەنامە","मनामा","মানামা","ਮਨਾਮਾ","ମାନାମା","மனாமா","മനാമ","มานามา","མ་ན་མ།","მანამა","ማናማ","マナーマ","麥納瑪","麦纳麦","마나마"],"lon":50.58565,"lat":26.22787,"pop":147074},{"id":290179,"name":"Manī","alt":["Mani","mani","مَنِي"],"lon":50.55,"lat":26.21667,"pop":0},{"id":290178,"name":"Maqābā","alt":["Makaba","Maqaba","maqaba","مَقَابَا"],"lon":50.4875,"lat":26.21083,"pop":0},{"id":290176,"name":"Marqūbān","alt":["Markuban","Markūbān","Marquban","marquban","مَرْقُوبَان"],"lon":50.61833,"lat":26.16417,"pop":0},{"id":290174,"name":"Marwazān","alt":["Marwazan","marwazan","مَرْوَزَان"],"lon":50.54389,"lat":26.22139,"pop":0},{"id":290163,"name":"Nūr Juruft","alt":["Nur Juruft","nur juruft","نُور جُرُفْت"],"lon":50.5,"lat":26.23333,"pop":0},{"id":290160,"name":"Qalālī","alt":["Galali","Kalali","Kalālī","Qalali","Qalani","Qalānī","qalaali","قَلاَلِي"],"lon":50.65028,"lat":26.27333,"pop":0},{"id":290154,"name":"Qubayţ","alt":["Kubait","Qubayt","qubayt","قُبَيْط"],"lon":50.51667,"lat":26.2,"pop":0},{"id":290142,"name":"Rayyā","alt":["Raiya","Rayya","rayaa","رَيَّا"],"lon":50.63333,"lat":26.28333,"pop":0},{"id":290136,"name":"Şadad","alt":["Sadad","sadad","صَدَد"],"lon":50.48972,"lat":26.08278,"pop":0},{"id":290133,"name":"Şāfirah","alt":["Safiah","Safirah","Safrah","safirat","صَافِرَة"],"lon":50.53861,"lat":26.105,"pop":0},{"id":290127,"name":"Salmābād","alt":["Salambad","Salmabad","salmabad","سَلْمَابَاد"],"lon":50.52472,"lat":26.18306,"pop":0},{"id":290123,"name":"Samāhīj","alt":["Samahidj","Samahij","Samāhīdj","Simahij","samahij","سَمَاهِيج"],"lon":50.635,"lat":26.28,"pop":0},{"id":290121,"name":"Sanābis","alt":["As Sanabis","As Sanābīs","Sanabis","sanabis","سَنَابِس"],"lon":50.55083,"lat":26.22722,"pop":6564},{"id":290120,"name":"Sanad","alt":["sanad","سَنَد"],"lon":50.58194,"lat":26.15028,"pop":0},{"id":290118,"name":"Sār","alt":["Sar","sar","سَار"],"lon":50.48194,"lat":26.19417,"pop":0},{"id":8643013,"name":"Seef","lon":50.53685,"lat":26.23967,"pop":0},{"id":290113,"name":"Shahrakkān","alt":["Shaharakkan","Shahrakkan","shahrakaan","شَهْرَكَّان"],"lon":50.50139,"lat":26.07528,"pop":0},{"id":290104,"name":"Sitrah","alt":["Sitra","sitrat","strh","strt","sytrh","Ситра","סיטרה","سترة","ستره","سترہ","سِتْرَة"],"lon":50.62056,"lat":26.15472,"pop":37657},{"id":290101,"name":"Sufālah","alt":["Sufala","Sufalah","sufalat","سُفَالَة"],"lon":50.62556,"lat":26.16278,"pop":0},{"id":290093,"name":"Ţashshān","alt":["Tashshan","tashaan","طَشَّان"],"lon":50.54611,"lat":26.21139,"pop":0},{"id":290091,"name":"Tūblī","alt":["Tubli","tubli","تُوبْلِي"],"lon":50.54944,"lat":26.18694,"pop":0},{"id":290087,"name":"Umm al Ḩaşşam","alt":["Umm al Hassam","Umm al-Hassam","aum aalhasam","أُمّ اَلْحَصَّم"],"lon":50.59194,"lat":26.2025,"pop":0},{"id":290082,"name":"Umm ash Sha‘ūm","alt":["Umm ash Sha`um","Umm ash Shalum","Umm ash Shalūm","Umm ash Sholum","أُمّ اَلشَّعُوم"],"lon":50.58333,"lat":26.21667,"pop":0},{"id":290084,"name":"Umm ash Shajar","alt":["Um el Shajar","Umm ash Shahin","Umm ash Shanin","aum aalshajar","أُمّ اَلشَّجَر"],"lon":50.65583,"lat":26.22833,"pop":0},{"id":290078,"name":"Umm Jidr","alt":["aum jidr","أُمّ جِدْر"],"lon":50.52611,"lat":26.01111,"pop":0},{"id":290073,"name":"Wādiyān","alt":["Wadiyah","Wadiyan","wadian","وَادِيَان"],"lon":50.61111,"lat":26.15917,"pop":0}]