[{"id":3573339,"name":"Bethaven","lon":-64.75,"lat":32.28333,"pop":0},{"id":3573307,"name":"Camden","lon":-64.76056,"lat":32.29417,"pop":0},{"id":3573304,"name":"Cashew City","lon":-64.65444,"lat":32.37028,"pop":0},{"id":3573289,"name":"Chelston","lon":-64.77056,"lat":32.28361,"pop":0},{"id":11054831,"name":"Cross Bay","lon":-64.83882,"lat":32.25346,"pop":135},{"id":6940885,"name":"Darrell's Wharf Ferry Stop","lon":-64.79591,"lat":32.28096,"pop":0},{"id":3573001,"name":"Flatt’s Village","alt":["Flatt's Village","The Flatts Village"],"lon":-64.74016,"lat":32.32094,"pop":0},{"id":3573197,"name":"Hamilton","alt":["BDA","Chamilton","Gamil'tan","Gamil'ton","Hamilton pa Bermuda","Hamilton på Bermuda","Hamiltonas","Hamiltono","Khamilton","Khamiltun","amiltan","ha mi er dun","haemilteon","hamiruton","hamyltwn","hemiltana","hmyltwn","Χάμιλτον","Гамильтон","Гамільтан","Гамільтон","Хамилтон","Хамилтън","המילטון","هاميلتون","همیلتون","ہیملٹن","हॅमिल्टन","ஆமில்டன்","แฮมิลตัน","ჰამილტონი","ハミルトン","哈密尔顿","해밀턴"],"lon":-64.78303,"lat":32.2949,"pop":902},{"id":3740524,"name":"Harrington Hundreds","lon":-64.72889,"lat":32.31861,"pop":0},{"id":3573185,"name":"Hill View","lon":-64.80889,"lat":32.26944,"pop":0},{"id":3573183,"name":"Hinson Hall","lon":-64.74361,"lat":32.31361,"pop":0},{"id":3573181,"name":"Hog Bay","lon":-64.88,"lat":32.27111,"pop":0},{"id":3573131,"name":"Melrose","lon":-64.67739,"lat":32.36845,"pop":0},{"id":3573121,"name":"Mount Pleasant","lon":-64.78361,"lat":32.27417,"pop":0},{"id":3573110,"name":"North Shore Village","lon":-64.77361,"lat":32.30639,"pop":0},{"id":8533871,"name":"Pembroke Parish","alt":["Pembroke"],"lon":-64.79204,"lat":32.30019,"pop":0},{"id":3573061,"name":"Saint George","alt":["Saint George's","Saint George's Town","Saint Georges","Saint George’s","Saint George’s Town","Sankta Georgo","Sent Dzordzas","Sent Džordžas","Sent-Dzhordzh","seinteujojiseu","sheng qiao zhi si","snt gwrgs","snt jwrj  brmwda","Сент-Джордж","סנט גורגס","سنت جورج، برمودا","سینٹ جارج، برمودا","სენტ-ჯორჯესი","セント・ジョージ","圣乔治斯","세인트조지스"],"lon":-64.67806,"lat":32.38167,"pop":1896},{"id":3573046,"name":"Scotts Hill","lon":-64.86556,"lat":32.29722,"pop":0},{"id":3573029,"name":"Somerset","lon":-64.86833,"lat":32.29833,"pop":0},{"id":11054833,"name":"Stovel Bay","lon":-64.81429,"lat":32.30587,"pop":411},{"id":3573008,"name":"Sunnyside","lon":-64.74111,"lat":32.32639,"pop":0},{"id":3572988,"name":"Tucker’s Town","alt":["Tucker's Town"],"lon":-64.68806,"lat":32.33278,"pop":0},{"id":3572974,"name":"Warwick Camp","lon":-64.81611,"lat":32.25722,"pop":0}]