[{"id":11649061,"name":"Angola","lon":-68.26331,"lat":12.17736,"pop":0},{"id":6692387,"name":"Barkadera","lon":-68.30406,"lat":12.19918,"pop":0},{"id":3513922,"name":"Bel Nem","lon":-68.29182,"lat":12.11863,"pop":0},{"id":3513924,"name":"Bella Vista","lon":-68.26255,"lat":12.15018,"pop":0},{"id":6692388,"name":"Belnem","lon":-68.28739,"lat":12.12329,"pop":0},{"id":3513919,"name":"Benesuela","alt":["Venezuela"],"lon":-68.33958,"lat":12.26557,"pop":0},{"id":3513915,"name":"Benners","lon":-62.98889,"lat":17.48592,"pop":0},{"id":3513905,"name":"Big Pasture","lon":-62.9558,"lat":17.48893,"pop":0},{"id":3513875,"name":"Botelé","alt":["Botele"],"lon":-68.31934,"lat":12.23163,"pop":0},{"id":3513872,"name":"Bouille","lon":-62.98058,"lat":17.47221,"pop":0},{"id":3513868,"name":"Boven Bolivia","lon":-68.21507,"lat":12.18619,"pop":0},{"id":3513867,"name":"Boxen Alley","lon":-62.98092,"lat":17.47098,"pop":0},{"id":3513862,"name":"Bricat","lon":-68.22309,"lat":12.15592,"pop":0},{"id":3513857,"name":"Buena Esperansa","lon":-68.22915,"lat":12.16818,"pop":0},{"id":3513855,"name":"Buena Vista","lon":-68.32674,"lat":12.24902,"pop":0},{"id":3513843,"name":"Caranjito","lon":-68.26439,"lat":12.13596,"pop":0},{"id":3513833,"name":"Chapel Piece","lon":-62.98368,"lat":17.48033,"pop":0},{"id":3513831,"name":"Cherry Tree","lon":-62.97451,"lat":17.49284,"pop":0},{"id":11648891,"name":"Claes Gut","lon":-62.98736,"lat":17.48225,"pop":0},{"id":3513811,"name":"Concordia","lon":-62.97858,"lat":17.49296,"pop":0},{"id":3513802,"name":"Cottage Pasture","lon":-62.98568,"lat":17.48522,"pop":0},{"id":3513797,"name":"Crispeen","lon":-63.24167,"lat":17.62571,"pop":0},{"id":3513796,"name":"Crooks","lon":-62.98213,"lat":17.47191,"pop":0},{"id":3513780,"name":"Den Tuna","lon":-68.27013,"lat":12.1698,"pop":0},{"id":3513774,"name":"Docker’s Island","lon":-62.96539,"lat":17.46711,"pop":0},{"id":3513768,"name":"Dorp Antriol","alt":["Deenterra","Dentera","Entrejol"],"lon":-68.27042,"lat":12.16631,"pop":2980},{"id":3513767,"name":"Dorp Nikiboko","alt":["Dorp Nikiboco","Nikiboko"],"lon":-68.26121,"lat":12.14444,"pop":0},{"id":3513766,"name":"Dorp Nor’i Saliña","alt":["Dorp Noor i Salina","Dorp Noor i Sãlina","Dorp Nor i Salina","Dorp Nor i Saliña","Dorp Nor'i Salina","Noord di Salinja"],"lon":-68.27492,"lat":12.17597,"pop":0},{"id":3513765,"name":"Dorp Rincon","alt":["Dorp Rincan","Dorp Rincón","Rincon","Rincón","linkon","린콘"],"lon":-68.33059,"lat":12.23762,"pop":1496},{"id":3513764,"name":"Dorp Sabana","lon":-68.26954,"lat":12.14909,"pop":0},{"id":3513760,"name":"Dorp Tera Kora","alt":["Dorp Tera Cora","Dorp Tera Corá","Terra Corra"],"lon":-68.26039,"lat":12.13728,"pop":1186},{"id":11648914,"name":"Dos Pos","lon":-68.35763,"lat":12.23739,"pop":0},{"id":3513751,"name":"English Quarter","lon":-63.22898,"lat":17.63243,"pop":0},{"id":3513752,"name":"English Quarter","lon":-62.96176,"lat":17.49294,"pop":0},{"id":3513749,"name":"Fair Play","lon":-62.97307,"lat":17.49496,"pop":0},{"id":3513747,"name":"Fiscal","lon":-62.98731,"lat":17.48467,"pop":0},{"id":3513717,"name":"Gilheads","lon":-62.97722,"lat":17.47894,"pop":0},{"id":3513716,"name":"Glass Bottle","lon":-62.97151,"lat":17.48063,"pop":0},{"id":3513715,"name":"Godet","lon":-62.99085,"lat":17.48733,"pop":0},{"id":3513714,"name":"Golden Rock","lon":-62.98119,"lat":17.49142,"pop":823},{"id":3513680,"name":"Grove","lon":-62.98015,"lat":17.4733,"pop":0},{"id":3513679,"name":"Grovell","lon":-62.97785,"lat":17.50322,"pop":0},{"id":3513675,"name":"Guatemala","lon":-68.23986,"lat":12.17046,"pop":0},{"id":3513671,"name":"Hard Time","lon":-62.96947,"lat":17.48721,"pop":0},{"id":3513669,"name":"Hato","lon":-68.28827,"lat":12.17586,"pop":13},{"id":3513666,"name":"Hearty","lon":-62.97302,"lat":17.4868,"pop":0},{"id":3513657,"name":"Hoop","lon":-68.28734,"lat":12.12352,"pop":0},{"id":3513648,"name":"Ishiri","lon":-68.23635,"lat":12.14193,"pop":0},{"id":3513645,"name":"Jan Doran","lon":-68.35,"lat":12.21667,"pop":0},{"id":3513633,"name":"Jeems","lon":-62.98417,"lat":17.4882,"pop":0},{"id":3513841,"name":"Kas Korá","alt":["Cas Cora","Cas Corá","Kas Kora","Rood Huis","Roodhuis"],"lon":-68.23188,"lat":12.17164,"pop":0},{"id":3513599,"name":"Kibra Hacha","lon":-68.27307,"lat":12.17027,"pop":0},{"id":3513598,"name":"Kid Sadler","lon":-62.95156,"lat":17.47106,"pop":0},{"id":11649055,"name":"Kincu","lon":-68.27076,"lat":12.11721,"pop":0},{"id":3513575,"name":"Kokorobí","alt":["Kokorobi"],"lon":-68.32729,"lat":12.23142,"pop":0},{"id":3513563,"name":"Kralendijk","alt":["Kralendajk","Kralendehjk","Kralendeikas","Kralendejk","Kralendiyk","Kralentik","Playa","ke la lun dai ke","keulallendeikeu","kralndyk","kralyndayk","kurarendaiku","Κράλεντικ","Кралендайк","Кралендајк","Кралендейк","Кралендэйк","Կրալենդիյկ","كراليندايك","کرالندیک","کرالن‌دیک","კრალენდეიკი","クラレンダイク","克拉伦代克","크랄렌데이크"],"lon":-68.26667,"lat":12.15,"pop":3081},{"id":3513561,"name":"Kunchi","lon":-68.30458,"lat":12.24623,"pop":0},{"id":3513559,"name":"Kunuku Bieu","lon":-68.26926,"lat":12.17822,"pop":0},{"id":3513557,"name":"Kuruburu","alt":["Coeroeboeroe"],"lon":-68.26219,"lat":12.19666,"pop":0},{"id":3513555,"name":"Labra","lon":-68.39965,"lat":12.25172,"pop":0},{"id":3513539,"name":"Leeuwarden","lon":-68.27295,"lat":12.22435,"pop":0},{"id":11649051,"name":"Libertad","lon":-68.25962,"lat":12.13917,"pop":0},{"id":3513526,"name":"Lodi","lon":-62.97651,"lat":17.48337,"pop":0},{"id":3513525,"name":"Lower Hell's Gate","lon":-63.22992,"lat":17.63969,"pop":0},{"id":3513521,"name":"Lower Round Hill","lon":-62.97475,"lat":17.48392,"pop":0},{"id":3513520,"name":"Lower Town","lon":-62.985,"lat":17.47973,"pop":0},{"id":3513502,"name":"Man of War","lon":-62.95683,"lat":17.48952,"pop":0},{"id":3513496,"name":"Mansion","lon":-62.9803,"lat":17.48362,"pop":0},{"id":3513495,"name":"Mansion Pasture","lon":-62.97965,"lat":17.48544,"pop":0},{"id":3513491,"name":"Markoe","lon":-62.95056,"lat":17.47506,"pop":0},{"id":3513478,"name":"Mentor","lon":-68.27227,"lat":12.17486,"pop":0},{"id":3513461,"name":"Mountain Piece","lon":-62.96685,"lat":17.48589,"pop":51},{"id":10174010,"name":"Nawati","lon":-68.2775,"lat":12.1811,"pop":0},{"id":3513446,"name":"New Ground","lon":-62.98407,"lat":17.48653,"pop":0},{"id":3513437,"name":"Onima","lon":-68.31216,"lat":12.248,"pop":0},{"id":3513428,"name":"Oranje Pan","lon":-68.25,"lat":12.03333,"pop":0},{"id":3513426,"name":"Oranjestad","alt":["Aran'estad","EUX","Oran'estad","Oranestad","Orange Town","Oraniestat","Oranjestad pa Sint Eustatius","Oranjestad på Sint Eustatius","Oranjestadas","Oranjestado","Oranjested","Oranjestêd","ao la nie si ta de","awranyastad","olanyeseutateu","oraniesutaddo","Οράνιεστατ","Араньестад","Ораньестад","Орањестад","أورانياستاد","اورنجسٹیڈ، سینٹ ایوسٹائیس","ორანესტადი","オラニエスタッド","奥拉涅斯塔德","오라녜스타트"],"lon":-62.9864,"lat":17.48303,"pop":1097},{"id":3513423,"name":"Orinoco","lon":-68.22764,"lat":12.15556,"pop":0},{"id":3513408,"name":"Para Mira","lon":-68.34058,"lat":12.23674,"pop":0},{"id":3513409,"name":"Paradijs","lon":-68.23858,"lat":12.13666,"pop":0},{"id":3513407,"name":"Paramira","lon":-62.98181,"lat":17.4868,"pop":0},{"id":3513376,"name":"Pleasures","lon":-62.97096,"lat":17.47828,"pop":0},{"id":3513371,"name":"Porta Makaku","lon":-68.3515,"lat":12.26299,"pop":0},{"id":3513368,"name":"Porto Spaño","lon":-68.28144,"lat":12.23166,"pop":0},{"id":3513359,"name":"Princess Garden","lon":-62.97829,"lat":17.48055,"pop":0},{"id":3513355,"name":"Prospect","lon":-62.9855,"lat":17.47773,"pop":0},{"id":3513345,"name":"Republiek","lon":-68.34644,"lat":12.25294,"pop":0},{"id":3513346,"name":"Republiek","alt":["Noord"],"lon":-68.25982,"lat":12.14727,"pop":0},{"id":10174011,"name":"Republiek","lon":-68.28303,"lat":12.18345,"pop":0},{"id":3513336,"name":"Rigot","lon":-68.36138,"lat":12.24634,"pop":0},{"id":3513333,"name":"Riscado","lon":-68.36646,"lat":12.22971,"pop":0},{"id":3513320,"name":"Roozendaal","lon":-68.26861,"lat":12.14362,"pop":0},{"id":3513311,"name":"Sabaneta","lon":-68.34277,"lat":12.24011,"pop":0},{"id":3513308,"name":"Saint John's Flat","alt":["Sint John","Sint John's"],"lon":-63.2434,"lat":17.62059,"pop":197},{"id":3513302,"name":"Saliña","lon":-68.28371,"lat":12.16268,"pop":0},{"id":3513298,"name":"San Bernardo","lon":-68.26698,"lat":12.1889,"pop":0},{"id":3513294,"name":"San José","lon":-68.23659,"lat":12.12695,"pop":0},{"id":3513278,"name":"Santa Catarina","lon":-68.22469,"lat":12.14919,"pop":0},{"id":3513276,"name":"Santa Clara","lon":-68.22872,"lat":12.13652,"pop":0},{"id":3513275,"name":"Santa Krus","alt":["Santa Cruz"],"lon":-68.36543,"lat":12.23869,"pop":0},{"id":3513254,"name":"Schotsenhoek","lon":-62.98813,"lat":17.48944,"pop":0},{"id":3513252,"name":"Senkuria","lon":-68.26813,"lat":12.15095,"pop":0},{"id":3513228,"name":"Sint Joris","lon":-68.34632,"lat":12.23894,"pop":0},{"id":11649205,"name":"Subi di Rincon","lon":-68.33366,"lat":12.2274,"pop":0},{"id":3513176,"name":"Tera Hundu","lon":-68.27264,"lat":12.18369,"pop":0},{"id":3513173,"name":"The Bottom","alt":["Bottom","Leverock Town"],"lon":-63.24971,"lat":17.62652,"pop":488},{"id":3513170,"name":"The Farm","lon":-62.97544,"lat":17.47729,"pop":0},{"id":3513169,"name":"The Gap","lon":-63.25328,"lat":17.62987,"pop":0},{"id":3513167,"name":"The Level","lon":-63.22723,"lat":17.62614,"pop":0},{"id":3513162,"name":"Tom Ball","lon":-62.97158,"lat":17.48951,"pop":0},{"id":3513146,"name":"Upper Hell's Gate","alt":["Hellsgate"],"lon":-63.22649,"lat":17.643,"pop":2810},{"id":3513143,"name":"Upper Round Hill","lon":-62.97207,"lat":17.48424,"pop":0},{"id":3513142,"name":"Upper Town","lon":-62.98409,"lat":17.48265,"pop":0},{"id":3513129,"name":"Vlijt","lon":-68.27345,"lat":12.16676,"pop":0},{"id":3513123,"name":"Walkers","lon":-62.97601,"lat":17.48594,"pop":0},{"id":3513121,"name":"Wanapa","lon":-68.24323,"lat":12.12469,"pop":0},{"id":3513094,"name":"White Hook","lon":-62.97653,"lat":17.46846,"pop":0},{"id":3513086,"name":"Wilton","lon":-62.98173,"lat":17.47788,"pop":0},{"id":3513083,"name":"Windward Side","lon":-63.23136,"lat":17.62864,"pop":442}]