[{"id":630667,"name":"Abakumy","alt":["Абакумы"],"lon":30.8491,"lat":51.9822,"pop":0},{"id":8252053,"name":"Abalishki","alt":["Obalishki","Абалишки"],"lon":25.1706,"lat":54.1371,"pop":0},{"id":624287,"name":"Abchuha","alt":["Abchuga","Obchuga","Obgucha","Абчуга","Обчуга"],"lon":29.3695,"lat":54.5004,"pop":0},{"id":624283,"name":"Abidavichy","alt":["Obidovichi","Абідавічы","Обидовичи"],"lon":30.4156,"lat":53.336,"pop":0},{"id":624282,"name":"Abol’tsy","alt":["Abol'cy","Abol'tsy","Obl'tsy","Obl’tsy","Obol'tsy","Obol’tsy","Абольцы"],"lon":29.8246,"lat":54.5957,"pop":0},{"id":630666,"name":"Abol’tsy","alt":["Abol'cy","Abol'tsy","Obol'tsy","Obol’tsy","Абольцы"],"lon":29.9126,"lat":52.7052,"pop":0},{"id":630665,"name":"Abraimovka","alt":["Abraimavka","Абраимовка"],"lon":30.9725,"lat":54.1192,"pop":0},{"id":11814841,"name":"Abramishki","alt":["Абрамишки"],"lon":24.97259,"lat":53.89767,"pop":0},{"id":630664,"name":"Abramovichi","alt":["Abramowicze"],"lon":24,"lat":52.21667,"pop":0},{"id":8181467,"name":"Abramovka","alt":["Абрамовка"],"lon":30.5718,"lat":51.8768,"pop":0},{"id":8195818,"name":"Abramovka","alt":["Абрамовка"],"lon":30.6731,"lat":52.3526,"pop":0},{"id":8021662,"name":"Abramovo","alt":["Абрамово"],"lon":23.7473,"lat":52.5346,"pop":0},{"id":8213231,"name":"Abramovo","alt":["Абрамово"],"lon":28.2103,"lat":55.9249,"pop":0},{"id":8072101,"name":"Abramovshchina","alt":["Abramovshhina","Абрамовщина"],"lon":26.8201,"lat":53.8904,"pop":0},{"id":630663,"name":"Abramovshchina Pervaya","alt":["Abramovshchina","Abramovshhina Pervaja","Abramowszczyzna","Абрамовщина Первая"],"lon":26.6077,"lat":54.617,"pop":0},{"id":8322857,"name":"Abramovshchina Tret’ya","alt":["Abramovshchina Tret'ya","Abramovshhina Tret'ja","Абрамовщина Третья"],"lon":26.5361,"lat":54.6027,"pop":0},{"id":630662,"name":"Abramy","alt":["Абрамы"],"lon":26.6368,"lat":54.8585,"pop":0},{"id":624273,"name":"Abrova","alt":["Obrovo","Аброва","Оброво"],"lon":25.561,"lat":52.5084,"pop":0},{"id":624272,"name":"Abrub","alt":["Obrub","Obrub Lastovitski","Абруб"],"lon":27.7787,"lat":55.1064,"pop":0},{"id":8232926,"name":"Abuzer’ye","alt":["Abuzer'e","Abuzer'ye","Абузерье"],"lon":29.092,"lat":54.7046,"pop":0},{"id":6997402,"name":"Abyarowshchyna","alt":["Abjaroushchyna","Oberovshchina","Абяроўшчына"],"lon":23.38214,"lat":52.40127,"pop":0},{"id":624261,"name":"Achizha","alt":["Ochizha","Ачижа","Очижа"],"lon":28.5193,"lat":53.6058,"pop":0},{"id":630661,"name":"Achukevichi","alt":["Achukeviche","Ачукевичи"],"lon":26.0536,"lat":53.7359,"pop":0},{"id":624260,"name":"Adakhovshchina","alt":["Adakhovshhina","Odakhovshchina","Odakhovshchyzna","Адаховщина"],"lon":26.1873,"lat":53.1485,"pop":0},{"id":8046991,"name":"Adakhovshchina Pervaya","alt":["Adakhovshhina Pervaja","Адаховщина Первая"],"lon":26.1545,"lat":53.1529,"pop":0},{"id":630660,"name":"Adamenka","alt":["Adaminka","Адаменка"],"lon":30.3166,"lat":53.367,"pop":0},{"id":811526,"name":"Adamenki","alt":["Адаменки"],"lon":30.788,"lat":55.042,"pop":0},{"id":12484910,"name":"Adamenki","alt":["Адаменки"],"lon":27.4736,"lat":55.74792,"pop":0},{"id":8207437,"name":"Adamishki","alt":["Адамишки"],"lon":27.00726,"lat":55.81341,"pop":0},{"id":8072108,"name":"Adamki","alt":["Адамки"],"lon":26.6616,"lat":53.8981,"pop":0},{"id":630651,"name":"Adamova","alt":["Adamovo","Адамова","Адамово"],"lon":28.4696,"lat":55.6198,"pop":0},{"id":630658,"name":"Adamovichi","alt":["Adamoviche","Adamowicze","Адамовичи"],"lon":23.7261,"lat":53.6917,"pop":0},{"id":8282495,"name":"Adamovichi","alt":["Адамовичи"],"lon":26.8813,"lat":54.2793,"pop":0},{"id":630655,"name":"Adamovka","alt":["Адамовка"],"lon":28.8685,"lat":54.8296,"pop":0},{"id":630656,"name":"Adamovka","alt":["Адамовка"],"lon":28.6521,"lat":54.6606,"pop":0},{"id":630657,"name":"Adamovka","alt":["Адамовка"],"lon":30.4573,"lat":52.2342,"pop":0},{"id":630652,"name":"Adamovo","alt":["Адамово"],"lon":28.334,"lat":55.6021,"pop":0},{"id":630653,"name":"Adamovo","alt":["Adamowo","Адамово"],"lon":26.3126,"lat":54.1378,"pop":0},{"id":630654,"name":"Adamovo","alt":["Адамово"],"lon":25.2538,"lat":52.052,"pop":0},{"id":630659,"name":"Adamovo","alt":["Adamova","Адамово"],"lon":29.93362,"lat":54.78683,"pop":0},{"id":8146306,"name":"Adamovo","alt":["Адамово"],"lon":27.6718,"lat":53.2188,"pop":0},{"id":8207550,"name":"Adamovo","alt":["Адамово"],"lon":27.23829,"lat":55.66506,"pop":0},{"id":8221406,"name":"Adamovo","alt":["Адамово"],"lon":27.4089,"lat":55.2817,"pop":0},{"id":8221714,"name":"Adamovo","alt":["Адамово"],"lon":27.1831,"lat":55.1028,"pop":0},{"id":8252052,"name":"Adamovo","alt":["Адамово"],"lon":25.2028,"lat":54.1353,"pop":0},{"id":630649,"name":"Adamovshchyzna","alt":["Adamovshchina"],"lon":25.86667,"lat":54.33333,"pop":0},{"id":8221630,"name":"Adamovtsy","alt":["Adamovcy","Адамовцы"],"lon":27.4304,"lat":55.1808,"pop":0},{"id":8282597,"name":"Adamovtsy","alt":["Adamovcy","Адамовцы"],"lon":26.8736,"lat":54.0438,"pop":0},{"id":8071970,"name":"Adampol’","alt":["Adampol'","Адамполь"],"lon":26.0451,"lat":53.6335,"pop":0},{"id":8216155,"name":"Adampol’ye","alt":["Adampol'e","Adampol'ye","Адамполье"],"lon":29.15,"lat":55.5231,"pop":0},{"id":8282650,"name":"Adampol’ye","alt":["Adampol'e","Adampol'ye","Адамполье"],"lon":26.61,"lat":54.0893,"pop":0},{"id":8019930,"name":"Adasevshchina","alt":["Adasevshhina","Адасевщина"],"lon":27.1369,"lat":53.6091,"pop":0},{"id":8164794,"name":"Adasi","alt":["Адаси"],"lon":28.6158,"lat":52.1881,"pop":0},{"id":624259,"name":"Adel’sk","alt":["Adehl'sk","Adel'sk","Odel'sk","Odel’sk","Адэльск","Одельск"],"lon":23.761,"lat":53.406,"pop":0},{"id":8232347,"name":"Adelino","alt":["Аделино"],"lon":29.0993,"lat":55.2636,"pop":0},{"id":8020198,"name":"Adrinishchi","alt":["Adrenishchi","Adrinishhi","Andrinishchi","Адринищи"],"lon":27.1664,"lat":53.348,"pop":0},{"id":624255,"name":"Adryzhyn","alt":["Odrizhin","Odryzyn","Odryzynskie","Odryżyn","Odryżynskie","Адрыжын"],"lon":25.4597,"lat":51.9701,"pop":0},{"id":8252059,"name":"Adverniki","alt":["Адверники"],"lon":25.0029,"lat":54.0998,"pop":0},{"id":8222332,"name":"Advoritsa","alt":["Advorica","Адворица"],"lon":28.3532,"lat":55.0784,"pop":0},{"id":8222473,"name":"Advornya","alt":["Advornja","Адворня"],"lon":28.7909,"lat":55.2431,"pop":0},{"id":8019738,"name":"Adyn’","alt":["Adyn'","Odyn'","Odyn’","Адынь"],"lon":27.9957,"lat":53.7912,"pop":0},{"id":8195690,"name":"Afanasovka","alt":["Афанасовка"],"lon":30.7545,"lat":52.5673,"pop":0},{"id":624254,"name":"Aferovshchina","alt":["Aferovshhina","Oferovshchina","Аферовщина"],"lon":28.3628,"lat":55.0916,"pop":0},{"id":8221402,"name":"Agapol’","alt":["Agapol'","Агаполь"],"lon":27.454,"lat":55.2773,"pop":0},{"id":8247274,"name":"Agarki","alt":["Агарки"],"lon":27.2873,"lat":54.1139,"pop":0},{"id":8029160,"name":"Agatovo","alt":["Агатово"],"lon":24.8043,"lat":53.0043,"pop":0},{"id":816272,"name":"Ageyevka","alt":["Ageevka","Ageyevshchina","Агеевка"],"lon":30.4833,"lat":53.961,"pop":0},{"id":8331840,"name":"Ageyevo","alt":["Ageevo","Агеево"],"lon":31.1385,"lat":53.3684,"pop":0},{"id":624249,"name":"Agolitskaya Rudnya","alt":["Agolickaja Rudnja","Ogolichskaya Rudnya","Ogolitska Rudnya","Ogolitskaya Rudnya","Аголіцкая Рудня"],"lon":28.4533,"lat":52.2078,"pop":0},{"id":8280842,"name":"Agronomicheskaya","alt":["Agronomicheskaja","Агрономическая"],"lon":30.0643,"lat":54.6048,"pop":0},{"id":8146883,"name":"Agula","alt":["Ogula","Агула"],"lon":28.7221,"lat":53.3085,"pop":0},{"id":630647,"name":"Ahalnica Wielka","alt":["Agal'nica Bol'shaja","Agal'nitsa","Agal'nitsa Bol'shaya","Agal'nitsy Bol'shiye","Agal’nitsa","Agal’nitsa Bol’shaya","Agal’nitsy Bol’shiye","Агальница Большая"],"lon":27.1048,"lat":55.2996,"pop":0},{"id":624253,"name":"Aharevichy","alt":["Agarehvichy","Ogareviche","Ogarevichi","Oharewicze","Агарэвічы","Огаревичи"],"lon":26.5237,"lat":52.7709,"pop":0},{"id":624246,"name":"Aharodniki","alt":["Agarodniki","Ogorodniki","Ogrodniki","Агароднікі"],"lon":23.34766,"lat":52.34462,"pop":0},{"id":8028929,"name":"Aharodniki","alt":["Agarodniki","Ogorodniki","Агароднікі","Огородники"],"lon":24.2338,"lat":53.2915,"pop":0},{"id":624252,"name":"Ahdemyer","alt":["Agdehmer","Ogdemer","Агдэмер","Огдемер"],"lon":25.3147,"lat":52.1607,"pop":0},{"id":624234,"name":"Akachi","alt":["Akachy","Okachi","Okachy","Акачи","Акачы"],"lon":25.2627,"lat":53.2593,"pop":0},{"id":624214,"name":"Akalova","alt":["Okolovo","Акалова","Околово"],"lon":27.8492,"lat":54.4931,"pop":0},{"id":624233,"name":"Akanovichi","alt":["Okanovichi","Акановичи"],"lon":26.164,"lat":53.417,"pop":0},{"id":8330828,"name":"Akhimkovichi Pervyye","alt":["Akhimkovichi Pervye","Akhimkovichi Vtoryye","Ахимковичи Первые"],"lon":29.9217,"lat":54.1903,"pop":0},{"id":8330829,"name":"Akhimkovichi Vtoryye","alt":["Akhimkovichi Pervyye","Akhimkovichi Vtorye","Ахимковичи Вторые"],"lon":29.908,"lat":54.1697,"pop":0},{"id":624229,"name":"Akhova","alt":["Okhovo","Ахова","Охово"],"lon":25.9218,"lat":52.1897,"pop":0},{"id":630646,"name":"Akhremawtsy","alt":["Achremowce","Akhrehmaucy","Akhremovcy","Akhremovtsy","Akhrjomovcy","Akhrëmovtsy","Ахремовцы","Ахрэмаўцы","Ахрёмовцы"],"lon":27.11733,"lat":55.58383,"pop":0},{"id":8047147,"name":"Akhremovichi","alt":["Ахремовичи"],"lon":26.6628,"lat":53.3304,"pop":0},{"id":8213191,"name":"Akhremtsy","alt":["Akhremcy","Ахремцы"],"lon":28.1317,"lat":55.7162,"pop":0},{"id":8077249,"name":"Akhrimovtsy","alt":["Akhrimovcy","Akhrymaucy","Akhrymawtsy","Ахримовцы","Ахрымаўцы"],"lon":24.34827,"lat":53.58769,"pop":0},{"id":8247408,"name":"Akolitsa","alt":["Akolica","Okolitsa","Аколіца"],"lon":27.7541,"lat":54.0534,"pop":0},{"id":630645,"name":"Akriony","alt":["Акрионы"],"lon":28.6536,"lat":52.2089,"pop":0},{"id":630644,"name":"Aksakawshchyna","alt":["Aksakaushchyna","Aksakovshchina","Aksakovshhina","Аксакаўшчына","Аксаковщина"],"lon":27.0911,"lat":53.9382,"pop":0},{"id":8146334,"name":"Aksamity","alt":["Аксамиты"],"lon":27.312,"lat":53.1853,"pop":0},{"id":8280163,"name":"Aksanovka","alt":["Аксановка"],"lon":30.1651,"lat":55.1263,"pop":0},{"id":630643,"name":"Aksën’kovichi","alt":["Aksen'kovichi","Aksjon'kovichi","Аксёньковичи"],"lon":29.6658,"lat":53.7577,"pop":0},{"id":813926,"name":"Aksenovka","lon":30.54278,"lat":53.41167,"pop":0},{"id":630642,"name":"Akshynka","alt":["Akshinka","Акшынка"],"lon":31.1853,"lat":52.7874,"pop":0},{"id":630641,"name":"Aksyutovo","alt":["Aksiutowo","Aksjutovo","Аксютово"],"lon":26.9584,"lat":55.4973,"pop":0},{"id":8248043,"name":"Aktaviya","alt":["Aktavija","Актавия"],"lon":28.9819,"lat":54.4189,"pop":0},{"id":624201,"name":"Aktsyabr","alt":["Akcjabr","Khotayeviche","Khotayevichi","Oktjabr'","Oktyabr'","Oktyabr’","Акцябр","Октябрь"],"lon":27.7325,"lat":54.4251,"pop":0},{"id":624205,"name":"Aktsyabr","alt":["Akcjabr","Oktjabr'","Oktyabr'","Oktyabr’","Starchitsy","Акцябр","Октябрь"],"lon":27.2638,"lat":52.8524,"pop":0},{"id":624206,"name":"Aktsyabr","alt":["Akcjabr","Oktjabr'","Oktyabr'","Oktyabr’","Акцябр","Октябрь"],"lon":24.6081,"lat":52.2362,"pop":0},{"id":814543,"name":"Aktsyabr","alt":["Akcjabr","Oktyabr'","Oktyabr’","Акцябр"],"lon":30.0451,"lat":52.8227,"pop":0},{"id":815799,"name":"Aktsyabr","alt":["Akcjabr","Oktjabr'","Oktyabr'","Oktyabr’","Акцябр","Октябрь"],"lon":30.8184,"lat":52.6735,"pop":0},{"id":621403,"name":"Aktsyabrova","alt":["Akcjabrova","Bych","Novaya Bych'","Novaya Bych’","Novo-Bych","Novyy Bych","Oktjabrjovo","Oktyabrevo","Oktyabrëvo","Staraya Bych'","Staraya Bych’","Staro-Bych","Staryy Bych","Акцяброва","Октябрёво"],"lon":30.76823,"lat":53.25996,"pop":0},{"id":8144844,"name":"Aktsyabrskaya","alt":["Akcjabrskaja","Oktjabr'skaja","Oktyabr'skaya","Oktyabr’skaya","Акцябрская","Октябрьская"],"lon":25.083,"lat":53.2063,"pop":0},{"id":8280168,"name":"Aktsyabrskaya","alt":["Akcjabrskaja","Oktyabr'skaya","Oktyabr’skaya","Акцябрская"],"lon":30.2619,"lat":55.1291,"pop":0},{"id":624199,"name":"Aktsyabrski","alt":["Akcjabrski","Karpilovka","Oktjabr'skij","Oktyabr'skiy","Oktyabr’skiy","Акцябрскі","Октябрьский"],"lon":28.8801,"lat":52.644,"pop":0},{"id":8232995,"name":"Aktsyabrski","alt":["Akcjabrski","Oktjabr'skij","Oktyabr'skiy","Oktyabr’skiy","Акцябрскі","Октябрьский"],"lon":29.34129,"lat":54.86893,"pop":0},{"id":8248270,"name":"Aktsyabrski","alt":["Akcjabrski","Oktyabr'skiy","Oktyabr’skiy","Акцябрскі"],"lon":28.2069,"lat":54.0398,"pop":0},{"id":630640,"name":"Akulinka","alt":["Akulinki","Акулинка"],"lon":29.3798,"lat":51.9722,"pop":0},{"id":630639,"name":"Akulintsy","alt":["Akulincy","Акулинцы"],"lon":30.6405,"lat":53.9664,"pop":0},{"id":630636,"name":"Al’ba","alt":["Al'ba","Koloniya Al'ba","Koloniya Al’ba","Альба"],"lon":25.0255,"lat":52.7533,"pop":0},{"id":8198268,"name":"Al’benovka","alt":["Al'benovka","Альбеновка"],"lon":26.8854,"lat":55.4272,"pop":0},{"id":8145037,"name":"Al’binki","alt":["Al'binki","Альбинки","Альбінкі"],"lon":25.7472,"lat":53.1268,"pop":0},{"id":12484928,"name":"Al’binovshchina","alt":["Al'binovshchina","Al'binovshhina","Альбиновщина"],"lon":27.41301,"lat":55.7206,"pop":0},{"id":630634,"name":"Al’binsk","alt":["Al'binsk","Альбинск"],"lon":28.4644,"lat":52.6425,"pop":0},{"id":630633,"name":"Al’brekhtava","alt":["Al'brehkhtava","Al'brekhtava","Al'brekhtovo","Al'brekhtovo Pervoye","Al’brekhtovo","Al’brekhtovo Pervoye","Альбрехтово","Альбрэхтава"],"lon":28.839,"lat":55.8724,"pop":0},{"id":630632,"name":"Al’brekhtovo Vtoroye","lon":28.83333,"lat":55.86667,"pop":0},{"id":8072273,"name":"Al’buta","alt":["Al'buta","Альбута"],"lon":26.7734,"lat":53.4403,"pop":0},{"id":8047136,"name":"Al’byanka","alt":["Al'bjanka","Al'byanka","Альбянка"],"lon":26.6116,"lat":53.2022,"pop":0},{"id":630602,"name":"Al’hova","alt":["Al'gova","Al'govka","Al'hova","Al’govka","Ol'govo","Ol’govo","Альгова","Ольгово"],"lon":30.2134,"lat":55.2284,"pop":0},{"id":8221752,"name":"Al’khimovshchina","alt":["Al'khimovshchina","Al'khimovshhina","Альхимовщина"],"lon":27.927,"lat":55.0599,"pop":0},{"id":12484862,"name":"Al’khimtsy","alt":["Al'khimcy","Al'khimtsy","Альхимцы"],"lon":27.36779,"lat":55.73584,"pop":0},{"id":811528,"name":"Al’khovik","alt":["Al'khovik","Ol'khovik","Ol’khovik","Альховик"],"lon":30.766,"lat":55.0629,"pop":0},{"id":8217907,"name":"Al’khowka","alt":["Al'khouka","Al'khowka","Ol'khovka","Ol’khovka","Альхоўка"],"lon":26.2354,"lat":54.8077,"pop":0},{"id":624170,"name":"Al’khowtsy","alt":["Al'khoucy","Al'khowtsy","Ol'khovtsy","Ol'khuvka","Olchowka","Ol’khovtsy","Ol’khuvka","Альхоўцы"],"lon":26.1551,"lat":52.9859,"pop":0},{"id":624168,"name":"Al’kovichy","alt":["Al'kovichy","Ol'kovichi","Olkoviche","Olkowicze","Ol’kovichi","Альковічы"],"lon":27.4286,"lat":54.4922,"pop":0},{"id":624166,"name":"Al’many","alt":["Al'many","Ol'many","Ol’many","Альманы"],"lon":27.065,"lat":51.8096,"pop":0},{"id":8194510,"name":"Al’sagorka","alt":["Al'sagorka","Альсагорка"],"lon":30.0084,"lat":52.9884,"pop":0},{"id":624155,"name":"Al’shanka","alt":["Al'shanka","Ol'shanka","Ol’shanka","Альшанка"],"lon":25.8773,"lat":52.3037,"pop":0},{"id":624152,"name":"Al’shany","alt":["Al'shany","Ol'shany","Olszany","Ol’shany","Альшаны","Ольшаны"],"lon":27.3504,"lat":52.0777,"pop":0},{"id":624146,"name":"Al’sheva","alt":["Al'shehva","Al'sheva","Ol'shevo","Ol’shëvo","Альшэва"],"lon":26.3655,"lat":54.9449,"pop":0},{"id":8021679,"name":"Al’vus","alt":["Al'vus","Альвус"],"lon":23.4252,"lat":52.5064,"pop":0},{"id":628631,"name":"Al’zhutki","alt":["Al'zhutki","El'zhutki","Elzutki","Elżutki","El’zhutki","Альжутки"],"lon":27.353,"lat":54.7505,"pop":0},{"id":630638,"name":"Ala","alt":["Ала"],"lon":29.4992,"lat":53.3212,"pop":0},{"id":8280376,"name":"Alantevo","alt":["Alant'yevo","Alant’yevo","Алантево"],"lon":30.2182,"lat":54.6969,"pop":0},{"id":630637,"name":"Alashki","alt":["Alashki-Bol'shie","Alashki-Bol'shiye","Alashki-Bol’shiye","Allaszki Wielkie","Alłaszki Wielkie","Алашки-Большие"],"lon":27.1303,"lat":55.322,"pop":0},{"id":8221436,"name":"Alashkovshchina","alt":["Alashkovshhina","Алашковщина"],"lon":27.0878,"lat":55.2969,"pop":0},{"id":630635,"name":"Albertyn","alt":["Al'bertin","Al’bertin","Альбертин"],"lon":25.3997,"lat":53.076,"pop":0},{"id":7930875,"name":"Alekhnovichi","alt":["Olekhnovichi","Алехновичи","Олехновичи"],"lon":25.28757,"lat":53.53844,"pop":0},{"id":630631,"name":"Alëkhnovo","alt":["Alekhnovo","Aljokhnovo","Алёхново"],"lon":29.87743,"lat":54.75286,"pop":0},{"id":8207436,"name":"Alëkhny","alt":["Alekhny","Aljokhny","Алёхны"],"lon":27.05041,"lat":55.82615,"pop":0},{"id":630614,"name":"Aleksandrina","alt":["Aleksandrovo","Александрина"],"lon":27.6776,"lat":55.7452,"pop":0},{"id":8251992,"name":"Aleksandrina","alt":["Александрина"],"lon":25.4948,"lat":54.1982,"pop":0},{"id":8247111,"name":"Aleksandrino","alt":["Александрино"],"lon":27.6953,"lat":54.3354,"pop":0},{"id":624639,"name":"Aleksandriya","alt":["Aleksandrija","Nizhneye Aleksandrovo","Александрия"],"lon":30.2033,"lat":54.9196,"pop":0},{"id":630630,"name":"Aleksandriya","alt":["Aleksandrija","Александрия"],"lon":30.2828,"lat":54.3333,"pop":0},{"id":8028973,"name":"Aleksandriya","alt":["Aleksandrija","Aleksandryja","Alyeksandryya","Александрия","Александрыя"],"lon":24.8832,"lat":53.2674,"pop":0},{"id":8281935,"name":"Aleksandriya","alt":["Aleksandrija","Александрия"],"lon":31.1948,"lat":54.6542,"pop":0},{"id":813935,"name":"Aleksandrov","alt":["Aleksandrovo","Александров"],"lon":30.6684,"lat":53.4751,"pop":0},{"id":8149056,"name":"Aleksandrov","alt":["Александров"],"lon":29.8923,"lat":52.7921,"pop":0},{"id":8279865,"name":"Aleksandrov","alt":["Александров"],"lon":29.8504,"lat":53.8071,"pop":0},{"id":8279908,"name":"Aleksandrov","alt":["Poselok Aleksandrov","Posjolok Aleksandrov","Posëlok Aleksandrov","Посёлок Александров"],"lon":29.8318,"lat":53.729,"pop":0},{"id":7930925,"name":"Aleksandrovichi","alt":["Александровичи"],"lon":25.3128,"lat":53.49,"pop":0},{"id":8282214,"name":"Aleksandrovichi","alt":["Александровичи"],"lon":32.3094,"lat":53.452,"pop":0},{"id":630619,"name":"Aleksandrovka","alt":["Александровка"],"lon":28.6915,"lat":53.671,"pop":0},{"id":630620,"name":"Aleksandrovka","alt":["Александровка"],"lon":29.6177,"lat":53.5455,"pop":0},{"id":630621,"name":"Aleksandrovka","alt":["Александровка"],"lon":31.7943,"lat":53.4656,"pop":0},{"id":630622,"name":"Aleksandrovka","alt":["Александровка"],"lon":30.1265,"lat":53.2132,"pop":0},{"id":630624,"name":"Aleksandrovka","lon":31.45972,"lat":52.68806,"pop":0},{"id":630625,"name":"Aleksandrovka","alt":["Александровка"],"lon":29.8636,"lat":52.593,"pop":0},{"id":630626,"name":"Aleksandrovka","alt":["Александровка"],"lon":30.6203,"lat":52.5875,"pop":0},{"id":630627,"name":"Aleksandrovka","alt":["Александровка"],"lon":29.5031,"lat":52.1521,"pop":0},{"id":630628,"name":"Aleksandrovka","alt":["Александровка"],"lon":28.951,"lat":51.8537,"pop":0},{"id":812272,"name":"Aleksandrovka","lon":30.38306,"lat":53.09333,"pop":0},{"id":812313,"name":"Aleksandrovka","lon":30.60889,"lat":53.09694,"pop":0},{"id":812461,"name":"Aleksandrovka","alt":["Александровка"],"lon":30.0765,"lat":54.1642,"pop":0},{"id":815254,"name":"Aleksandrovka","lon":32.31139,"lat":53.39889,"pop":0},{"id":8029153,"name":"Aleksandrovka","alt":["Александровка"],"lon":24.48514,"lat":53.0202,"pop":0},{"id":8077088,"name":"Aleksandrovka","alt":["Aljaksandrauka","Alyaksandrawka","Александровка","Аляксандраўка"],"lon":24.8192,"lat":53.80062,"pop":0},{"id":8077228,"name":"Aleksandrovka","alt":["Aljaksandrauka","Alyaksandrawka","Александровка","Аляксандраўка"],"lon":24.34207,"lat":53.36276,"pop":0},{"id":8146617,"name":"Aleksandrovka","alt":["Александровка"],"lon":27.9744,"lat":52.6797,"pop":0},{"id":8146800,"name":"Aleksandrovka","alt":["Александровка"],"lon":28.318,"lat":53.0775,"pop":0},{"id":8146901,"name":"Aleksandrovka","alt":["Александровка"],"lon":28.8848,"lat":53.2709,"pop":0},{"id":8149016,"name":"Aleksandrovka","alt":["Александровка"],"lon":29.5051,"lat":52.9316,"pop":0},{"id":8161536,"name":"Aleksandrovka","alt":["Александровка"],"lon":26.1832,"lat":52.3601,"pop":0},{"id":8174286,"name":"Aleksandrovka","alt":["Александровка"],"lon":24.2125,"lat":52.4599,"pop":0},{"id":8181521,"name":"Aleksandrovka","alt":["Александровка"],"lon":30.4896,"lat":51.4637,"pop":0},{"id":8194554,"name":"Aleksandrovka","alt":["Александровка"],"lon":30.8097,"lat":53.0148,"pop":0},{"id":8194574,"name":"Aleksandrovka","alt":["Александровка"],"lon":30.6063,"lat":52.9273,"pop":0},{"id":8194582,"name":"Aleksandrovka","alt":["Александровка"],"lon":30.0776,"lat":52.9295,"pop":0},{"id":8194721,"name":"Aleksandrovka","alt":["Александровка"],"lon":30.8886,"lat":52.6679,"pop":0},{"id":8195735,"name":"Aleksandrovka","alt":["Александровка"],"lon":30.7466,"lat":52.4978,"pop":0},{"id":8195830,"name":"Aleksandrovka","alt":["Александровка"],"lon":30.5843,"lat":52.3157,"pop":0},{"id":8281202,"name":"Aleksandrovka","alt":["Александровка"],"lon":30.6455,"lat":54.0867,"pop":0},{"id":8331694,"name":"Aleksandrovka","alt":["Александровка"],"lon":31.0368,"lat":53.9565,"pop":0},{"id":630617,"name":"Aleksandrovka Pervaya","alt":["Aleksandrovka Pervaja","Александровка Первая"],"lon":31.1427,"lat":53.5058,"pop":0},{"id":813724,"name":"Aleksandrovka Pervaya","alt":["Aleksandrovka Pervaja","Александровка Первая"],"lon":31.5338,"lat":53.3582,"pop":0},{"id":630616,"name":"Aleksandrovka Vtoraya","alt":["Aleksandrovka Vtoraja","Tolkachevka","Александровка Вторая"],"lon":31.1747,"lat":53.4793,"pop":0},{"id":813725,"name":"Aleksandrovka Vtoraya","alt":["Aleksandrovka Vtoraja","Александровка Вторая"],"lon":31.5204,"lat":53.3726,"pop":0},{"id":814704,"name":"Aleksandrovo","alt":["Aleksandrov","Александрово"],"lon":30.6728,"lat":53.6532,"pop":0},{"id":8019853,"name":"Aleksandrovo","alt":["Александрово"],"lon":27.5867,"lat":53.7723,"pop":0},{"id":8020075,"name":"Aleksandrovo","alt":["Александрово"],"lon":27.3133,"lat":53.543,"pop":0},{"id":8077191,"name":"Aleksandrovo","alt":["Aljaksandrava","Alyaksandrava","Александрово","Аляксандрава"],"lon":24.0081,"lat":53.61826,"pop":0},{"id":8207749,"name":"Aleksandrovo","alt":["Александрово"],"lon":27.5506,"lat":55.3671,"pop":0},{"id":8232754,"name":"Aleksandrovo","alt":["Александрово"],"lon":29.89798,"lat":54.8365,"pop":0},{"id":8232853,"name":"Aleksandrovo","alt":["Александрово"],"lon":29.9011,"lat":55.1158,"pop":0},{"id":8280272,"name":"Aleksandrovo","alt":["Александрово"],"lon":30.1002,"lat":54.9343,"pop":0},{"id":8282567,"name":"Aleksandrovo","alt":["Александрово"],"lon":26.9496,"lat":54.1493,"pop":0},{"id":8330798,"name":"Aleksandrovo","alt":["Александрово"],"lon":29.7476,"lat":54.2695,"pop":0},{"id":8029103,"name":"Aleksandrovshchina","alt":["Aleksandrovshhina","Aljaksandraushchyna","Alyaksandrawshchyna","Александровщина","Аляксандраўшчына"],"lon":24.8465,"lat":53.08616,"pop":0},{"id":8232677,"name":"Aleksandrovskaya","alt":["Aleksandrovskaja","Александровская"],"lon":29.74754,"lat":54.76224,"pop":0},{"id":630613,"name":"Alekseyevichi","alt":["Alekseevichi","Alekseyeviche","Алексеевичи"],"lon":25.0008,"lat":52.2852,"pop":0},{"id":630611,"name":"Alekseyevka","alt":["Alekseevka","Алексеевка"],"lon":30.7222,"lat":52.4547,"pop":0},{"id":814674,"name":"Alekseyevka","alt":["Alekseevka","Алексеевка"],"lon":32.33739,"lat":53.18362,"pop":0},{"id":8019881,"name":"Alekseyevka","alt":["Alekseevka","Алексеевка"],"lon":27.6652,"lat":53.7299,"pop":0},{"id":8194623,"name":"Alekseyevka","alt":["Alekseevka","Алексеевка"],"lon":30.8326,"lat":52.812,"pop":0},{"id":8279975,"name":"Alekseyevka","alt":["Alekseevka","Алексеевка"],"lon":29.2644,"lat":53.5381,"pop":0},{"id":630610,"name":"Alekseyevo","alt":["Alekseevo","Алексеево"],"lon":30.6599,"lat":55.6388,"pop":0},{"id":8213447,"name":"Alekseyevtsy","alt":["Alekseevcy","Алексеевцы"],"lon":28.5151,"lat":55.7322,"pop":0},{"id":630609,"name":"Alekseyki","alt":["Aleksejki","Alekseyevka","Алексейки"],"lon":25.2611,"lat":52.7276,"pop":0},{"id":8281937,"name":"Alekseyki","alt":["Aleksejki","Алексейки"],"lon":31.1382,"lat":54.616,"pop":0},{"id":8235625,"name":"Alekshishki","alt":["Алекшишки"],"lon":24.8972,"lat":54.0652,"pop":0},{"id":8247176,"name":"Alekshitsy","alt":["Alekshicy","Алекшицы"],"lon":27.5985,"lat":54.1074,"pop":0},{"id":630608,"name":"Aleksichi","alt":["Алексичи"],"lon":29.7045,"lat":51.9372,"pop":0},{"id":8028974,"name":"Aleksichi","alt":["Aleksichy","Alyeksichy","Алексичи","Алексічы"],"lon":24.9225,"lat":53.263,"pop":0},{"id":630607,"name":"Aleksinichi","alt":["Aleksinichy","Alyeksinichy","Алексиничи","Алексінічы"],"lon":29.97382,"lat":54.77085,"pop":0},{"id":630606,"name":"Alenovichi","alt":["Аленовичи"],"lon":29.9192,"lat":54.5383,"pop":0},{"id":8194586,"name":"Ales","alt":["Алес"],"lon":30.6826,"lat":52.954,"pop":0},{"id":8178349,"name":"Alesenkovo","alt":["Алесенково"],"lon":32.32736,"lat":53.20438,"pop":0},{"id":8072148,"name":"Alëshkovets","alt":["Aleshkovets","Aljoshkovec","Oleshkovets","Olëshkovets","Алёшковец"],"lon":26.6105,"lat":53.8117,"pop":0},{"id":8072251,"name":"Alëshkovo","alt":["Aleshkovo","Aljoshkovo","Oleshkovo","Olëshkovo","Алёшково"],"lon":26.871,"lat":53.6069,"pop":0},{"id":630604,"name":"Aleshnya","lon":30.66467,"lat":53.22974,"pop":0},{"id":7931526,"name":"Alesino","alt":["Алесино"],"lon":28.2377,"lat":53.955,"pop":0},{"id":630603,"name":"Alesy","lon":29.06667,"lat":55.66667,"pop":0},{"id":624190,"name":"Alyakhnovichy","alt":["Aljakhnovichy","Olechnowicze","Olekhnoviche","Olekhnovichi","Аляхновічы","Олехновичи"],"lon":27.098,"lat":54.1531,"pop":0},{"id":630629,"name":"Alyaksandrawka","alt":["Aleksandrovka","Aljaksandrauka","Аляксандраўка"],"lon":29.4838,"lat":51.4248,"pop":0},{"id":630612,"name":"Alyaksyeyewka","alt":["Alekseyevka","Aljakseeuka","Novo-Alekseyevka","Tyut'ki","Tyut’ki","Аляксееўка"],"lon":30.4186,"lat":51.7514,"pop":0},{"id":621739,"name":"Alyanovo","alt":["Aljanovo","Olanowo","Slyanovo","Аляново"],"lon":26.2055,"lat":54.2211,"pop":0},{"id":8216222,"name":"Alyoshcha","alt":["Aleshcha","Aljoshcha","Alëshcha","Алёшча"],"lon":29.3279,"lat":55.7326,"pop":0},{"id":8281220,"name":"Alyuty","alt":["Aljuty","Алюты"],"lon":30.7653,"lat":54.0626,"pop":0},{"id":8077030,"name":"Ambilevtsy","alt":["Ambileucy","Ambilevcy","Ambilewtsy","Амбилевцы","Амбілеўцы"],"lon":24.671,"lat":53.6631,"pop":0},{"id":8144942,"name":"Ambrazhilevichi","alt":["Ambrazhylevichy","Ambrazhylyevichy","Амбражилевичи","Амбражылевічы"],"lon":25.34754,"lat":53.32155,"pop":0},{"id":630600,"name":"Ambrosavichy","alt":["Ambrosovichi","Амбросавічы"],"lon":29.6515,"lat":55.1968,"pop":0},{"id":8207896,"name":"Ambrosenki","alt":["Амбросенки"],"lon":27.797,"lat":55.7006,"pop":0},{"id":8213219,"name":"Ambrosenki","alt":["Амбросенки"],"lon":28.1154,"lat":55.4119,"pop":0},{"id":630601,"name":"Ambrosionki","alt":["Ambrosenki","Ambrosjonki","Ambrosënki","Амбросёнки"],"lon":27.321,"lat":55.3776,"pop":0},{"id":8251949,"name":"Ambrozhishki","alt":["Амброжишки"],"lon":25.2557,"lat":54.2282,"pop":0},{"id":8144929,"name":"Amel’niki","alt":["Amel'niki","Amyel'niki","Amyel’niki","Амельники","Амельнікі"],"lon":25.3101,"lat":53.2196,"pop":0},{"id":8178400,"name":"Amel’noye","alt":["Amel'noe","Amel'noye","Амельное"],"lon":31.4645,"lat":52.6299,"pop":0},{"id":624139,"name":"Amelino","alt":["Amelina","Omeliny","Амелино"],"lon":26.5484,"lat":54.4225,"pop":0},{"id":8330789,"name":"Amerika","alt":["Америка"],"lon":29.9529,"lat":54.2526,"pop":0},{"id":624134,"name":"Amhovichy","alt":["Amgovichy","Omgovichi","Амговічы","Омговичи"],"lon":27.8083,"lat":53.0974,"pop":0},{"id":630598,"name":"Aminovichi","alt":["Аминовичи"],"lon":28.6317,"lat":53.4812,"pop":0},{"id":629945,"name":"Amkhinichi","alt":["Bol'shie Amkhinichi","Bol'shiye Amkhinichi","Bol’shiye Amkhinichi","Большие Амхиничи"],"lon":30.6667,"lat":53.8581,"pop":0},{"id":815381,"name":"Amkhovaya Pyershaya","alt":["Amkhovaja Pershaja","Amkhovaja Pervaja","Amkhovaya","Amkhovaya Pervaya","Амховая Первая","Амховая Першая"],"lon":30.5273,"lat":53.7932,"pop":0},{"id":8337550,"name":"Amkhovaya Vtoraya","alt":["Amkhovaja Vtoraja","Амховая Вторая"],"lon":30.5447,"lat":53.7774,"pop":0},{"id":8047166,"name":"Amlyntsy","alt":["Amlyncy","Амлынцы"],"lon":26.7143,"lat":53.3012,"pop":0},{"id":624133,"name":"Amnishevo","alt":["Omnishevo","Амнишево"],"lon":27.8708,"lat":54.5728,"pop":0},{"id":8282322,"name":"Amolyany","alt":["Amoljany","Амоляны"],"lon":26.0562,"lat":54.5264,"pop":0},{"id":8216174,"name":"Amosenki","alt":["Амосенки"],"lon":29.1866,"lat":55.825,"pop":0},{"id":8222701,"name":"Amosovka","alt":["Амосовка"],"lon":28.936,"lat":54.7277,"pop":0},{"id":630597,"name":"Amur","lon":29.76667,"lat":52.21667,"pop":0},{"id":8147049,"name":"Amur","alt":["Амур"],"lon":28.5427,"lat":52.753,"pop":0},{"id":624137,"name":"Amyal’naya","alt":["Amjal'naja","Amyal'naya","Omel'naya","Omel'no","Omel’naya","Omel’no","Амяльная"],"lon":25.7535,"lat":52.4766,"pop":0},{"id":8279835,"name":"Anan’yevka","alt":["Anan'evka","Anan'yevka","Ананьевка"],"lon":29.6348,"lat":53.8518,"pop":0},{"id":630596,"name":"Ananchytsy","alt":["Ananchichi","Ananchici","Ananchitsy","Ananchycy","Ананчици","Ананчыцы"],"lon":27.6464,"lat":52.5261,"pop":0},{"id":630594,"name":"Ananichi","alt":["Ананичи"],"lon":31.64665,"lat":53.84618,"pop":0},{"id":630595,"name":"Ananichi","alt":["Ананичи"],"lon":28.121,"lat":53.633,"pop":0},{"id":8144901,"name":"Ananichi","alt":["Ananichy","Ананичи","Ананічы"],"lon":25.2745,"lat":53.3055,"pop":0},{"id":8222373,"name":"Ananichi","alt":["Ананичи"],"lon":28.0916,"lat":55.3102,"pop":0},{"id":8280070,"name":"Ananino","alt":["Ананино"],"lon":30.2826,"lat":55.251,"pop":0},{"id":624791,"name":"Anastas’yevka","alt":["Anastas'evka","Anastas'yevka","Nastas'yevka","Nastas’yevka","Анастасьевка"],"lon":30.5826,"lat":52.9171,"pop":0},{"id":630593,"name":"Anatol’yevka","lon":29.26667,"lat":53.56667,"pop":0},{"id":7930660,"name":"Anatski","alt":["Anacki","Анацки"],"lon":25.5563,"lat":53.8708,"pop":0},{"id":8281965,"name":"Andekolovo","alt":["Андеколово"],"lon":31.10683,"lat":54.3693,"pop":0},{"id":8246947,"name":"Andolovshchina","alt":["Andolovshhina","Андоловщина"],"lon":27.2492,"lat":54.5939,"pop":0},{"id":630580,"name":"Andrany","alt":["Androny","Андраны"],"lon":31.3122,"lat":53.9804,"pop":0},{"id":8222305,"name":"Andreychiki","alt":["Andrejchiki","Андрейчики"],"lon":28.3306,"lat":55.1483,"pop":0},{"id":8232963,"name":"Andreychiki","alt":["Andrejchiki","Андрейчики"],"lon":29.77486,"lat":54.69902,"pop":0},{"id":630591,"name":"Andreyenki","alt":["Andreenki","Андреенки"],"lon":29.8891,"lat":55.7048,"pop":0},{"id":8029057,"name":"Andreyevichy","alt":["Andreevichi","Andrehevichy","Andreyevichi","Андреевичи","Андрэевічы"],"lon":24.3069,"lat":53.111,"pop":0},{"id":630585,"name":"Andreyevka","alt":["Andreevka","Andreyevskiye","Андреевка"],"lon":30.9114,"lat":52.7317,"pop":0},{"id":630588,"name":"Andreyevka","alt":["Andreevka","Андреевка"],"lon":30.2938,"lat":52.1912,"pop":0},{"id":630589,"name":"Andreyevka","alt":["Andreevka","Андреевка"],"lon":31.5108,"lat":52.1333,"pop":0},{"id":814024,"name":"Andreyevka","lon":30.90333,"lat":53.43667,"pop":0},{"id":8164744,"name":"Andreyevka","alt":["Andreevka","Андреевка"],"lon":28.6502,"lat":52.5533,"pop":0},{"id":8216318,"name":"Andreyevka","alt":["Andreevka","Андреевка"],"lon":29.6366,"lat":55.4589,"pop":0},{"id":630587,"name":"Andreyevo","alt":["Andreevo","Андреево"],"lon":30.4062,"lat":55.7721,"pop":0},{"id":8232389,"name":"Andreyevo","alt":["Andreevo","Андреево"],"lon":29.2994,"lat":55.2172,"pop":0},{"id":8280329,"name":"Andreyevshchina","alt":["Andreevshhina","Андреевщина"],"lon":30.2813,"lat":54.8076,"pop":0},{"id":8282229,"name":"Andreyevskiy","alt":["Andreevskij","Андреевский"],"lon":32.03499,"lat":53.52146,"pop":0},{"id":630584,"name":"Andreyevtsy","alt":["Andreevcy","Andrzejowce","Andzheyevtse","Andzheyëvtse","Андреевцы"],"lon":26.3777,"lat":54.6768,"pop":0},{"id":11816874,"name":"Andreyevtsy","alt":["Andreevcy","Andreheucy","Andreyewtsy","Андреевцы","Андрэеўцы"],"lon":25.74629,"lat":53.36028,"pop":0},{"id":630586,"name":"Andreyewshchyna","alt":["Andreevshhina","Andreheushchyna","Andreyevshchina","Андреевщина","Андрэеўшчына"],"lon":30.4521,"lat":54.5689,"pop":0},{"id":630574,"name":"Andreyki","alt":["Andrejki","Andrzejki","Andzheyki","Андрейки"],"lon":26.9857,"lat":54.7177,"pop":0},{"id":8251912,"name":"Andreykishki","alt":["Andrejkishki","Андрейкишки"],"lon":25.7246,"lat":54.3502,"pop":0},{"id":630583,"name":"Andriyanovka","alt":["Andrijanovka","Andriyanka","Андрияновка"],"lon":24.1285,"lat":52.665,"pop":0},{"id":630592,"name":"Andriyanovo","alt":["Andreyanovo","Andrianovo","Andrijanovo","Андрияново"],"lon":30.5509,"lat":54.6073,"pop":0},{"id":8232549,"name":"Andriyanovo","alt":["Andrianovo","Andrijanovo","Андрияново"],"lon":29.0902,"lat":54.7767,"pop":0},{"id":8072228,"name":"Andriyevshchina","alt":["Andrievshhina","Андриевщина"],"lon":26.9605,"lat":53.6404,"pop":0},{"id":630582,"name":"Andronovichi","alt":["Андроновичи"],"lon":30.2757,"lat":55.243,"pop":0},{"id":630581,"name":"Andronovo","alt":["Андроново"],"lon":24.2952,"lat":52.2489,"pop":0},{"id":630579,"name":"Androny","alt":["Андроны"],"lon":26.9717,"lat":55.2301,"pop":0},{"id":630578,"name":"Androsovshchina","alt":["Androsovshhina","Андросовщина"],"lon":27.1788,"lat":53.1981,"pop":0},{"id":12501570,"name":"Andruki","alt":["Андруки"],"lon":29.51218,"lat":54.96119,"pop":0},{"id":630575,"name":"Andrushi","alt":["Andrushe","Andryushi","Андруши"],"lon":26.7855,"lat":53.2987,"pop":0},{"id":630577,"name":"Andrushi","alt":["Андруши"],"lon":27.0206,"lat":53.4038,"pop":0},{"id":8028930,"name":"Andrushi","alt":["Andrushy","Андруши","Андрушы"],"lon":24.3109,"lat":53.283,"pop":0},{"id":7930599,"name":"Andrushki","alt":["Andrjushki","Andryushki","Андрушки","Андрюшки"],"lon":25.5395,"lat":53.94667,"pop":0},{"id":7930868,"name":"Andrusovshchina","alt":["Andrusovshhina","Андрусовщина"],"lon":25.1452,"lat":53.5538,"pop":0},{"id":812985,"name":"Andryukhi","alt":["Andrjukhi","Androkhi","Андрюхи"],"lon":31.05644,"lat":54.36463,"pop":0},{"id":630576,"name":"Andryushevtsy","alt":["Andrjushevcy","Андрюшевцы"],"lon":24.6269,"lat":53.6619,"pop":0},{"id":630573,"name":"Anelino","alt":["Anelina","Анелино"],"lon":29.7788,"lat":54.5222,"pop":0},{"id":8020028,"name":"Anetovo","alt":["Анетово"],"lon":27.867,"lat":53.6169,"pop":0},{"id":8019716,"name":"Angarskaya","alt":["Angarskaja","Ангарская"],"lon":27.676,"lat":53.873,"pop":0},{"id":8280892,"name":"Anibalivo","alt":["Анибаливо"],"lon":30.4768,"lat":54.593,"pop":0},{"id":8222292,"name":"Anikevshchina","alt":["Anikevshhina","Аникевщина"],"lon":28.4021,"lat":55.2157,"pop":0},{"id":8322447,"name":"Anikovichi Bol’shiye","alt":["Anikovichi Bol'shie","Anikovichi Bol'shiye","Аниковичи Большие"],"lon":30.5905,"lat":54.2541,"pop":0},{"id":8216417,"name":"Anis’ki","alt":["Anis'ki","Аниськи"],"lon":29.9068,"lat":55.541,"pop":0},{"id":8279799,"name":"Anis’kovshchina","alt":["Anis'kovshchina","Anis'kovshhina","Аниськовщина"],"lon":29.988,"lat":53.9935,"pop":0},{"id":630570,"name":"Anisimovichi","alt":["Anisimoviche","Анисимовичи"],"lon":26.6859,"lat":55.6932,"pop":0},{"id":630571,"name":"Anisimovichi","alt":["Anisimavichy","Анисимовичи","Анісімавічы"],"lon":25.9831,"lat":53.1462,"pop":0},{"id":624131,"name":"Aniskavichy","alt":["Oniskoviche","Oniskovichi","Аніскавічы"],"lon":24.7145,"lat":52.1255,"pop":0},{"id":630569,"name":"Ankudy","alt":["Анкуды"],"lon":25.9968,"lat":54.5027,"pop":0},{"id":8221690,"name":"Ankudy","alt":["Анкуды"],"lon":27.2917,"lat":55.1546,"pop":0},{"id":8221720,"name":"Ankudy","alt":["Анкуды"],"lon":27.2784,"lat":55.1102,"pop":0},{"id":630567,"name":"Annospasskaya","lon":23.91667,"lat":51.68333,"pop":0},{"id":8148975,"name":"Annovka","alt":["Анновка"],"lon":29.8298,"lat":53.053,"pop":0},{"id":630568,"name":"Anopal’","alt":["Annopol'","Annopol’","Anopal'","Анопаль"],"lon":27.5516,"lat":53.6802,"pop":0},{"id":630566,"name":"Anopol’ye","alt":["Annopol'ye","Annopol’ye","Anopol'e","Anopol'ye","Анополье"],"lon":28.5991,"lat":53.7756,"pop":0},{"id":624130,"name":"Anoshki","alt":["Onoshki","Onoszki","Аношки"],"lon":27.8668,"lat":54.0823,"pop":80},{"id":630564,"name":"Anoshki","alt":["Аношки"],"lon":28.6321,"lat":54.693,"pop":0},{"id":8164738,"name":"Anosovichi","alt":["Аносовичи"],"lon":28.5873,"lat":52.4035,"pop":0},{"id":630565,"name":"Anozhki","alt":["Anoshki","Аножки"],"lon":27.1043,"lat":53.1748,"pop":0},{"id":8330577,"name":"Antapollye","alt":["Antapolle","Antopol'ye","Antopol’ye","Антаполле"],"lon":29.3877,"lat":54.6581,"pop":0},{"id":8280998,"name":"Antipenki","alt":["Антипенки"],"lon":30.7281,"lat":54.4442,"pop":0},{"id":630550,"name":"Antonawka","alt":["Antonauka","Antonovka","Антонаўка"],"lon":30.8954,"lat":53.7454,"pop":0},{"id":630558,"name":"Antonawka","alt":["Antonauka","Antonov","Antonovka","Антонаўка"],"lon":29.3846,"lat":51.6666,"pop":0},{"id":8281016,"name":"Antonawka","alt":["Antonauka","Antonovka","Антонаўка"],"lon":30.4326,"lat":54.4036,"pop":0},{"id":8216328,"name":"Antonenki","alt":["Антоненки"],"lon":29.7009,"lat":55.6987,"pop":0},{"id":8216375,"name":"Antonenki","alt":["Антоненки"],"lon":29.8334,"lat":55.6665,"pop":0},{"id":8280664,"name":"Antonenki","alt":["Антоненки"],"lon":31.0083,"lat":54.6717,"pop":0},{"id":12534081,"name":"Antonenki","alt":["Антоненки"],"lon":27.2126,"lat":55.76763,"pop":0},{"id":8248180,"name":"Antonevichi","alt":["Антоневичи"],"lon":28.7535,"lat":54.1556,"pop":0},{"id":630548,"name":"Antonevo","alt":["Antonovo","Антонево"],"lon":26.3631,"lat":53.619,"pop":0},{"id":8019767,"name":"Antonishki","alt":["Антонишки"],"lon":27.4049,"lat":53.8572,"pop":0},{"id":8222438,"name":"Antonishki","alt":["Антонишки"],"lon":28.6242,"lat":55.2755,"pop":0},{"id":8282932,"name":"Antonishki","alt":["Антонишки"],"lon":26.3419,"lat":54.6535,"pop":0},{"id":630562,"name":"Antonopol’","lon":30.18333,"lat":55.45,"pop":0},{"id":630560,"name":"Antonov","alt":["Антонов"],"lon":31.3593,"lat":52.232,"pop":0},{"id":630559,"name":"Antonova Buda","alt":["Антонова Буда"],"lon":29.825,"lat":53.8957,"pop":0},{"id":8213437,"name":"Antonovichi","alt":["Антоновичи"],"lon":28.4295,"lat":55.3675,"pop":0},{"id":629169,"name":"Antonovka","alt":["Darinpol'e","Darinpol'ye","Darinpol’ye","Даринполье"],"lon":31.2672,"lat":52.8814,"pop":0},{"id":630551,"name":"Antonovka","alt":["Антоновка"],"lon":32.02329,"lat":53.44764,"pop":0},{"id":630552,"name":"Antonovka","alt":["Антоновка"],"lon":31.6581,"lat":53.4065,"pop":0},{"id":630553,"name":"Antonovka","alt":["Антоновка"],"lon":30.1476,"lat":52.9817,"pop":0},{"id":630554,"name":"Antonovka","alt":["Антоновка"],"lon":29.7994,"lat":52.7272,"pop":0},{"id":630555,"name":"Antonovka","alt":["Антоновка"],"lon":31.2327,"lat":52.2431,"pop":0},{"id":630556,"name":"Antonovka","alt":["Антоновка"],"lon":29.2838,"lat":52.1644,"pop":0},{"id":630557,"name":"Antonovka","alt":["Антоновка"],"lon":29.139,"lat":51.9354,"pop":0},{"id":815016,"name":"Antonovka","alt":["Антоновка"],"lon":30.6597,"lat":52.9173,"pop":0},{"id":815387,"name":"Antonovka","alt":["Антоновка"],"lon":30.639,"lat":53.8124,"pop":0},{"id":7930785,"name":"Antonovka","alt":["Антоновка"],"lon":25.9587,"lat":53.7071,"pop":0},{"id":8148795,"name":"Antonovka","alt":["Антоновка"],"lon":29.2107,"lat":53.2193,"pop":0},{"id":8222525,"name":"Antonovka","alt":["Антоновка"],"lon":28.5561,"lat":54.9524,"pop":0},{"id":8247112,"name":"Antonovka","alt":["Антоновка"],"lon":27.7295,"lat":54.3011,"pop":0},{"id":8331277,"name":"Antonovka","alt":["Антоновка"],"lon":30.9018,"lat":55.4538,"pop":0},{"id":630547,"name":"Antonovo","alt":["Антоново"],"lon":29.1808,"lat":55.9525,"pop":0},{"id":630549,"name":"Antonovo","alt":["Антоново"],"lon":24.098,"lat":52.0164,"pop":0},{"id":7931448,"name":"Antonovo","alt":["Антоново"],"lon":28.0313,"lat":53.5327,"pop":0},{"id":8020121,"name":"Antonovo","alt":["Антоново"],"lon":27.3311,"lat":53.4476,"pop":0},{"id":8020191,"name":"Antonovo","alt":["Антоново"],"lon":27.7857,"lat":53.3712,"pop":0},{"id":8145089,"name":"Antonovo","alt":["Antanova","Антанова","Антоново"],"lon":25.9762,"lat":53.1623,"pop":0},{"id":8213290,"name":"Antonovo","alt":["Антоново"],"lon":28.2265,"lat":55.7198,"pop":0},{"id":8221321,"name":"Antonovo","alt":["Антоново"],"lon":27.4314,"lat":55.3117,"pop":0},{"id":8221378,"name":"Antonovo","alt":["Антоново"],"lon":27.8796,"lat":55.2808,"pop":0},{"id":8221980,"name":"Antonovo","alt":["Антоново"],"lon":27.4385,"lat":54.817,"pop":0},{"id":8252040,"name":"Antonovo","alt":["Антоново"],"lon":25.522,"lat":54.1424,"pop":0},{"id":8282427,"name":"Antonovo","alt":["Антоново"],"lon":26.1161,"lat":54.3104,"pop":0},{"id":8330752,"name":"Antonovo","alt":["Антоново"],"lon":29.5114,"lat":54.3207,"pop":0},{"id":12484892,"name":"Antonovo","alt":["Антоново"],"lon":27.32293,"lat":55.74145,"pop":0},{"id":630545,"name":"Antonovshchina","alt":["Antonovshchyzna","Antonovshhina","Антоновщина"],"lon":26.9268,"lat":53.8794,"pop":0},{"id":8071963,"name":"Antonovshchina","alt":["Antonovshhina","Антоновщина"],"lon":26.1407,"lat":53.6654,"pop":0},{"id":8207478,"name":"Antonovtsy","alt":["Antonovcy","Антоновцы"],"lon":27.0739,"lat":55.67202,"pop":0},{"id":8331142,"name":"Antonovtsy","alt":["Antonovcy","Антоновцы"],"lon":30.0824,"lat":55.615,"pop":0},{"id":630544,"name":"Antony","lon":25.81667,"lat":54.4,"pop":0},{"id":8021723,"name":"Antony","alt":["Антоны"],"lon":23.978,"lat":52.3747,"pop":0},{"id":8221881,"name":"Antony","alt":["Антоны"],"lon":27.79,"lat":54.8803,"pop":0},{"id":630543,"name":"Antopal’","alt":["Antopal'","Antopol","Antopol'","Antopol’","ʼntwpwl","ʼntypʼlyʻ","Антопаль","Антополь","אנטופול","אנטיפאליע"],"lon":24.7863,"lat":52.2038,"pop":2100},{"id":8195812,"name":"Antopol’","alt":["Antopol'","Антополь"],"lon":30.2314,"lat":52.3297,"pop":0},{"id":630541,"name":"Antosino","alt":["Антосино"],"lon":27.3011,"lat":53.7232,"pop":0},{"id":8217977,"name":"Antosino","alt":["Антосино"],"lon":26.5376,"lat":54.6884,"pop":0},{"id":8198158,"name":"Antosity","alt":["Антоситы"],"lon":26.787,"lat":55.6694,"pop":0},{"id":8280891,"name":"Antovil’","alt":["Antovil'","Антовиль"],"lon":30.4235,"lat":54.5709,"pop":0},{"id":8282773,"name":"Antselevshchina","alt":["Ancelevshhina","Анцелевщина"],"lon":26.252,"lat":54.2127,"pop":0},{"id":630540,"name":"Antsipory","alt":["Ancipory","Ancypery","Antsypery","Antsypety","Анципоры"],"lon":27.3806,"lat":54.9443,"pop":0},{"id":630539,"name":"Antunovo","alt":["Antunova","Антуново"],"lon":28.9582,"lat":55.3036,"pop":0},{"id":8222354,"name":"Antunovo","alt":["Антуново"],"lon":28.3607,"lat":54.9527,"pop":0},{"id":8148997,"name":"Antushi","alt":["Антуши"],"lon":29.7993,"lat":53.0019,"pop":0},{"id":813673,"name":"Anufriyevka","lon":30.66417,"lat":54.94139,"pop":0},{"id":624128,"name":"Anufrovichi","alt":["Onufrovichi","Ануфровичи"],"lon":27.5357,"lat":53.1691,"pop":0},{"id":8020182,"name":"Anufrovo","alt":["Ануфрово"],"lon":27.2436,"lat":53.3888,"pop":0},{"id":8247263,"name":"Anusino","alt":["Анусино"],"lon":27.2213,"lat":54.0429,"pop":0},{"id":814881,"name":"Anyutino","alt":["An'yutin","Anjutino","An’yutin","Анютино"],"lon":31.3489,"lat":53.67442,"pop":0},{"id":624127,"name":"Anzhadava","alt":["Onzhadovo","Onzhodovo","Zastyanek Onzodovo","Анжадава"],"lon":25.6011,"lat":54.3467,"pop":0},{"id":7930928,"name":"Apalino-Basino","alt":["Apalina-Basina","Apolino-Basino","Апалино-Басино","Апаліна-Басіна"],"lon":25.3498,"lat":53.4819,"pop":0},{"id":630538,"name":"Apanasenki","alt":["Apanasionki","Krukowka","Krukówka","Апанасенки"],"lon":27.4608,"lat":55.5946,"pop":0},{"id":8207467,"name":"Apanasishki Pervyye","alt":["Apanasishki 1-e","Apanasishki 1-ye","Apanasishki Pervye","Aponasishki 1-e","Aponasishki 1-ye","Aponasishki Pervye","Aponasishki Pervyye","Апанасишки 1-е","Апанасишки Первые","Апонасишки 1-е","Апонасишки Первые"],"lon":27.1095,"lat":55.81609,"pop":0},{"id":8207468,"name":"Apanasishki Vtoryye","alt":["Apanasishki 2-e","Apanasishki 2-ye","Apanasishki Vtorye","Aponasishki 2-e","Aponasishki 2-ye","Aponasishki Vtorye","Aponasishki Vtoryye","Апанасишки 2-е","Апанасишки Вторые","Апонасишки 2-е","Апонасишки Вторые"],"lon":27.1225,"lat":55.81714,"pop":0},{"id":630537,"name":"Apanaskovichi","alt":["Апанасковичи"],"lon":28.8271,"lat":55.2334,"pop":0},{"id":8072138,"name":"Apanovshchina","alt":["Apanovshhina","Апановщина"],"lon":26.8629,"lat":53.8217,"pop":0},{"id":8029251,"name":"Apelyanovichi","alt":["Apeljanovichi","Апеляновичи"],"lon":24.6847,"lat":52.909,"pop":0},{"id":630535,"name":"Apidomy","alt":["Apidamy","Апидомы"],"lon":26.3873,"lat":55.1154,"pop":0},{"id":630533,"name":"Apoliny","alt":["Аполины"],"lon":27.6806,"lat":53.1846,"pop":0},{"id":630532,"name":"Appalonovka","alt":["Apolonovka","Appolonovka","Аппалоновка"],"lon":30.2211,"lat":54.1776,"pop":0},{"id":8217453,"name":"Apushiny","alt":["Апушины"],"lon":25.8393,"lat":54.8842,"pop":0},{"id":630531,"name":"Aputok","lon":28.1,"lat":54.01667,"pop":0},{"id":8174258,"name":"Arab’i","alt":["Arab'i","Арабьи"],"lon":24.5834,"lat":52.4906,"pop":0},{"id":630530,"name":"Arabniki","alt":["Арабники"],"lon":24.4122,"lat":52.581,"pop":0},{"id":8046970,"name":"Arabovshchina","alt":["Arabovshhina","Арабовщина"],"lon":26.0461,"lat":53.2635,"pop":0},{"id":624120,"name":"Aranchytsy","alt":["Aranchycy","Oran'chytse","Oranchitsy","Oranczyce","Oran’chytse","Orańczyce","Аранчыцы"],"lon":24.5352,"lat":52.4628,"pop":0},{"id":8330772,"name":"Arava","alt":["Арава"],"lon":29.7429,"lat":54.3061,"pop":0},{"id":624115,"name":"Ardashy","alt":["Ordashe","Ordashi","Ардашы"],"lon":26.2355,"lat":54.2473,"pop":0},{"id":8146330,"name":"Aregelovshchina","alt":["Argelovshhina","Аргеловщина"],"lon":27.2017,"lat":53.1525,"pop":0},{"id":624104,"name":"Arekhava","alt":["Arehkhava","Orekhovo","Арэхава"],"lon":23.9544,"lat":51.6392,"pop":0},{"id":624109,"name":"Arekhawka","alt":["Arehkhauka","Orekhovka","Staraya Orekhovka","Арэхаўка"],"lon":29.148,"lat":53.5033,"pop":0},{"id":624102,"name":"Arekhawsk","alt":["Arehkhausk","Orekhi","Orekhi-Vydritsa","Orekhovsk","Арэхаўск","Ореховск"],"lon":30.4998,"lat":54.6853,"pop":0},{"id":6997003,"name":"Arekhawski","alt":["Arehkhauski","Poselok Orekhovskiy","Posëlok Orekhovskiy","Арэхаўскі"],"lon":24.6716,"lat":51.9838,"pop":0},{"id":8331262,"name":"Arekhi","alt":["Арехи"],"lon":30.8181,"lat":55.4471,"pop":0},{"id":624097,"name":"Areshkavichy","alt":["Arehshkavichy","Oreshkovichi","Арэшкавічы","Орешковичи"],"lon":28.9665,"lat":54.0123,"pop":0},{"id":624098,"name":"Areshkavichy","alt":["Arehshkavichy","Oreshkovichi","Арэшкавічы"],"lon":28.3704,"lat":53.3959,"pop":0},{"id":630529,"name":"Arguny","lon":30.5,"lat":55.06667,"pop":0},{"id":8021889,"name":"Arkadiya","alt":["Arkadija","Аркадия"],"lon":23.6936,"lat":52.0574,"pop":0},{"id":8213207,"name":"Arkhanovo","alt":["Арханово"],"lon":28.1287,"lat":55.5477,"pop":0},{"id":8208006,"name":"Arkhipovo","alt":["Архипово"],"lon":27.9652,"lat":55.5189,"pop":0},{"id":624088,"name":"Arlovichy","alt":["Orlovichi","Арловічы"],"lon":31.0442,"lat":54.6647,"pop":0},{"id":8539780,"name":"Aronova Sloboda","alt":["Аронова Слобода"],"lon":27.4195,"lat":54.0345,"pop":0},{"id":624080,"name":"Arpa","alt":["Orpa","Арпа"],"lon":27.1778,"lat":54.5607,"pop":0},{"id":630527,"name":"Artekhov","alt":["Artekhova","Артехов"],"lon":31.43597,"lat":53.23202,"pop":0},{"id":814914,"name":"Artel’","lon":30.74028,"lat":52.56417,"pop":0},{"id":8331140,"name":"Artel’nyy","alt":["Artel'nyj","Artel'nyy","Артельный"],"lon":30.0354,"lat":55.4512,"pop":0},{"id":630526,"name":"Artëmovka","alt":["Artemovka","Artjomovka","Артёмовка"],"lon":32.4362,"lat":53.5755,"pop":0},{"id":813659,"name":"Artëmovo","alt":["Artemovo","Artjomovo","Артёмово"],"lon":30.711,"lat":54.9313,"pop":0},{"id":8221360,"name":"Artëmy","alt":["Artemy","Artjomy","Артёмы"],"lon":27.9521,"lat":55.3083,"pop":0},{"id":8213537,"name":"Arteykovichi","alt":["Artejkovichi","Артейковичи"],"lon":28.7294,"lat":55.6338,"pop":0},{"id":630525,"name":"Artsimoviche","alt":["Arcimawicze","Artemovichi","Artimovichi","Artjomovichi","Artëmovichi","Артёмовичи"],"lon":26.8622,"lat":55.5037,"pop":0},{"id":630524,"name":"Artuki","alt":["Артуки","Артукі"],"lon":30.5312,"lat":52.1501,"pop":0},{"id":8145007,"name":"Artychanka","alt":["Артычанка"],"lon":25.5901,"lat":52.8329,"pop":0},{"id":624070,"name":"Artyukhi","alt":["Artjukhi","Ortsyukhy","Артюхи"],"lon":26.8286,"lat":53.4752,"pop":0},{"id":630523,"name":"Artyukhi","alt":["Artjukhi","Артюхи"],"lon":32.15526,"lat":53.2025,"pop":0},{"id":8216133,"name":"Artyukhi","alt":["Artjukhi","Артюхи"],"lon":29.0674,"lat":55.4535,"pop":0},{"id":8331012,"name":"Artyukhi","alt":["Artjukhi","Артюхи"],"lon":30.0757,"lat":55.7896,"pop":0},{"id":8282219,"name":"Artyukhovka","alt":["Artjukhovka","Артюховка"],"lon":32.2862,"lat":53.3924,"pop":0},{"id":814755,"name":"Artyukhovskiye","lon":30.46361,"lat":52.08361,"pop":0},{"id":8077069,"name":"Artyushi","alt":["Arcishy","Artishi","Artjushi","Artsishy","Артиши","Артюши","Арцішы"],"lon":24.82535,"lat":53.75019,"pop":0},{"id":8222540,"name":"Artyushki","alt":["Artjushki","Артюшки"],"lon":28.7085,"lat":55.1564,"pop":0},{"id":630520,"name":"Arzheukhovo","lon":30.81667,"lat":55.33333,"pop":0},{"id":630519,"name":"Asany","alt":["Асаны"],"lon":26.2481,"lat":54.3531,"pop":0},{"id":630518,"name":"Asarevichy","alt":["Asarehvichy","Asarevichi","Асаревичи","Асарэвічы"],"lon":30.4946,"lat":51.6113,"pop":0},{"id":8251842,"name":"Asatniki","alt":["Асатники"],"lon":25.971,"lat":54.5352,"pop":0},{"id":623994,"name":"Asavyets","alt":["Asavec","Osovec","Osovets","Асавец","Осовец"],"lon":29.6691,"lat":53.9205,"pop":0},{"id":623997,"name":"Asavyets","alt":["Asavec","Osovec","Osovets","Асавец","Осовец"],"lon":28.1963,"lat":52.8539,"pop":0},{"id":623998,"name":"Asavyets","alt":["Asavec","Osovec","Osovets","Асавец","Осовец"],"lon":28.6964,"lat":52.0508,"pop":0},{"id":623975,"name":"Asawtsy","alt":["Asaucy","Osovtse","Osovtsy","Osowce","Асаўцы"],"lon":26.7216,"lat":52.0251,"pop":0},{"id":630517,"name":"Aseredok","alt":["Oseredok","Oserjodok","Oserëdok","Осерёдок"],"lon":28.9631,"lat":53.3061,"pop":0},{"id":630516,"name":"Asetishche","lon":30.15,"lat":55.43333,"pop":0},{"id":8280098,"name":"Asetki","alt":["Osetki","Асетки"],"lon":30.3438,"lat":55.2132,"pop":0},{"id":8198273,"name":"Ashkaragi","alt":["Ашкараги"],"lon":26.7148,"lat":55.4112,"pop":0},{"id":8247251,"name":"Ashmyantsy","alt":["Ashmjancy","Ашмянцы"],"lon":27.5219,"lat":54.0216,"pop":0},{"id":630515,"name":"Ashmyany","alt":["Achmiany","Aschmjany","Ashmiany","Ashmjani","Ashmjany","Asjmjany","Asmena","Asmiany","Asmjani","Asmjany","Ašmena","Ašmiany","Ašmjani","Ašmjany","Oshmjani","Oshmjany","Oshmyana","Oshmyany","Oszmiana","ao shen mi ya nei","Ашмяны","Ашмјани","Ошмяни","Ошмяны","אשמיאני","奧什米亞內"],"lon":25.936,"lat":54.421,"pop":14345},{"id":8282324,"name":"Ashmyany","alt":["Ashmjany","Oshmyany","Ашмяны"],"lon":26.0835,"lat":54.5337,"pop":0},{"id":624048,"name":"Asinawka","alt":["Asinauka","Osinovka","Асінаўка","Осиновка"],"lon":30.325,"lat":54.9322,"pop":0},{"id":624054,"name":"Asinawka","alt":["Asinauka","Osinovka","Асінаўка"],"lon":31.2174,"lat":53.8508,"pop":0},{"id":8280186,"name":"Asinawka","alt":["Asinauka","Osinovka","Асінаўка"],"lon":30.0683,"lat":55.0946,"pop":0},{"id":8282411,"name":"Asinawshchyzna Druhaya","alt":["Asinaushchyzna Drugaja","Osinovshchina Vtoraya","Асінаўшчызна Другая"],"lon":26.3189,"lat":54.5063,"pop":0},{"id":624038,"name":"Asintorf","alt":["Osinstroy","Osintorf","Асінторф","Осинторф"],"lon":30.6581,"lat":54.7148,"pop":0},{"id":8246998,"name":"Asintsy","alt":["Asincy","Асинцы"],"lon":27.5321,"lat":54.4877,"pop":0},{"id":624032,"name":"Asipavichy","alt":["Osinoviche","Osipovichi","Osipowicze","Асіпавічы","Осиповичи"],"lon":26.8459,"lat":54.4551,"pop":0},{"id":624023,"name":"Asipawshchyna","alt":["Asipaushchyna","Osipovshchina","Osipovshchyzna","Асіпаўшчына"],"lon":26.5898,"lat":53.3838,"pop":0},{"id":624034,"name":"Asipovichy","alt":["Asipopovichy","Osipovichi","Ospipovichi","Ossipowitschi","Sipovichi","Асіпоповічы","Осиповичи"],"lon":28.6386,"lat":53.3011,"pop":34591},{"id":630513,"name":"Askerino","alt":["Аскерино"],"lon":29.9391,"lat":55.7219,"pop":0},{"id":8248166,"name":"Askerki","alt":["Аскерки"],"lon":28.7273,"lat":54.1939,"pop":0},{"id":8232510,"name":"Askershchina","alt":["Askershhina","Аскерщина"],"lon":29.3559,"lat":55.0178,"pop":0},{"id":8247142,"name":"Askryshino","alt":["Askrishino","Oskrishino","Аскрышино"],"lon":27.5228,"lat":54.2643,"pop":0},{"id":624022,"name":"Aslavenyaty","alt":["Aslavenjaty","Oslavenyaty","Аславеняты"],"lon":26.2674,"lat":54.4564,"pop":0},{"id":7931577,"name":"Asles’ye","alt":["Asles'e","Asles'ye","Аслесье"],"lon":28.3464,"lat":53.9835,"pop":0},{"id":630511,"name":"Asmolovichi","alt":["Osmolovichi","Асмоловичи"],"lon":31.44722,"lat":54.03684,"pop":0},{"id":624012,"name":"Asnyezhytsy","alt":["Asnezhycy","Os'nezhitse","Osnejicy","Osnezhicy","Osnezhitsy","Osneĵicy","Osniezyce","Osnieżyce","Os’nezhitse","Аснежыцы","Оснежицы"],"lon":26.1299,"lat":52.1891,"pop":1185},{"id":624010,"name":"Asoshniki","alt":["Osochniki","Ososhniki","Асошнікі"],"lon":24.65509,"lat":52.85847,"pop":0},{"id":8222301,"name":"Astanovshchina","alt":["Astanovshhina","Астановщина"],"lon":28.3146,"lat":55.1565,"pop":0},{"id":630509,"name":"Astapkovichi","alt":["Астапковичи"],"lon":30.4879,"lat":55.7395,"pop":0},{"id":8232559,"name":"Astashevo","alt":["Асташево"],"lon":29.2093,"lat":54.921,"pop":0},{"id":8280212,"name":"Astashëvo","alt":["Astashevo","Astashjovo","Асташёво"],"lon":30.8796,"lat":55.1071,"pop":0},{"id":8217890,"name":"Astashishki","alt":["Асташишки"],"lon":26.2696,"lat":54.9047,"pop":0},{"id":623964,"name":"Astashkavichy","alt":["Ostashkovichi","Асташкавічы","Осташковичи"],"lon":29.6077,"lat":52.443,"pop":0},{"id":7931595,"name":"Astashonki","alt":["Асташонки"],"lon":28.443,"lat":53.9372,"pop":0},{"id":623958,"name":"Astramechava","alt":["Ostromechevo","Астрамечава","Остромечево"],"lon":23.5858,"lat":52.26849,"pop":0},{"id":623955,"name":"Astrashytski","alt":["Astrashycki","Ostroshitsy","Астрашыцкі"],"lon":27.7568,"lat":54.1173,"pop":0},{"id":623956,"name":"Astrashytski Haradok","alt":["Astrashycki Garadok","Gorodok","Ostroshickij Gorodok","Ostroshitski Gorodok","Ostroshitskiy Gorodok","Астрашыцкі Гарадок","Острошицкий Городок"],"lon":27.695,"lat":54.0651,"pop":2390},{"id":623908,"name":"Astravy","alt":["Ostrovy","Астравы"],"lon":30.5605,"lat":51.9546,"pop":0},{"id":623941,"name":"Astravyets","alt":["Astravas","Astravec","Astravets","Astraviec","Astraviets","Astravjeca","Ostrov","Ostrovec","Ostrovec'","Ostrovets","Ostrowiec","ao si te luo wei ci","Астравец","Островец","Островець","奧斯特羅韋茨"],"lon":25.95537,"lat":54.61378,"pop":10878},{"id":623932,"name":"Astrawskiya","alt":["Astrauskija","Ostrovki","Ostrovskiye","Астраўскія"],"lon":30.6147,"lat":55.4419,"pop":0},{"id":623906,"name":"Astrazhanka","alt":["Ostroshanka","Ostrozhanka","Астражанка"],"lon":28.5555,"lat":51.9919,"pop":0},{"id":623960,"name":"Astreni","alt":["Ostreni","Астрени"],"lon":30.8178,"lat":53.7681,"pop":0},{"id":8146284,"name":"Astreyki","alt":["Astrejki","Астрейки"],"lon":27.2118,"lat":53.2788,"pop":0},{"id":630508,"name":"Astreykovo","alt":["Astrejkovo","Астрейково"],"lon":30.615,"lat":55.2298,"pop":0},{"id":623957,"name":"Astromichy","alt":["Ostromech-Krulevski","Ostromichi","Астромічы"],"lon":24.469,"lat":52.2764,"pop":0},{"id":623935,"name":"Astrowki","alt":["Astrouki","Ostrovki","Астроўкі"],"lon":26.443,"lat":53.3536,"pop":0},{"id":623928,"name":"Astrowna","alt":["Astrouna","Ostrovno","Астроўна","Островно"],"lon":29.8596,"lat":55.137,"pop":0},{"id":623918,"name":"Astrowshchyna","alt":["Astroushchyna","Ostrovshchina","Астроўшчына"],"lon":28.3959,"lat":55.5064,"pop":0},{"id":623902,"name":"Asvieja","alt":["Asveja","Osveja","Osveya","Oswieja","Oświeja","Асвея","Освея"],"lon":28.11049,"lat":56.0147,"pop":1300},{"id":624066,"name":"Asyetsishchy","alt":["Asecishchy","Osetishche","Асецішчы"],"lon":28.3791,"lat":54.8661,"pop":0},{"id":630506,"name":"Atalyez’","alt":["Antalezy","Atales","Atalez","Atalez'","Atalez’","Atalyez'","Аталезь"],"lon":26.6051,"lat":53.57,"pop":0},{"id":8164796,"name":"Atirki","alt":["Атирки"],"lon":28.6523,"lat":52.1527,"pop":0},{"id":8146368,"name":"Atkulovichi","alt":["Aktulovichi","Аткуловичи"],"lon":27.2807,"lat":53.1063,"pop":0},{"id":8146478,"name":"Atochka","alt":["Аточка"],"lon":27.9627,"lat":52.947,"pop":0},{"id":8145075,"name":"Atolin","alt":["Атолин"],"lon":25.91522,"lat":53.31671,"pop":0},{"id":8019846,"name":"Atolina","alt":["Atolino","Атоліна"],"lon":27.4346,"lat":53.7817,"pop":1253},{"id":623894,"name":"Atrazh’ye","alt":["Atrazh'e","Atrazh'ye","Otrazh'ye","Otrazh’ye","Атражье"],"lon":30.8127,"lat":53.8025,"pop":0},{"id":630505,"name":"Atroshkovichi","alt":["Atroshkevichi","Атрошковичи"],"lon":29.028,"lat":53.0871,"pop":0},{"id":8222541,"name":"Atroshkovo","alt":["Атрошково"],"lon":28.7475,"lat":55.1904,"pop":0},{"id":811503,"name":"Atskovaya","alt":["Ackovaja","Otskovaya","Ацковая"],"lon":30.6395,"lat":55.0114,"pop":0},{"id":8075447,"name":"Aul’s","alt":["Aul's","Аульс"],"lon":23.9602,"lat":53.6747,"pop":0},{"id":8174955,"name":"Avangard","alt":["Авангард"],"lon":29.419,"lat":52.3463,"pop":0},{"id":8216443,"name":"Avdan’ki","alt":["Avdan'ki","Авданьки"],"lon":29.9442,"lat":55.5655,"pop":0},{"id":624365,"name":"Avdeyenki","alt":["Avdeenki","Novyye Avdeyenki","Авдеенки"],"lon":29.758,"lat":55.619,"pop":0},{"id":630500,"name":"Avdeyevichi","alt":["Avdeevichi","Avdzeyeviche","Авдеевичи"],"lon":26.1471,"lat":53.6774,"pop":0},{"id":630501,"name":"Avdeyevichi","alt":["Avdeevichi","Авдеевичи"],"lon":30.2787,"lat":55.2836,"pop":0},{"id":8029020,"name":"Avdeyevichi","alt":["Audzeevichy","Avdeevichi","Awdzyeyevichy","Авдеевичи","Аўдзеевічы"],"lon":24.6311,"lat":53.1759,"pop":0},{"id":8213384,"name":"Avdeyevo","alt":["Avdeevo","Авдеево"],"lon":28.3634,"lat":55.5017,"pop":0},{"id":8331009,"name":"Avdeykovo","alt":["Avdejkovo","Авдейково"],"lon":30.0976,"lat":55.8244,"pop":0},{"id":8217936,"name":"Aveny","alt":["Авены"],"lon":26.0841,"lat":54.775,"pop":0},{"id":8656290,"name":"Avguli","lon":27.97724,"lat":56.09489,"pop":0},{"id":630499,"name":"Avgustovo","alt":["Августово"],"lon":30.3841,"lat":54.1285,"pop":0},{"id":8198232,"name":"Avgustovo","alt":["Августово"],"lon":26.5907,"lat":55.461,"pop":0},{"id":8279764,"name":"Avgustovo","alt":["Августово"],"lon":29.0074,"lat":53.7584,"pop":0},{"id":8282665,"name":"Avgustovo","alt":["Августово"],"lon":26.5042,"lat":54.1176,"pop":0},{"id":8146603,"name":"Aviny","alt":["Oviny","Авины"],"lon":27.4065,"lat":52.7312,"pop":0},{"id":630497,"name":"Avkhimki","alt":["Авхимки"],"lon":30.9223,"lat":53.9065,"pop":0},{"id":8330757,"name":"Avkhuty","alt":["Авхуты"],"lon":29.4482,"lat":54.297,"pop":0},{"id":8213266,"name":"Avlasenki","alt":["Авласенки"],"lon":28.1818,"lat":55.4063,"pop":0},{"id":8222510,"name":"Avlasovo","alt":["Авласово"],"lon":28.8834,"lat":54.9936,"pop":0},{"id":8207664,"name":"Avlasy","alt":["Авласы"],"lon":27.4135,"lat":55.5005,"pop":0},{"id":8281182,"name":"Avraamovka","alt":["Авраамовка"],"lon":30.2305,"lat":54.097,"pop":0},{"id":813130,"name":"Avseyevo","alt":["Avseevo","Авсеево"],"lon":30.0038,"lat":54.7112,"pop":0},{"id":8148929,"name":"Avsimovichi","alt":["Авсимовичи"],"lon":29.6222,"lat":52.9954,"pop":0},{"id":630495,"name":"Avsyukovo","lon":29.31667,"lat":55.91667,"pop":0},{"id":630494,"name":"Avtukhovka","alt":["Автуховка"],"lon":31.9807,"lat":53.4913,"pop":0},{"id":630493,"name":"Avtushkovo","alt":["Автушково"],"lon":30.6961,"lat":55.3773,"pop":0},{"id":630498,"name":"Awhustova","alt":["Augustova","Augustowo","Avgustovo","Аўгустова"],"lon":27.8784,"lat":54.1582,"pop":0},{"id":8281132,"name":"Awsyanka","alt":["Ausjanka","Ovsjanka","Ovsyanka","Аўсянка","Овсянка"],"lon":30.7852,"lat":54.2244,"pop":0},{"id":628623,"name":"Aytsvily","alt":["Ajcvily","Ejcwily","Ejcwiły","Eytsvily","Eyzsvily","Айцвилы"],"lon":26.5134,"lat":54.6416,"pop":0},{"id":623882,"name":"Ayutsavichy","alt":["Ajucavichy","Oyutsevichi","Аюцавічы"],"lon":26.443,"lat":53.4151,"pop":0},{"id":813727,"name":"Azanchevka","lon":31.51389,"lat":53.41,"pop":0},{"id":8222537,"name":"Azarënki","alt":["Azarenki","Azarjonki","Азарёнки"],"lon":28.6757,"lat":55.0342,"pop":0},{"id":623879,"name":"Azarichi","alt":["Azarychy","Ozarichi","Азаричи","Азарычы"],"lon":25.3342,"lat":53.1876,"pop":0},{"id":630491,"name":"Azarichi","alt":["Anarichi","Азаричи"],"lon":30.8487,"lat":53.616,"pop":0},{"id":8226795,"name":"Azarki-Dvorishche","alt":["Azarki-Dvorishhe","Азарки-Дворище"],"lon":26.9869,"lat":54.8356,"pop":0},{"id":630489,"name":"Azarki-Pudovinka","alt":["Azarki-Pudowinka","Азарки-Пудовинка"],"lon":26.9797,"lat":54.829,"pop":0},{"id":630490,"name":"Azarki-Staryye","alt":["Azarki","Azarki-Starye","Азарки-Старые"],"lon":26.9934,"lat":54.8378,"pop":0},{"id":8331355,"name":"Azarovka","alt":["Азаровка"],"lon":30.1108,"lat":53.9989,"pop":0},{"id":630488,"name":"Azartsy","alt":["Azarce","Azartse"],"lon":27.68333,"lat":54.88333,"pop":0},{"id":623880,"name":"Azarychy","alt":["Ozarichi","Азарычы","Озаричи"],"lon":29.2643,"lat":52.4648,"pop":0},{"id":623878,"name":"Azdamichy","alt":["Ozdamiche","Ozdamichi","Ozdanichi","Ozdanicze","Аздамічы"],"lon":27.4888,"lat":52.0182,"pop":0},{"id":623877,"name":"Azdzyatsichy","alt":["Azdzjacichy","Ovdyatichi","Ozdjatichi","Ozdyatichi","Аздзяцічы","Оздятичи"],"lon":28.8361,"lat":54.0992,"pop":0},{"id":630487,"name":"Azdzyelina","alt":["Azdelin","Azdelino","Azdzelina","Аздзеліна"],"lon":30.7443,"lat":52.5384,"pop":0},{"id":623854,"name":"Azertsy","alt":["Azercy","Ozertsy","Азерцы"],"lon":32.06786,"lat":53.62445,"pop":0},{"id":8207748,"name":"Azeta","alt":["Азета"],"lon":27.5261,"lat":55.4064,"pop":0},{"id":8251991,"name":"Azhubali","alt":["Ажубали"],"lon":25.523,"lat":54.2154,"pop":0},{"id":8282318,"name":"Azhugery","alt":["Ажугеры"],"lon":26.1701,"lat":54.5373,"pop":0},{"id":8251990,"name":"Azhukol’ni","alt":["Azhukol'ni","Ажукольни"],"lon":25.5144,"lat":54.2055,"pop":0},{"id":8217767,"name":"Azhuraystis","alt":["Azhurajstis","Ажурайстис"],"lon":26.2731,"lat":55.0797,"pop":0},{"id":8282282,"name":"Azhuroysti","alt":["Azhurojsti","Ажуройсти"],"lon":26.1484,"lat":54.5826,"pop":0},{"id":11955996,"name":"Azhuvalki","alt":["Ажувалки"],"lon":25.96838,"lat":53.94369,"pop":0},{"id":8213518,"name":"Azina","alt":["Azino","Азіна"],"lon":28.643,"lat":55.6299,"pop":0},{"id":623874,"name":"Azyarany","alt":["Azjarany","Ozerane","Ozerany","Азяраны","Озераны"],"lon":29.9275,"lat":53.2412,"pop":0},{"id":623875,"name":"Azyarany","alt":["Azjarany","Ozerany","Ozeriny","Ozierany","Ozyerani","Азяраны","Озераны"],"lon":27.8529,"lat":52.037,"pop":0},{"id":623855,"name":"Azyartso","alt":["Azjarco","Ozerco","Ozertso","Strochitsy-Ozertso","Азярцо","Озерцо"],"lon":27.3917,"lat":53.8397,"pop":1247},{"id":623845,"name":"Azyaty","alt":["Azjaty","Oziaty","Ozyaty","Азяты"],"lon":24.153,"lat":52.0986,"pop":0},{"id":623857,"name":"Azyershchyna","alt":["Azershchyna","Ozershchina","Ozershhina","Ozershina","Ozërshchina","Азершчына","Озерщина"],"lon":30.3405,"lat":52.4048,"pop":0},{"id":623853,"name":"Azyertsy","alt":["Azercy","Ozertsy","Азерцы"],"lon":29.7672,"lat":54.4203,"pop":0},{"id":8221645,"name":"Azyertsy","alt":["Azercy","Ozertsy","Азерцы"],"lon":27.7804,"lat":55.1918,"pop":0},{"id":623850,"name":"Azyory","alt":["Azjory","Jeziory","Ozery","Ozjory","Ozëry","Yezery","Азёры","Озеры","Озёры"],"lon":24.1836,"lat":53.7216,"pop":1000},{"id":8331134,"name":"Babakhino","alt":["Бабахино"],"lon":30.1278,"lat":55.581,"pop":0},{"id":8247948,"name":"Babarika","alt":["Бабарика"],"lon":28.9767,"lat":54.5448,"pop":0},{"id":8207755,"name":"Babariki","alt":["Бабарики"],"lon":27.5841,"lat":55.7668,"pop":0},{"id":630486,"name":"Babashki","alt":["Babaszki","Бабашки"],"lon":26.9673,"lat":55.7774,"pop":0},{"id":630485,"name":"Babayevichi","alt":["Babaevichi","Babayeviche","Бабаевичи"],"lon":26.6374,"lat":53.0374,"pop":0},{"id":8222517,"name":"Babcha","alt":["Бабча"],"lon":28.8263,"lat":55.0006,"pop":0},{"id":8330824,"name":"Babchino","alt":["Бабчино"],"lon":29.9772,"lat":54.1687,"pop":0},{"id":630484,"name":"Babchyn","alt":["Babchik","Babchin","Бабчин","Бабчын"],"lon":30.0209,"lat":51.7839,"pop":0},{"id":630480,"name":"Babichi","alt":["Babiche"],"lon":27.76667,"lat":55.01667,"pop":0},{"id":630481,"name":"Babichi","alt":["Babichy","Бабичи"],"lon":31.1778,"lat":52.8842,"pop":0},{"id":630483,"name":"Babichi","alt":["Babiche","Babicze","Бабичи"],"lon":26.5494,"lat":52.9349,"pop":0},{"id":8021753,"name":"Babichi","alt":["Бабичи"],"lon":23.7335,"lat":52.3546,"pop":0},{"id":8077314,"name":"Babichi","alt":["Babichy","Бабичи","Бабічы"],"lon":24.82147,"lat":53.48113,"pop":0},{"id":8217917,"name":"Babichi","alt":["Бабичи"],"lon":26.193,"lat":54.8248,"pop":0},{"id":8221490,"name":"Babichi","alt":["Бабичи"],"lon":27.6199,"lat":55.2666,"pop":0},{"id":8251818,"name":"Babichi","alt":["Бабичи"],"lon":25.8163,"lat":54.6602,"pop":0},{"id":8280997,"name":"Babichi","alt":["Бабичи"],"lon":30.6178,"lat":54.4352,"pop":0},{"id":630482,"name":"Babichy","alt":["Babichi","Бабичи","Бабічы"],"lon":30.002,"lat":52.2895,"pop":0},{"id":630474,"name":"Babinavichy","alt":["Babinovichi","Бабиновичи","Бабінавічы"],"lon":30.5725,"lat":54.8351,"pop":0},{"id":8174174,"name":"Babinets","alt":["Babinec","Бабинец"],"lon":24.0389,"lat":52.6652,"pop":0},{"id":8144907,"name":"Babinichi","alt":["Babynichy","Бабиничи","Бабынічы"],"lon":25.2423,"lat":53.1798,"pop":0},{"id":630477,"name":"Babinichy","alt":["Babinichi","Бабиничи","Бабінічы"],"lon":30.3547,"lat":55.2609,"pop":0},{"id":813268,"name":"Babinichy","alt":["Babinichi","Бабиничи","Бабінічы"],"lon":30.4418,"lat":54.4232,"pop":0},{"id":630476,"name":"Babinka","lon":30.2,"lat":53.73333,"pop":0},{"id":8279742,"name":"Babinka","alt":["Бабинка"],"lon":29.306,"lat":53.8534,"pop":0},{"id":8281999,"name":"Babinki","alt":["Бабинки"],"lon":31.23696,"lat":54.02627,"pop":0},{"id":8076927,"name":"Babino","alt":["Бабино"],"lon":24.2871,"lat":53.8083,"pop":0},{"id":630475,"name":"Babino Pervoye","alt":["Babino","Babino Pervoe","Бабино Первое"],"lon":29.3625,"lat":53.1342,"pop":0},{"id":8183541,"name":"Babino Vtoroye","alt":["Babino Vtoroe","Бабино Второе"],"lon":29.373,"lat":53.1187,"pop":0},{"id":630473,"name":"Babinovichi","alt":["Бабиновичи"],"lon":30.1821,"lat":55.5642,"pop":0},{"id":630472,"name":"Babintsy","lon":30.05,"lat":55.01667,"pop":0},{"id":630471,"name":"Babirova","alt":["Babirovo","Бабирово","Бабірова"],"lon":28.5525,"lat":53.0314,"pop":0},{"id":8280068,"name":"Babirovka","alt":["Bibirevka","Bibirjovka","Bibirëvka","Бибирёвка"],"lon":30.1469,"lat":55.2458,"pop":0},{"id":8282859,"name":"Babishche","alt":["Babishhe","Бабище"],"lon":26.7567,"lat":54.4906,"pop":0},{"id":630470,"name":"Babiy Les","alt":["Babij Les","Бабий Лес"],"lon":28.1904,"lat":54.1569,"pop":0},{"id":630078,"name":"Babonevka","alt":["Bobonevki","Бабоневка"],"lon":26.1366,"lat":53.4134,"pop":0},{"id":630076,"name":"Babovichy","alt":["Babovichi","Bobovichi","Бабовічы","Бобовичи"],"lon":30.9182,"lat":52.3389,"pop":0},{"id":630074,"name":"Baboviki","alt":["Boboviki","Бабовики"],"lon":29.0797,"lat":55.6269,"pop":0},{"id":630072,"name":"Babownya","alt":["Babounja","Bobovnia","Bobovnya","Бабоўня"],"lon":26.9533,"lat":53.2551,"pop":0},{"id":630066,"name":"Babranyaty","alt":["Babranjaty","Bobrenyata","Бабраняты"],"lon":29.2866,"lat":52.015,"pop":0},{"id":630051,"name":"Babrova","alt":["Bobrovo","Баброва","Боброво"],"lon":28.9943,"lat":55.0173,"pop":0},{"id":630057,"name":"Babrovichy","alt":["Bobroviche","Bobrovichi","Бабровічы","Бобровичи"],"lon":26.5708,"lat":54.0481,"pop":0},{"id":630059,"name":"Babrovichy","alt":["Bobroviche","Bobrovichi","Bobrowicze","Бабровічы","Бобровичи"],"lon":25.773,"lat":52.6075,"pop":0},{"id":630060,"name":"Babrovichy","alt":["Bobrovichi","Bobrowitschi","Бабровічы"],"lon":29.3684,"lat":52.2935,"pop":0},{"id":630047,"name":"Babruyki","alt":["Babrujki","Bobrujki","Bobruyki","Бабруйкі","Бобруйки"],"lon":29.2638,"lat":51.8126,"pop":0},{"id":630468,"name":"Babruysk","alt":["Babroejsk","Babruisk","Babrujsk","Bobruisk","Bobruiskas","Bobrujsk","Bobruysk","bwbrwysq","Бабруйск","Бобруйск","בוברויסק"],"lon":29.2214,"lat":53.1384,"pop":209675},{"id":630467,"name":"Babtsy","alt":["Babcy","Бабцы"],"lon":28.1352,"lat":54.7591,"pop":0},{"id":630466,"name":"Babunichy","alt":["Babunichi","Бабуничы"],"lon":28.464,"lat":52.2756,"pop":0},{"id":630042,"name":"Babynichy","alt":["Bobynichi","Бабынічы","Бобыничи"],"lon":28.4103,"lat":55.2772,"pop":0},{"id":630465,"name":"Bachentsy Pervyye","alt":["Bachency Pervye","Bachentse","Bachentsy","Byachentse","Баченцы Первые"],"lon":24.464,"lat":53.11707,"pop":0},{"id":11963573,"name":"Bachentsy Vtoryye","alt":["Bachency Vtorye","Баченцы Вторые"],"lon":24.4584,"lat":53.11393,"pop":0},{"id":630040,"name":"Bacheykava","alt":["Bachehjkava","Bochejkovo","Bocheykovo","Бачэйкава","Бочейково"],"lon":29.1425,"lat":55.0185,"pop":0},{"id":814905,"name":"Bachki","lon":31.5125,"lat":53.6375,"pop":0},{"id":630463,"name":"Badeni","alt":["Badzene","Badzienie","Бадени"],"lon":27.1356,"lat":54.8992,"pop":0},{"id":630464,"name":"Badezhi","alt":["Бадежи"],"lon":27.2644,"lat":53.208,"pop":0},{"id":8145015,"name":"Badiny","alt":["Бадины"],"lon":25.5889,"lat":53.0244,"pop":0},{"id":8232907,"name":"Baëvka","alt":["Baevka","Bajovka","Баёвка"],"lon":29.5914,"lat":55.2809,"pop":0},{"id":813170,"name":"Baglai","lon":30.01694,"lat":54.55389,"pop":0},{"id":12140622,"name":"Bagnev","alt":["Багнев"],"lon":24.8048,"lat":53.08737,"pop":0},{"id":8174413,"name":"Bagny","alt":["Багны"],"lon":24.0982,"lat":52.2271,"pop":0},{"id":8029109,"name":"Bagon","alt":["Багон"],"lon":24.2621,"lat":53.0518,"pop":0},{"id":630461,"name":"Bagrimovichi","alt":["Bagrimov","Багримовичи"],"lon":28.8479,"lat":52.1564,"pop":0},{"id":630460,"name":"Bagrinovo","alt":["Багриново"],"lon":30.3093,"lat":54.5835,"pop":0},{"id":8019967,"name":"Bagritsovshchina","alt":["Bagricovshhina","Bagritsevshchina","Bogritsovshchina","Багрицовщина"],"lon":27.2126,"lat":53.6388,"pop":0},{"id":630459,"name":"Baguta","alt":["Багута"],"lon":27.8524,"lat":54.0324,"pop":0},{"id":8213634,"name":"Bahatyrskaya","alt":["Bagatyrskaja","Bogatyrskaya","Багатырская"],"lon":28.851,"lat":55.4979,"pop":0},{"id":8233002,"name":"Bahdanava","alt":["Bogdanovo","Богданово"],"lon":29.6431,"lat":54.86427,"pop":0},{"id":630033,"name":"Bahdanavichy","alt":["Bagdanavichy","Bogdanovichi","Багданавічы","Богдановичи"],"lon":30.6909,"lat":53.0736,"pop":0},{"id":630032,"name":"Bahdanawka","alt":["Bagdanauka","Bogdanovka","Bogdanuvka","Bohdanowka","Bohdanówka","Багданаўка","Богдановка"],"lon":26.4525,"lat":52.3667,"pop":0},{"id":630022,"name":"Bahuševičy","alt":["Bagushehvichy","Bahushevichy","Bogushevichi","Багушэвічы","Богушевичи"],"lon":28.8237,"lat":53.7106,"pop":0},{"id":630017,"name":"Bahushewsk","alt":["Bagushehusk","Bogashevskaya","Bogushevsk","Bogushevskoye","Bogushëvsk","Багушэўск","Богушевск"],"lon":30.2081,"lat":54.8435,"pop":0},{"id":630018,"name":"Bahushova","alt":["Bogushevo","Bogushëvo","Vagushova","Вагушова"],"lon":28.4122,"lat":55.3573,"pop":0},{"id":630020,"name":"Bahushowka","alt":["Bagushouka","Bagushowka","Bogushevka","Bogushëvka","Багушоўка"],"lon":23.9403,"lat":53.7608,"pop":0},{"id":11814858,"name":"Bakalyarishki","alt":["Bakaljarishki","Бакаляришки"],"lon":24.84198,"lat":53.89988,"pop":0},{"id":8330774,"name":"Bakanovo","alt":["Баканово"],"lon":29.6288,"lat":54.3132,"pop":0},{"id":8331099,"name":"Bakany","alt":["Баканы"],"lon":30.0584,"lat":55.5717,"pop":0},{"id":630457,"name":"Bakhan’","alt":["Bakhan'","Бахань"],"lon":30.632,"lat":53.3976,"pop":0},{"id":8279833,"name":"Bakhani","alt":["Бахани"],"lon":29.6078,"lat":53.8707,"pop":0},{"id":813587,"name":"Bakhanskiye","lon":30.51889,"lat":53.37806,"pop":0},{"id":630006,"name":"Bakhany","alt":["Bokhany","Баханы","Боханы"],"lon":32.4423,"lat":53.3685,"pop":0},{"id":630456,"name":"Bakharëva","lon":30.11667,"lat":55.51667,"pop":0},{"id":624364,"name":"Bakharevichi","alt":["Novo-Bakharevichi","Novyye Bakharevichi","Бахаревичи"],"lon":27.6136,"lat":53.6058,"pop":0},{"id":630455,"name":"Bakhiry","alt":["Bachiry","Bakhiri"],"lon":27.7,"lat":55.35,"pop":0},{"id":630454,"name":"Bakhmetovka","alt":["Bachmetowka","Bachmetówka","Бахметовка"],"lon":27.3622,"lat":54.1878,"pop":0},{"id":7930721,"name":"Bakhmoty","alt":["Bakhmaty","Бахматы","Бахмоты"],"lon":25.2973,"lat":53.7554,"pop":0},{"id":630004,"name":"Bakhotets","alt":["Bakhotec","Bokhotets","Бахотец"],"lon":30.6378,"lat":53.7682,"pop":0},{"id":629878,"name":"Bakhovo","alt":["Bol'shoe Bakhovo","Bol'shoye Bakhovo","Bol’shoye Bakhovo","Velikoye Bakhovo","Большое Бахово"],"lon":30.7301,"lat":54.5075,"pop":0},{"id":630453,"name":"Baki","alt":["Баки","Бакі"],"lon":24.50761,"lat":53.0178,"pop":0},{"id":8019957,"name":"Bakinovo","alt":["Бакиново"],"lon":27.0289,"lat":53.64,"pop":0},{"id":8218058,"name":"Baklai","alt":["Баклаи"],"lon":26.964,"lat":54.8617,"pop":0},{"id":8331818,"name":"Bakov","alt":["Баков"],"lon":31.228,"lat":53.4982,"pop":0},{"id":8330764,"name":"Bakova Sloboda","alt":["Бакова Слобода"],"lon":29.9911,"lat":54.2665,"pop":0},{"id":630449,"name":"Bakshty","alt":["Bakszty","Бакшты"],"lon":26.3838,"lat":54.9356,"pop":0},{"id":630450,"name":"Bakshty","alt":["Bakszty","Бакшты"],"lon":26.9132,"lat":54.0965,"pop":0},{"id":630451,"name":"Bakshty","alt":["Bakszty","Бакшты"],"lon":26.1868,"lat":53.9357,"pop":0},{"id":630452,"name":"Bakshty","alt":["Бакшты"],"lon":24.6828,"lat":53.7967,"pop":0},{"id":11816913,"name":"Bakshty","alt":["Бакшты"],"lon":25.53479,"lat":53.39672,"pop":0},{"id":630448,"name":"Bakun’ki","alt":["Bakun'ki","Бакуньки"],"lon":27.4277,"lat":54.5775,"pop":0},{"id":630447,"name":"Bakunovichi","alt":["Bukunovichi","Бакуновичи"],"lon":31.25392,"lat":53.4532,"pop":0},{"id":630445,"name":"Bakuny","alt":["Бакуны"],"lon":24.2852,"lat":52.6695,"pop":0},{"id":630446,"name":"Bakuny","alt":["Бакуны"],"lon":24.6317,"lat":52.4646,"pop":0},{"id":7930624,"name":"Bakuny","alt":["Бакуны"],"lon":25.52216,"lat":53.92651,"pop":0},{"id":8075493,"name":"Bakuny","alt":["Бакуны"],"lon":23.7163,"lat":53.5672,"pop":0},{"id":8181486,"name":"Bakuny","alt":["Бакуны"],"lon":30.1493,"lat":51.8236,"pop":0},{"id":8232357,"name":"Bal’binovo","alt":["Bal'binovo","Бальбиново"],"lon":29.12,"lat":55.2221,"pop":0},{"id":629947,"name":"Bal’shavik","alt":["Bal'shavik","Bol'shevik","Bol’shevik","Бальшавік","Большевик"],"lon":30.8794,"lat":52.5629,"pop":0},{"id":8247409,"name":"Bal’shavik","alt":["Bal'shavik","Bol'shevik","Bol’shevik","Sovkhoz Bol'shevik","Sovkhoz Bol’shevik","Бальшавік","Большевик"],"lon":27.5669,"lat":54.0036,"pop":3470},{"id":8247310,"name":"Bal’tsery","alt":["Bal'cery","Bal'tsery","Bel'tsery","Bel’tsery","Бальцеры"],"lon":27.0028,"lat":54.1421,"pop":0},{"id":8194483,"name":"Balaba","alt":["Балаба"],"lon":30.1346,"lat":53.1957,"pop":0},{"id":630444,"name":"Balabanovichi","lon":25.9,"lat":53.11667,"pop":0},{"id":8213244,"name":"Balabanshchina","alt":["Balabanshhina","Балабанщина"],"lon":28.1846,"lat":55.7204,"pop":0},{"id":8213155,"name":"Balai","alt":["Балаи"],"lon":28.0836,"lat":55.4277,"pop":0},{"id":8221432,"name":"Balai","alt":["Балаі"],"lon":27.1117,"lat":55.2533,"pop":0},{"id":630443,"name":"Balamutovichi","lon":27.58333,"lat":53.61667,"pop":0},{"id":8074835,"name":"Balandichi","alt":["Баландичи"],"lon":25.5048,"lat":51.9726,"pop":0},{"id":8074840,"name":"Balandichi","alt":["Баландичи"],"lon":25.5102,"lat":51.9261,"pop":0},{"id":630442,"name":"Balashevichi","alt":["Balashsvichi","Балашевичи"],"lon":28.7769,"lat":52.8956,"pop":0},{"id":630441,"name":"Balashëvka","alt":["Balashevka","Balashjovka","Балашёвка"],"lon":30.1221,"lat":52.4863,"pop":0},{"id":630000,"name":"Balashi","alt":["Bolashi","Балаши"],"lon":30.7887,"lat":55.3779,"pop":0},{"id":8218054,"name":"Balashi","alt":["Балаши"],"lon":26.6605,"lat":54.8522,"pop":0},{"id":8246759,"name":"Balashi","alt":["Балаши"],"lon":27.0791,"lat":54.632,"pop":0},{"id":8330650,"name":"Balashova","alt":["Balashovo","Балашова"],"lon":29.9597,"lat":54.5171,"pop":0},{"id":579452,"name":"Balazhevichi","alt":["Балажевичи"],"lon":28.7522,"lat":52.099,"pop":0},{"id":793279,"name":"Balbasava","alt":["Bolbasovo","Балбасава"],"lon":30.2909,"lat":54.4207,"pop":3600},{"id":8207879,"name":"Balbeki","alt":["Балбеки"],"lon":27.7208,"lat":55.3651,"pop":0},{"id":8218003,"name":"Balduk","alt":["Балдук"],"lon":26.4059,"lat":54.9758,"pop":0},{"id":814419,"name":"Baleshin","alt":["Балешин"],"lon":31.9564,"lat":53.5638,"pop":0},{"id":8077386,"name":"Bali","alt":["Бали"],"lon":24.5845,"lat":53.6056,"pop":0},{"id":630438,"name":"Balichi","alt":["Baliche","Balichy","Баличи","Балічы"],"lon":24.7691,"lat":53.5097,"pop":0},{"id":11915458,"name":"Balichi","alt":["Баличи"],"lon":24.00839,"lat":53.42538,"pop":0},{"id":8075406,"name":"Balinenta","alt":["Balinenty","Балинента"],"lon":23.6311,"lat":53.8249,"pop":0},{"id":8232543,"name":"Balino","alt":["Балино"],"lon":29.0363,"lat":54.7524,"pop":0},{"id":630437,"name":"Baliny","alt":["Балины"],"lon":27.7374,"lat":55.8034,"pop":0},{"id":8075436,"name":"Ballya-Sol’naya","alt":["Ballja-Sol'naja","Ballya-Sol'naya","Balya-Sol'naya","Balya-Sol’naya","Балля-Сольная"],"lon":23.7781,"lat":53.7251,"pop":0},{"id":629994,"name":"Balocha","alt":["Bolocha","Балоча"],"lon":28.4172,"lat":53.543,"pop":0},{"id":629988,"name":"Balotnya","alt":["Balotnja","Bolotnya","Volotnya","Балотня"],"lon":30.6115,"lat":53.2097,"pop":0},{"id":629987,"name":"Baloty","alt":["Bloty Vel'ki","Bloty Vel’ki","Bol'shiye Bolota","Bol'shoye Boloto","Bolota","Boloty","Bol’shiye Bolota","Bol’shoye Boloto","Wielkie Bloty","Wielkie Błoty","Балоты","Болота"],"lon":24.522,"lat":52.1361,"pop":0},{"id":630434,"name":"Balvanishki","alt":["Baxwaniszki","Bolvanishki"],"lon":26.05,"lat":54.33333,"pop":0},{"id":8252026,"name":"Balymshchina","alt":["Balymshhina","Балымщина"],"lon":25.8285,"lat":54.127,"pop":0},{"id":630433,"name":"Balyui","alt":["Baljui","Baluje","Balyuye","Балюи"],"lon":27.3441,"lat":55.7929,"pop":0},{"id":8330861,"name":"Ban’ki","alt":["Ban'ki","Баньки"],"lon":29.8478,"lat":54.1154,"pop":0},{"id":8282639,"name":"Ban’kovo","alt":["Ban'kovo","Баньково"],"lon":26.6229,"lat":54.0667,"pop":0},{"id":812817,"name":"Ban’kovshchina","alt":["Ban'kovshchina","Ban'kovshhina","Баньковщина"],"lon":31.6587,"lat":54.1056,"pop":0},{"id":8207835,"name":"Bandeli","alt":["Бандели"],"lon":27.7312,"lat":55.927,"pop":0},{"id":8146935,"name":"Banëvka","alt":["Banevka","Banjovka","Банёвка"],"lon":28.9393,"lat":53.1384,"pop":0},{"id":8146960,"name":"Banëvka","alt":["Banevka","Banjovka","Банёвка"],"lon":28.9823,"lat":53.1089,"pop":0},{"id":8282926,"name":"Banifatsevo","alt":["Banifacevo","Банифацево"],"lon":26.1957,"lat":54.5233,"pop":0},{"id":630432,"name":"Banniki","lon":30.46667,"lat":55.76667,"pop":0},{"id":8019652,"name":"Bantserovshchina","alt":["Bancerovshhina","Банцеровщина"],"lon":27.4433,"lat":53.9609,"pop":0},{"id":8537667,"name":"Bantsevichi","alt":["Bancavichy","Bancevichi","Bantsavichy","Банцавічы","Банцевичи"],"lon":25.12082,"lat":53.85251,"pop":0},{"id":11964149,"name":"Banyuki","alt":["Banjuki","Банюки"],"lon":24.79223,"lat":53.73258,"pop":0},{"id":8148860,"name":"Barak","alt":["Барак"],"lon":29.4823,"lat":53.1271,"pop":0},{"id":630430,"name":"Baran’","alt":["Baran'","Barany","Барань"],"lon":28.6686,"lat":54.4911,"pop":0},{"id":630431,"name":"Baran’","alt":["Baran'","Барань"],"lon":30.3159,"lat":54.4784,"pop":11600},{"id":8174871,"name":"Baran’ Gora","alt":["Baran' Gora","Барань Гора"],"lon":27.3475,"lat":52.4715,"pop":0},{"id":8232385,"name":"Baran’ki","alt":["Baran'ki","Бараньки"],"lon":29.2579,"lat":55.2752,"pop":0},{"id":630419,"name":"Baranava","alt":["Baranovo","Баранава"],"lon":23.9211,"lat":53.5194,"pop":0},{"id":630424,"name":"Baranavichy","alt":["Baranovichi","Баранавічы"],"lon":23.7323,"lat":53.67,"pop":0},{"id":8213143,"name":"Baranchiki","alt":["Баранчики"],"lon":28.0056,"lat":55.5632,"pop":0},{"id":630413,"name":"Barani","alt":["Barany","Барани"],"lon":26.1143,"lat":54.9191,"pop":0},{"id":8217698,"name":"Baranishki","alt":["Баранишки"],"lon":26.7874,"lat":55.2459,"pop":0},{"id":630427,"name":"Baraniy Rog","lon":29.2,"lat":52.83333,"pop":0},{"id":620355,"name":"Baranki","alt":["Bol'shiye Baranki","Bol’shiye Baranki","Vel'ke-Baranki","Velikiye Baranki","Vel’ke-Baranki","Баранки"],"lon":23.755,"lat":52.3538,"pop":0},{"id":630425,"name":"Baranovichi","alt":["Baranoviche","Baranowicze","Барановичи"],"lon":26.9223,"lat":55.0919,"pop":0},{"id":630428,"name":"Baranovichi","alt":["Baranavichy","Барановичи"],"lon":28.9782,"lat":53.1645,"pop":0},{"id":630429,"name":"Baranovichi","alt":["Baranavichy","Baranavitsjy","Baranawitschy","Baranoviche","Baranovichi - Baranavichy","Baranovichi - Баранавiчы","Baranoviciai","Baranovitchi","Baranovitsi","Baranovitši","Baranovičiai","Baranowicze","Баранавічы","Барановичи"],"lon":26.0139,"lat":53.1327,"pop":179000},{"id":7930953,"name":"Baranovichi","alt":["Baranavichy","Баранавічы","Барановичи"],"lon":25.9857,"lat":53.512,"pop":0},{"id":8251972,"name":"Baranovichi","alt":["Барановичи"],"lon":25.795,"lat":54.2098,"pop":0},{"id":8148832,"name":"Baranovichi Tret’i","alt":["Baranovichi Tret'i","Барановичи Третьи"],"lon":29.013,"lat":53.1648,"pop":0},{"id":630426,"name":"Baranovka","alt":["Baranova","Барановка"],"lon":30.0929,"lat":55.3242,"pop":0},{"id":7931702,"name":"Baranovka","alt":["Барановка"],"lon":28.7309,"lat":53.7276,"pop":0},{"id":8194660,"name":"Baranovka","alt":["Барановка"],"lon":30.202,"lat":52.795,"pop":0},{"id":8195737,"name":"Baranovka","alt":["Барановка"],"lon":30.1039,"lat":52.4903,"pop":0},{"id":8248212,"name":"Baranovka","alt":["Барановка"],"lon":28.6312,"lat":54.108,"pop":0},{"id":8146856,"name":"Baranovo","alt":["Бараново"],"lon":28.3654,"lat":52.811,"pop":0},{"id":8213604,"name":"Baranovo","alt":["Бараново"],"lon":28.8398,"lat":55.5211,"pop":0},{"id":630418,"name":"Baranovshchina","alt":["Baranovshchizna","Baranovshhina","Барановщина"],"lon":27.25559,"lat":55.70205,"pop":0},{"id":630417,"name":"Baranovskiye","lon":29.5,"lat":55.21667,"pop":0},{"id":627329,"name":"Barantsy","alt":["Barancy","Khutor Barantsy","Баранцы"],"lon":28.8939,"lat":51.594,"pop":0},{"id":629642,"name":"Barantsy","alt":["Barance","Barancy","Barańce","Brantsy","Баранцы"],"lon":26.823,"lat":54.4688,"pop":0},{"id":630415,"name":"Barantsy","alt":["Barance","Barancy","Barańce","Баранцы"],"lon":26.0812,"lat":54.5008,"pop":0},{"id":630416,"name":"Barantsy","alt":["Barancy","Barantsy Pervyye","Баранцы"],"lon":28.8834,"lat":53.4318,"pop":0},{"id":8174480,"name":"Barantsy","alt":["Barancy","Баранцы"],"lon":24.2544,"lat":52.1137,"pop":0},{"id":630414,"name":"Barantsy Vtoryye","lon":28.9,"lat":53.41667,"pop":0},{"id":630412,"name":"Barany","alt":["Бараны"],"lon":27.7961,"lat":55.0913,"pop":0},{"id":8144998,"name":"Barany","alt":["Бараны"],"lon":25.3298,"lat":52.6923,"pop":0},{"id":8174465,"name":"Barany","alt":["Бараны"],"lon":24.176,"lat":52.1163,"pop":0},{"id":8221488,"name":"Barany","alt":["Бараны"],"lon":27.6099,"lat":55.2636,"pop":0},{"id":630411,"name":"Barashenki","lon":30.55,"lat":55.73333,"pop":0},{"id":8330687,"name":"Barashi","alt":["Barishi","Бараши"],"lon":29.9583,"lat":54.4185,"pop":0},{"id":8207999,"name":"Barashki","alt":["Барашки"],"lon":27.9721,"lat":55.6591,"pop":0},{"id":8047134,"name":"Barat’kovshchina","alt":["Barat'kovshchina","Barat'kovshhina","Баратьковщина"],"lon":26.5156,"lat":53.3057,"pop":0},{"id":630410,"name":"Baratino","alt":["Baratsin","Баратино"],"lon":26.3514,"lat":53.3508,"pop":0},{"id":8147022,"name":"Baratino","alt":["Баратино"],"lon":28.5151,"lat":52.8855,"pop":0},{"id":629752,"name":"Baravaya","alt":["Baravaja","Borovaya","Баравая"],"lon":27.6408,"lat":53.9666,"pop":0},{"id":629744,"name":"Baraviki","alt":["Boroviki","Borowiki","Баравікі","Боровики"],"lon":29.8521,"lat":52.5486,"pop":0},{"id":629745,"name":"Baraviki","alt":["Boroviki","Borowiki","Баравікі"],"lon":26.9425,"lat":52.515,"pop":0},{"id":629736,"name":"Baravitsa","alt":["Baravica","Borovica","Borovitsa","Баравіца","Боровица"],"lon":29.5683,"lat":53.3344,"pop":0},{"id":629724,"name":"Baravoye","alt":["Baravoe","Borovaya","Borovoe","Borovoye","Баравое","Боровое"],"lon":27.0095,"lat":53.6724,"pop":0},{"id":629725,"name":"Baravoye","alt":["Baravoe","Borovoye","Баравое"],"lon":28.0561,"lat":51.7108,"pop":0},{"id":629716,"name":"Baravukha","alt":["Borovukha","Borovukha 1-ja","Borovukha 1-ya","Borovukha Pervaya","Баравуха","Боровуха 1-я"],"lon":28.5942,"lat":55.5901,"pop":0},{"id":629720,"name":"Barawtsy","alt":["Baraucy","Barovcy","Barowce","Borovtsy","Бараўцы","Баровцы"],"lon":26.7849,"lat":54.5228,"pop":0},{"id":629814,"name":"Barba","alt":["Bor'ba","Bor’ba","Romanovo","Барба","Борьба"],"lon":31.3835,"lat":52.5973,"pop":0},{"id":8075384,"name":"Barbarichi","alt":["Барбаричи"],"lon":23.8963,"lat":53.793,"pop":0},{"id":12484861,"name":"Barbarishki","alt":["Барбаришки"],"lon":27.36689,"lat":55.73297,"pop":0},{"id":630408,"name":"Barbarovo","alt":["Barbarov","Podel'ye","Podel’ye","Барбарово"],"lon":28.6707,"lat":52.7796,"pop":0},{"id":8020110,"name":"Barbarovo","alt":["Барбарово"],"lon":27.7383,"lat":53.4861,"pop":0},{"id":8148783,"name":"Barbarovo","alt":["Барбарово"],"lon":29.01,"lat":53.2725,"pop":0},{"id":630409,"name":"Barbarow","alt":["Barbarou","Barbarov","Барбароў"],"lon":29.4774,"lat":51.9037,"pop":0},{"id":8195896,"name":"Barbary","alt":["Барбары"],"lon":30.5721,"lat":52.0963,"pop":0},{"id":8146831,"name":"Barberovka","alt":["Барберовка"],"lon":28.4256,"lat":52.9353,"pop":0},{"id":630407,"name":"Barchitsy","alt":["Barchicy","Barchitsa","Барчицы"],"lon":29.6682,"lat":53.259,"pop":0},{"id":8232847,"name":"Bardashi","alt":["Бардаши"],"lon":29.797,"lat":55.0981,"pop":0},{"id":630406,"name":"Bardich","alt":["Bardichi","Krasnopol'e","Krasnopol'ye","Бардич","Краснополье"],"lon":31.39191,"lat":53.35939,"pop":0},{"id":630404,"name":"Bardily","alt":["Bardzily","Бардилы"],"lon":30.8533,"lat":53.9436,"pop":0},{"id":815842,"name":"Bardino","alt":["Bardiny","Бардино"],"lon":30.9681,"lat":52.4875,"pop":0},{"id":8019901,"name":"Bardzilawka","alt":["Bardilovka","Bardzilauka","Бардзілаўка"],"lon":27.6807,"lat":53.7073,"pop":0},{"id":629804,"name":"Bariskovichi","alt":["Boriskovichi","Барисковичи"],"lon":30.1678,"lat":54.1427,"pop":0},{"id":630402,"name":"Barkalabava","alt":["Barkalabovo","Borkolabovo","Баркалабава","Борколабово"],"lon":30.2769,"lat":53.6168,"pop":0},{"id":8281035,"name":"Barki Pyershyya","alt":["Barki Pershyja","Barki Pervyye","Borki","Баркі Першыя"],"lon":30.1328,"lat":54.3523,"pop":0},{"id":8281036,"name":"Barki Vtoryye","alt":["Barki Vtorye","Borki Pervyye","Барки Вторые"],"lon":30.1148,"lat":54.3402,"pop":0},{"id":8539428,"name":"Barkovshchina","alt":["Barkovshhina","Барковщина"],"lon":27.4807,"lat":54.8196,"pop":0},{"id":8174275,"name":"Barmuty","alt":["Бармуты"],"lon":24.8104,"lat":52.4619,"pop":0},{"id":12484890,"name":"Barnatovshchina","alt":["Barnatovshhina","Барнатовщина"],"lon":27.30505,"lat":55.72971,"pop":0},{"id":8146370,"name":"Barok","alt":["Borok","Барок"],"lon":27.359,"lat":53.08,"pop":0},{"id":8146964,"name":"Barok","alt":["Borok","Барок"],"lon":28.9263,"lat":53.0917,"pop":0},{"id":630399,"name":"Barovo","alt":["Barava","Barov","Барава","Барово"],"lon":25.95365,"lat":53.83083,"pop":0},{"id":629731,"name":"Barowka","alt":["Barouka","Borovka","Бароўка","Боровка"],"lon":27.944,"lat":55.8115,"pop":0},{"id":8222240,"name":"Barowka","alt":["Barouka","Borovka","Borovka Pervaya","Бароўка","Боровка"],"lon":28.8028,"lat":54.962,"pop":0},{"id":629714,"name":"Barseyevo","alt":["Barseevo","Borseya","Барсеево"],"lon":30.7067,"lat":54.8645,"pop":0},{"id":629705,"name":"Barshchevo","alt":["Borshchevo","Borshchëvo","Borshhjovo","Борщёво"],"lon":23.5161,"lat":52.355,"pop":0},{"id":629708,"name":"Barshchowka","alt":["Barshchouka","Borshchevka","Borshchovka","Borshchëvka","Borshhevka","Баршчоўка","Борщевка"],"lon":30.6489,"lat":52.3439,"pop":0},{"id":11955847,"name":"Barsuch’i Nory","alt":["Barsuch'i Nory","Барсучьи Норы"],"lon":25.89131,"lat":53.99503,"pop":0},{"id":8072113,"name":"Barsuch’ye","alt":["Barsuch'e","Barsuch'ye","Барсучье"],"lon":26.2661,"lat":53.8624,"pop":0},{"id":630397,"name":"Barsuchina","lon":29.7,"lat":55.18333,"pop":0},{"id":8207773,"name":"Barsuchina","alt":["Барсучина"],"lon":27.5962,"lat":55.5681,"pop":0},{"id":8279777,"name":"Barsuchina","alt":["Barsuchino","Барсучина"],"lon":29.0494,"lat":53.6194,"pop":0},{"id":8213141,"name":"Barsuchino","alt":["Barsuchina","Барсучино"],"lon":28.0283,"lat":55.572,"pop":0},{"id":630396,"name":"Barsuchiny","alt":["Bol'shie Barsuchiny","Bol'shiye Barsuchiny","Bol’shiye Barsuchiny","Большие Барсучины"],"lon":29.4462,"lat":54.4653,"pop":0},{"id":8217687,"name":"Barsuk","alt":["Барсук"],"lon":26.8872,"lat":55.3256,"pop":0},{"id":629702,"name":"Barsuki","alt":["Borsuki","Барсуки","Барсукі"],"lon":27.7035,"lat":54.9246,"pop":0},{"id":630384,"name":"Barsuki","lon":28.28333,"lat":55.75,"pop":0},{"id":630385,"name":"Barsuki","alt":["Borsuki","Барсуки"],"lon":27.8536,"lat":55.7433,"pop":0},{"id":630386,"name":"Barsuki","alt":["Барсуки"],"lon":27.9671,"lat":55.7287,"pop":0},{"id":630387,"name":"Barsuki","alt":["Барсуки"],"lon":28.1824,"lat":55.5989,"pop":0},{"id":630388,"name":"Barsuki","alt":["Барсуки"],"lon":29.1048,"lat":54.5927,"pop":0},{"id":630389,"name":"Barsuki","alt":["Барсуки"],"lon":30.8508,"lat":54.5436,"pop":0},{"id":630390,"name":"Barsuki","lon":27.6,"lat":54.43333,"pop":0},{"id":630391,"name":"Barsuki","alt":["Барсуки"],"lon":30.3135,"lat":54.0545,"pop":0},{"id":630392,"name":"Barsuki","alt":["Барсуки"],"lon":28.7165,"lat":53.8028,"pop":0},{"id":630393,"name":"Barsuki","alt":["Барсуки"],"lon":29.9806,"lat":53.4178,"pop":0},{"id":630394,"name":"Barsuki","alt":["Барсукі"],"lon":30.7086,"lat":53.1365,"pop":0},{"id":630395,"name":"Barsuki","alt":["Барсуки"],"lon":29.6817,"lat":53.0865,"pop":0},{"id":812584,"name":"Barsuki","alt":["Барсуки"],"lon":31.32426,"lat":53.08734,"pop":0},{"id":813281,"name":"Barsuki","lon":30.83639,"lat":53.26472,"pop":0},{"id":813290,"name":"Barsuki","alt":["Барсуки"],"lon":30.4174,"lat":54.5991,"pop":0},{"id":815262,"name":"Barsuki","alt":["Барсуки"],"lon":30.1268,"lat":53.8201,"pop":0},{"id":7931596,"name":"Barsuki","alt":["Барсуки"],"lon":28.4144,"lat":53.8758,"pop":0},{"id":8019674,"name":"Barsuki","alt":["Барсуки"],"lon":27.1396,"lat":53.9167,"pop":0},{"id":8146958,"name":"Barsuki","alt":["Барсуки"],"lon":28.9359,"lat":53.1171,"pop":0},{"id":8148770,"name":"Barsuki","alt":["Барсуки"],"lon":29.7253,"lat":53.2403,"pop":0},{"id":8148818,"name":"Barsuki","alt":["Барсуки"],"lon":29.5594,"lat":53.1966,"pop":0},{"id":8207881,"name":"Barsuki","alt":["Барсуки"],"lon":27.726,"lat":55.343,"pop":0},{"id":8213178,"name":"Barsuki","alt":["Барсуки"],"lon":28.0781,"lat":55.7951,"pop":0},{"id":8213242,"name":"Barsuki","alt":["Барсуки"],"lon":28.1541,"lat":55.7387,"pop":0},{"id":8222706,"name":"Barsuki","alt":["Барсуки"],"lon":28.4767,"lat":54.7728,"pop":0},{"id":8232945,"name":"Barsuki","alt":["Барсуки"],"lon":29.47982,"lat":54.67697,"pop":0},{"id":8246912,"name":"Barsuki","alt":["Барсуки"],"lon":27.2454,"lat":54.4478,"pop":0},{"id":8247056,"name":"Barsuki","alt":["Барсуки"],"lon":27.7544,"lat":54.4063,"pop":0},{"id":8247229,"name":"Barsuki","alt":["Барсуки"],"lon":27.3529,"lat":54.2989,"pop":0},{"id":8247985,"name":"Barsuki","alt":["Барсуки"],"lon":28.816,"lat":54.4947,"pop":0},{"id":8248220,"name":"Barsuki","alt":["Барсуки"],"lon":28.2691,"lat":54.0828,"pop":0},{"id":8279729,"name":"Barsuki","alt":["Barsuk","Барсуки"],"lon":29.268,"lat":53.9866,"pop":0},{"id":8279806,"name":"Barsuki","alt":["Барсуки"],"lon":29.8339,"lat":53.9189,"pop":0},{"id":8279828,"name":"Barsuki","alt":["Барсуки"],"lon":29.5422,"lat":53.8626,"pop":0},{"id":8279962,"name":"Barsuki","alt":["Барсуки"],"lon":29.8132,"lat":53.5761,"pop":0},{"id":8280104,"name":"Barsuki","alt":["Барсуки"],"lon":30.7635,"lat":55.24,"pop":0},{"id":8280986,"name":"Barsuki","alt":["Барсуки"],"lon":30.2927,"lat":54.4048,"pop":0},{"id":8281081,"name":"Barsuki","alt":["Барсуки"],"lon":30.6892,"lat":54.3,"pop":0},{"id":8331776,"name":"Barsuki","alt":["Барсуки"],"lon":31.9104,"lat":53.7069,"pop":0},{"id":8216260,"name":"Barsukiye Vtoryye","alt":["Barsukie Vtorye","Барсукие Вторые"],"lon":29.3558,"lat":55.3367,"pop":0},{"id":6999599,"name":"Barsukova","alt":["Barsukovo","Барсукова"],"lon":27.1369,"lat":52.3442,"pop":0},{"id":630382,"name":"Barsukova-Gryada","lon":28.28333,"lat":53.46667,"pop":0},{"id":630381,"name":"Barsukovka","alt":["Барсуковка"],"lon":30.966,"lat":53.3662,"pop":0},{"id":630378,"name":"Bartashi","alt":["Bartashy","Bartoshi","Барташи","Барташы"],"lon":24.62746,"lat":53.5876,"pop":0},{"id":7930995,"name":"Bartashi","alt":["Bartashy","Барташи","Барташы"],"lon":25.607,"lat":53.4279,"pop":0},{"id":8282745,"name":"Bartenikha","alt":["Бартениха"],"lon":26.2836,"lat":54.0653,"pop":0},{"id":8235629,"name":"Barteshishki","alt":["Bartashishki","Бартешишки"],"lon":24.9653,"lat":54.063,"pop":0},{"id":630380,"name":"Bartniki","alt":["Бартники"],"lon":26.1794,"lat":53.3043,"pop":0},{"id":630379,"name":"Bartolomeyevka","alt":["Bartalamyeyewka","Bartolomeevka","Бартоломеевка"],"lon":31.3317,"lat":52.6481,"pop":0},{"id":8282719,"name":"Bartoshi","alt":["Bartashi","Бартоши"],"lon":26.4057,"lat":54.1996,"pop":0},{"id":630377,"name":"Bartyluvka","alt":["Bartylowka","Bartyłówka"],"lon":27.83333,"lat":55.26667,"pop":0},{"id":629696,"name":"Baruny","alt":["Boruny","Баруны"],"lon":26.9637,"lat":55.7402,"pop":0},{"id":629697,"name":"Baruny","alt":["Boruny","Баруны","Боруны"],"lon":26.1376,"lat":54.3171,"pop":2500},{"id":7930749,"name":"Barvichi","alt":["Barovichi","Барвичи","Баровичи"],"lon":25.3541,"lat":53.7199,"pop":0},{"id":8280069,"name":"Barvin","alt":["Барвин"],"lon":30.222,"lat":55.267,"pop":0},{"id":629803,"name":"Barysavichy","alt":["Borisovichi","Барысавічы","Борисовичи"],"lon":31.6794,"lat":53.6005,"pop":0},{"id":630376,"name":"Barysaw","alt":["Barysau","Borisov","Borissow","Horad Barysaw","Барысаў","Борисов"],"lon":28.505,"lat":54.2279,"pop":144945},{"id":629801,"name":"Barysawshchyna","alt":["Barysaushchyna","Borisovshchina","Барысаўшчына"],"lon":29.7904,"lat":51.8714,"pop":0},{"id":630403,"name":"Baryshevka","alt":["Barishevka","Барышевка"],"lon":31.0867,"lat":53.8754,"pop":0},{"id":8280199,"name":"Baryshino","alt":["Барышино"],"lon":30.3091,"lat":55.0996,"pop":0},{"id":7930972,"name":"Baryshyna","alt":["Barishino","Borishino","Баришино","Барышына","Боришино"],"lon":25.7404,"lat":53.473,"pop":0},{"id":11915459,"name":"Baryski","alt":["Boriski","Барыскі","Бориски"],"lon":24.03796,"lat":53.40935,"pop":0},{"id":630375,"name":"Barzdowka","alt":["Barzdouka","Barzdovka","Borzdovka","Барздоўка"],"lon":30.6557,"lat":54.4122,"pop":0},{"id":7931418,"name":"Bas’ki","alt":["Bas'ki","Баськи"],"lon":28.162,"lat":53.6114,"pop":0},{"id":8282000,"name":"Bashary","alt":["Башары"],"lon":31.27713,"lat":54.0118,"pop":0},{"id":629691,"name":"Bashitsa","alt":["Bashica","Boshitsa","Башица"],"lon":30.5738,"lat":52.9753,"pop":0},{"id":812536,"name":"Bashkirovka","alt":["Башкировка"],"lon":30.4439,"lat":54.1781,"pop":0},{"id":8232784,"name":"Bashni","alt":["Башни"],"lon":29.6712,"lat":55.2218,"pop":0},{"id":627600,"name":"Bashtan","alt":["Karolin Bashtan","Баштан"],"lon":31.1056,"lat":52.2065,"pop":0},{"id":630373,"name":"Basin","alt":["Basino","Басино"],"lon":25.90988,"lat":53.67554,"pop":0},{"id":630374,"name":"Basin","lon":29.08333,"lat":53.48333,"pop":0},{"id":8213145,"name":"Baslaki","alt":["Баслаки"],"lon":28.076,"lat":55.5406,"pop":0},{"id":630372,"name":"Baslavtsy","lon":27.35,"lat":53.08333,"pop":0},{"id":8019978,"name":"Basmanovka","alt":["Басмановка"],"lon":27.4558,"lat":53.6544,"pop":0},{"id":630371,"name":"Bastenovichi","alt":["Bastinovichi","Бастеновичи"],"lon":31.38797,"lat":54.03148,"pop":0},{"id":8252064,"name":"Bastuny","alt":["Бастуны"],"lon":25.2875,"lat":54.0775,"pop":0},{"id":630369,"name":"Bastychi","alt":["Bastyche","Бастычи"],"lon":25.9815,"lat":52.2165,"pop":0},{"id":629688,"name":"Bastyn’","alt":["Bastyn'","Bostyn'","Bostyng","Bostyn’","Бастынь","Бостынь"],"lon":26.7565,"lat":52.3916,"pop":0},{"id":8281079,"name":"Basya","alt":["Basja","Бася"],"lon":30.6428,"lat":54.2844,"pop":0},{"id":8213158,"name":"Basyanki Tretsiya","alt":["Basjanki Trehcija","Bosyanki Tret'i","Bosyanki Tret’i","Басянкі Трэція"],"lon":28.0965,"lat":55.4257,"pop":0},{"id":8174314,"name":"Batareya","alt":["Batareja","Батарея"],"lon":24.9719,"lat":52.3609,"pop":0},{"id":629684,"name":"Batayevo","alt":["Bataevo","Botayevo","Батаево"],"lon":32.37246,"lat":53.25463,"pop":0},{"id":630367,"name":"Batchy","alt":["Batche","Batchi","Батчи","Батчы"],"lon":24.2306,"lat":52.2438,"pop":0},{"id":6998265,"name":"Batchy","alt":["Batchi","Батчы"],"lon":24.21668,"lat":52.23841,"pop":0},{"id":630366,"name":"Batengovo","lon":30.36667,"lat":55.73333,"pop":0},{"id":8221759,"name":"Batilovshchina","alt":["Batilovshhina","Батиловщина"],"lon":27.7444,"lat":55.0789,"pop":0},{"id":814532,"name":"Batrak","lon":30.25111,"lat":53.62778,"pop":0},{"id":630363,"name":"Batsevichy","alt":["Bacehvichy","Bacevichi","Batsevichi","Бацевичи","Бацэвічы"],"lon":29.2294,"lat":53.3961,"pop":0},{"id":630362,"name":"Batsun’","alt":["Bacun'","Batsun'","Бацунь"],"lon":30.5752,"lat":52.5831,"pop":0},{"id":8232439,"name":"Batukalovo","alt":["Батукалово"],"lon":29.0455,"lat":55.074,"pop":0},{"id":8251974,"name":"Batuki","alt":["Батуки"],"lon":25.8209,"lat":54.2058,"pop":0},{"id":630361,"name":"Batun’","alt":["Batun'","Батунь"],"lon":30.0569,"lat":53.7682,"pop":0},{"id":8246990,"name":"Baturino","alt":["Батурино"],"lon":27.4623,"lat":54.3347,"pop":0},{"id":8019828,"name":"Baturovo","alt":["Батурово"],"lon":27.1712,"lat":53.777,"pop":0},{"id":8281936,"name":"Baturovshchina","alt":["Baturovshhina","Батуровщина"],"lon":31.1141,"lat":54.6233,"pop":0},{"id":8330485,"name":"Batury","alt":["Батуры"],"lon":29.0092,"lat":54.4526,"pop":0},{"id":8222482,"name":"Batyarshchina","alt":["Batjarshhina","Батярщина"],"lon":28.9419,"lat":55.2606,"pop":0},{"id":8247218,"name":"Batyuzhino","alt":["Batjuzhino","Батюжино"],"lon":27.3677,"lat":54.2655,"pop":0},{"id":8282694,"name":"Bauki","alt":["Бауки"],"lon":26.2966,"lat":54.2943,"pop":0},{"id":629679,"name":"Bawsyevichy","alt":["Bausevichy","Bovsevichi","Баўсевічы","Бовсевичи"],"lon":29.591,"lat":54.0864,"pop":0},{"id":630360,"name":"Bayanichy","alt":["Bajanichy","Bayanichi","Boyanichi","Баянічы"],"lon":28.2836,"lat":52.7149,"pop":0},{"id":630358,"name":"Bayanovo","alt":["Bajanovo","Баяново"],"lon":28.7347,"lat":52.788,"pop":0},{"id":629674,"name":"Bayarsk","alt":["Bajarsk","Bojarska","Boyarsk","Boyarska","Баярск"],"lon":26.3193,"lat":54.2383,"pop":0},{"id":629666,"name":"Bayary","alt":["Bajary","Boyary","Баяры"],"lon":25.3004,"lat":54.1678,"pop":0},{"id":813559,"name":"Bayary","alt":["Bajary","Boyary","Баяры"],"lon":30.6904,"lat":54.4545,"pop":0},{"id":8075298,"name":"Bayary","alt":["Bajary","Баяры"],"lon":23.9049,"lat":53.4768,"pop":0},{"id":8077340,"name":"Bayary","alt":["Bajary","Bojary","Boyary","Баяры","Бояры"],"lon":24.93251,"lat":53.38144,"pop":0},{"id":8247172,"name":"Bayary","alt":["Bajary","Boyary","Баяры"],"lon":27.6932,"lat":54.1362,"pop":0},{"id":8282357,"name":"Bayby","alt":["Bajby","Байбы"],"lon":26.4368,"lat":54.4073,"pop":0},{"id":630356,"name":"Baydaki","alt":["Bajdaki","Байдаки"],"lon":27.2436,"lat":53.9158,"pop":0},{"id":630357,"name":"Baydaki","lon":30.18333,"lat":51.9,"pop":0},{"id":8216112,"name":"Baydino","alt":["Bajdino","Байдино"],"lon":29.0846,"lat":55.845,"pop":0},{"id":8216173,"name":"Baydino","alt":["Bajdino","Байдино"],"lon":29.2397,"lat":55.8232,"pop":0},{"id":630355,"name":"Bayevka","alt":["Baeuka Pershaja","Baevka","Bayewka Pyershaya","Баевка","Баеўка Першая"],"lon":31.46834,"lat":53.80981,"pop":0},{"id":630354,"name":"Bayevo","alt":["Baeva","Baevo","Bayeva","Баева","Баево"],"lon":31.10822,"lat":54.48742,"pop":0},{"id":630436,"name":"Baykany","alt":["Bajkany","Balkany","Байканы"],"lon":25.8429,"lat":54.5682,"pop":0},{"id":630353,"name":"Bayki","alt":["Bajki","Байкі"],"lon":24.85132,"lat":52.83023,"pop":0},{"id":7930826,"name":"Bayki","alt":["Bajki","Байки","Байкі"],"lon":25.7581,"lat":53.6174,"pop":0},