[{"id":207356,"name":"A.V.P. Ndolo","alt":["Ndolo"],"lon":23.13781,"lat":-3.68632,"pop":0},{"id":220548,"name":"Aamba","lon":20.71667,"lat":0.76667,"pop":0},{"id":220547,"name":"Aba","alt":["Аба"],"lon":30.22465,"lat":3.86427,"pop":0},{"id":220546,"name":"Ababi","lon":23.13404,"lat":2.91479,"pop":0},{"id":8145591,"name":"Ababite","lon":27.67581,"lat":2.05828,"pop":0},{"id":12524619,"name":"Abaga","lon":27.04252,"lat":-4.94131,"pop":0},{"id":220545,"name":"Abaka","lon":25.98358,"lat":2.94769,"pop":0},{"id":220544,"name":"Abakodu","lon":28.51667,"lat":2.5,"pop":0},{"id":220542,"name":"Abakuba","lon":28.26667,"lat":2.6,"pop":0},{"id":8435109,"name":"Abakutsha","lon":28.13611,"lat":-0.36504,"pop":0},{"id":220543,"name":"Abakwasimbo","alt":["Abakuasimbo","Abokwasimbe"],"lon":28.73145,"lat":0.58419,"pop":0},{"id":8433556,"name":"Abambinga","lon":27.6271,"lat":-1.22459,"pop":0},{"id":220541,"name":"Abango","alt":["Abanengo"],"lon":27.76112,"lat":2.69033,"pop":0},{"id":8069570,"name":"Abango","lon":27.34977,"lat":3.52633,"pop":0},{"id":220539,"name":"Abanusi","lon":28.08281,"lat":3.44868,"pop":0},{"id":220538,"name":"Abasani","lon":27.15,"lat":-1.13333,"pop":0},{"id":220537,"name":"Abati","lon":27.81923,"lat":2.64591,"pop":0},{"id":8433506,"name":"Abatokolo","lon":27.30668,"lat":-1.07221,"pop":0},{"id":220535,"name":"Abaye","lon":28.93333,"lat":-1.3,"pop":0},{"id":220534,"name":"Abebekombo","lon":28.00448,"lat":2.1471,"pop":0},{"id":220533,"name":"Abelkoso","lon":30.06667,"lat":1.88333,"pop":0},{"id":8145622,"name":"Abetemana","lon":27.9628,"lat":2.05281,"pop":0},{"id":220532,"name":"Abia","lon":29.66667,"lat":0.86667,"pop":0},{"id":220531,"name":"Abiana","lon":27.83333,"lat":-0.06667,"pop":0},{"id":220528,"name":"Abiangama","alt":["Abiengama"],"lon":27.76951,"lat":2.5778,"pop":0},{"id":220530,"name":"Abianonzi","lon":26.31729,"lat":2.67104,"pop":0},{"id":220529,"name":"Abiengama","lon":27.4951,"lat":1.81413,"pop":0},{"id":220527,"name":"Abiengama Deuxième","alt":["Abiengama Deuxieme","Abiengama II"],"lon":27.44415,"lat":1.87667,"pop":0},{"id":220526,"name":"Abiengbali","lon":27.90796,"lat":2.4186,"pop":0},{"id":8144070,"name":"Abika","lon":30.53809,"lat":3.07627,"pop":0},{"id":220525,"name":"Abimba","lon":27.17971,"lat":-4.36377,"pop":0},{"id":220524,"name":"Abini","lon":27.55663,"lat":2.28763,"pop":0},{"id":220523,"name":"Abira","lon":31.11667,"lat":2.08333,"pop":0},{"id":8145522,"name":"Abjengame","lon":27.32616,"lat":2.37684,"pop":0},{"id":220522,"name":"Abo","lon":30.21484,"lat":3.20783,"pop":0},{"id":220519,"name":"Abogandra","lon":26.81835,"lat":2.60947,"pop":0},{"id":8239303,"name":"Abogo","lon":23.31422,"lat":4.06712,"pop":0},{"id":220518,"name":"Abogo-Dodu","lon":30.3679,"lat":3.81555,"pop":0},{"id":220517,"name":"Abogwomadu","alt":["Abogwomado"],"lon":26.3047,"lat":2.49771,"pop":0},{"id":8221042,"name":"Abolaga","lon":26.79619,"lat":4.84176,"pop":0},{"id":8145515,"name":"Abomune","lon":27.29361,"lat":2.58386,"pop":0},{"id":443200,"name":"Abongisia","lon":25.59472,"lat":0.20444,"pop":0},{"id":8145604,"name":"Abongomabu","lon":27.79963,"lat":2.32326,"pop":0},{"id":220514,"name":"Aborokpuyo","lon":28.85079,"lat":4.3423,"pop":0},{"id":8239297,"name":"Aboroni","lon":23.14167,"lat":4.1251,"pop":0},{"id":8145537,"name":"Abuamba","lon":27.59403,"lat":2.69104,"pop":0},{"id":8062304,"name":"Abugosodio","lon":26.84905,"lat":2.58442,"pop":0},{"id":220512,"name":"Abuki","lon":26.6,"lat":-2.55,"pop":0},{"id":220511,"name":"Abula","lon":25.96195,"lat":3.51279,"pop":0},{"id":8145544,"name":"Abume","lon":27.71081,"lat":2.80412,"pop":0},{"id":220510,"name":"Abumombazi","alt":["Abu Mombasi","Abumonbazi"],"lon":22.15397,"lat":3.68821,"pop":0},{"id":8072847,"name":"Abunakombo","lon":19.25427,"lat":0.95755,"pop":0},{"id":8145525,"name":"Abungonde","lon":27.35868,"lat":2.34009,"pop":0},{"id":220507,"name":"Abusa","lon":27.45984,"lat":3.66805,"pop":0},{"id":220508,"name":"Abusa","lon":27.67177,"lat":2.06771,"pop":0},{"id":8145592,"name":"Abusa","lon":27.75406,"lat":2.02657,"pop":0},{"id":8145621,"name":"Abusa","lon":27.9064,"lat":2.00391,"pop":0},{"id":220506,"name":"Abuti","lon":30.11667,"lat":2.26667,"pop":0},{"id":220505,"name":"Adaboro","lon":30.6262,"lat":3.15882,"pop":0},{"id":8024257,"name":"Adala-Botala","alt":["Adala"],"lon":30.09115,"lat":4.00661,"pop":0},{"id":8144337,"name":"Adala-Ole","lon":30.05699,"lat":3.95342,"pop":0},{"id":220504,"name":"Adama","lon":24.58767,"lat":4.78773,"pop":0},{"id":8144017,"name":"Adamu","lon":30.2794,"lat":3.72949,"pop":0},{"id":220503,"name":"Adau","lon":30.35856,"lat":3.70046,"pop":0},{"id":8022383,"name":"Adaza","lon":29.56702,"lat":3.22842,"pop":0},{"id":220502,"name":"Adeko","lon":30.72485,"lat":2.87817,"pop":0},{"id":220501,"name":"Adetere","lon":30.52607,"lat":2.73504,"pop":0},{"id":220500,"name":"Adi","lon":30.78379,"lat":3.41143,"pop":0},{"id":220499,"name":"Adia","lon":30.71667,"lat":2.83333,"pop":0},{"id":220498,"name":"Adidiema","lon":23.68948,"lat":-4.20718,"pop":0},{"id":8143657,"name":"Adipenza","lon":25.56152,"lat":3.22494,"pop":0},{"id":8143628,"name":"Adiwaya","lon":25.63682,"lat":3.38328,"pop":0},{"id":220497,"name":"Adjauru","lon":26.17886,"lat":2.61541,"pop":0},{"id":220496,"name":"Adjayo","lon":26.1459,"lat":2.98443,"pop":0},{"id":220495,"name":"Adjoda","alt":["Adjoba"],"lon":30.94844,"lat":2.26059,"pop":0},{"id":220494,"name":"Ado","lon":25.95,"lat":-1.11667,"pop":0},{"id":8145433,"name":"Adoba","lon":27.62977,"lat":2.72484,"pop":0},{"id":220493,"name":"Adomi","lon":30.51745,"lat":3.18309,"pop":0},{"id":220492,"name":"Adoria","lon":30.56667,"lat":2.96667,"pop":0},{"id":8143163,"name":"Adra","lon":30.50368,"lat":2.80221,"pop":0},{"id":220490,"name":"Adranga","lon":29.94941,"lat":2.91761,"pop":0},{"id":220491,"name":"Adranga","lon":30.42064,"lat":2.90029,"pop":0},{"id":8144022,"name":"Adranga","lon":30.31051,"lat":3.64386,"pop":0},{"id":8143282,"name":"Adu","lon":30.65586,"lat":2.21717,"pop":0},{"id":8280560,"name":"Adumba","lon":30.07337,"lat":1.38254,"pop":0},{"id":8156818,"name":"Adumbi","lon":27.84599,"lat":1.73172,"pop":0},{"id":220489,"name":"Adunandra","lon":27.57316,"lat":3.49761,"pop":0},{"id":220488,"name":"Adupai","alt":["Adupa","Adupay"],"lon":23.55019,"lat":2.94322,"pop":0},{"id":220487,"name":"Adusa","lon":27.98765,"lat":1.40238,"pop":0},{"id":8145607,"name":"Adzabotoa","lon":27.75286,"lat":2.41707,"pop":0},{"id":220486,"name":"Adzapana","lon":28.92516,"lat":1.90776,"pop":0},{"id":220484,"name":"Adziba","alt":["Aziba"],"lon":27.68975,"lat":2.13765,"pop":0},{"id":220485,"name":"Adziba","lon":27.76454,"lat":2.0232,"pop":0},{"id":220483,"name":"Adzuani","lon":30.79554,"lat":3.1458,"pop":0},{"id":220482,"name":"Adzuma","alt":["Adzuna"],"lon":28.28333,"lat":2.51667,"pop":0},{"id":220481,"name":"Afakituru","lon":24.08333,"lat":-0.16667,"pop":0},{"id":220179,"name":"Afatula","alt":["Atatula"],"lon":28.20598,"lat":2.23089,"pop":0},{"id":8069554,"name":"Afele","lon":27.25442,"lat":3.10682,"pop":0},{"id":12518866,"name":"Afilika","lon":28.11721,"lat":2.43031,"pop":0},{"id":8145629,"name":"Agamba","lon":27.93518,"lat":2.31175,"pop":0},{"id":220477,"name":"Agameto","lon":25.08031,"lat":3.27173,"pop":0},{"id":8144067,"name":"Agarakayo","lon":30.52277,"lat":3.23628,"pop":0},{"id":8022351,"name":"Agari","lon":29.77205,"lat":3.01078,"pop":0},{"id":8145462,"name":"Agawa","lon":27.67216,"lat":2.106,"pop":0},{"id":8147178,"name":"Agba","lon":23.14633,"lat":2.92098,"pop":0},{"id":8145531,"name":"Agbajo","lon":27.47133,"lat":2.57904,"pop":0},{"id":220476,"name":"Agbana","lon":27.92493,"lat":2.58299,"pop":0},{"id":8145623,"name":"Agbanga","lon":27.94906,"lat":2.12012,"pop":0},{"id":220475,"name":"Agbau","alt":["Agbua"],"lon":28.18705,"lat":2.21667,"pop":0},{"id":8145558,"name":"Agboiso","lon":27.55653,"lat":2.10824,"pop":0},{"id":220474,"name":"Agbole","lon":23.35808,"lat":3.04556,"pop":0},{"id":8279339,"name":"Agbolia","lon":22.74523,"lat":2.95325,"pop":0},{"id":8279341,"name":"Agbolia","lon":22.75592,"lat":2.97784,"pop":0},{"id":8144055,"name":"Agbulie","lon":30.8573,"lat":3.31855,"pop":0},{"id":8062280,"name":"Agbunda","lon":26.05418,"lat":2.90203,"pop":0},{"id":8280497,"name":"Agebo","lon":30.0882,"lat":1.63386,"pop":0},{"id":220473,"name":"Agekiana","lon":25.91667,"lat":2.66667,"pop":0},{"id":220472,"name":"Aginaso","lon":29.40245,"lat":3.34579,"pop":0},{"id":220471,"name":"Aginda","lon":28.71667,"lat":2.81667,"pop":0},{"id":220470,"name":"Agoro","lon":27.82677,"lat":3.08919,"pop":0},{"id":8143204,"name":"Agorogo","lon":30.7579,"lat":2.2263,"pop":0},{"id":2317528,"name":"Agrimafe","lon":16.86839,"lat":-2.86472,"pop":0},{"id":220468,"name":"Agubu","lon":29.43326,"lat":3.15105,"pop":0},{"id":8145468,"name":"Aguia","lon":27.61633,"lat":2.38592,"pop":0},{"id":2317527,"name":"Agwa","lon":19.55607,"lat":4.96586,"pop":0},{"id":220466,"name":"Agwala","lon":27.48189,"lat":2.77066,"pop":0},{"id":220464,"name":"Ahiro","lon":23.69373,"lat":3.87188,"pop":0},{"id":8197548,"name":"Airo","lon":23.69102,"lat":3.83117,"pop":0},{"id":220463,"name":"Aisa","lon":26.58333,"lat":-1.6,"pop":0},{"id":8223793,"name":"Aka","lon":26.27815,"lat":3.0034,"pop":0},{"id":220459,"name":"Akabati","lon":23.67815,"lat":3.85753,"pop":0},{"id":8221297,"name":"Akaboki","lon":24.77266,"lat":4.65467,"pop":0},{"id":220458,"name":"Akambwa","lon":22.95006,"lat":3.85469,"pop":0},{"id":220457,"name":"Akangai","lon":23.90286,"lat":3.43192,"pop":0},{"id":8198071,"name":"Akangi","lon":24.12486,"lat":3.07053,"pop":0},{"id":8145466,"name":"Akangwe","lon":27.26597,"lat":2.39291,"pop":0},{"id":8143277,"name":"Akara","lon":30.8804,"lat":2.26543,"pop":0},{"id":220456,"name":"Akasongo","lon":27.72312,"lat":2.4356,"pop":0},{"id":220455,"name":"Akavu","alt":["Akau"],"lon":23.1,"lat":-2.36667,"pop":0},{"id":220454,"name":"Akaya","lon":23.6,"lat":-4.68333,"pop":0},{"id":8249993,"name":"Akaya","lon":23.62749,"lat":-4.18068,"pop":0},{"id":220453,"name":"Akbata","lon":29.04218,"lat":1.7494,"pop":0},{"id":220451,"name":"Akei","lon":30.67451,"lat":3.0993,"pop":0},{"id":220450,"name":"Akengei","lon":26.82375,"lat":2.93922,"pop":0},{"id":8024488,"name":"Akengei","alt":["Akenge"],"lon":26.90991,"lat":3.61396,"pop":0},{"id":8279651,"name":"Akete","lon":22.38517,"lat":2.85533,"pop":0},{"id":220448,"name":"Aketi","alt":["Port Chaltin"],"lon":23.78326,"lat":2.73877,"pop":35161},{"id":220445,"name":"Akili","lon":26.84023,"lat":2.86177,"pop":0},{"id":8069537,"name":"Ako","lon":27.92706,"lat":3.9707,"pop":0},{"id":8145561,"name":"Akobanga","lon":27.5455,"lat":2.14135,"pop":0},{"id":220444,"name":"Akoka","lon":23.63333,"lat":-3.61667,"pop":0},{"id":220443,"name":"Akokora","lon":29.07069,"lat":1.70643,"pop":0},{"id":8197662,"name":"Akoli","lon":23.90416,"lat":3.76022,"pop":0},{"id":220442,"name":"Akombe","lon":24.31667,"lat":-4.2,"pop":0},{"id":220441,"name":"Akombi","lon":28.25,"lat":2.53333,"pop":0},{"id":220439,"name":"Akpali","lon":28.11667,"lat":2.45,"pop":0},{"id":220437,"name":"Akpome","lon":25.95142,"lat":3.08206,"pop":0},{"id":8144059,"name":"Aku","lon":30.75846,"lat":3.18774,"pop":0},{"id":8143128,"name":"Akuaku","lon":29.31035,"lat":2.53354,"pop":0},{"id":220435,"name":"Akula","lon":20.18898,"lat":2.37697,"pop":0},{"id":220436,"name":"Akula","lon":20.18458,"lat":2.37564,"pop":0},{"id":8198578,"name":"Akula","lon":20.89202,"lat":2.88916,"pop":0},{"id":8198619,"name":"Akula","lon":20.13747,"lat":2.69181,"pop":0},{"id":220434,"name":"Akulekpio","lon":25.65937,"lat":4.7484,"pop":0},{"id":220433,"name":"Akuma","lon":25.60672,"lat":2.01487,"pop":0},{"id":220432,"name":"Akumbu","lon":22.73333,"lat":-2.36667,"pop":0},{"id":8458708,"name":"Akungula","lon":23.98057,"lat":-3.25627,"pop":0},{"id":220430,"name":"Akunvula","alt":["Akangula"],"lon":24.18333,"lat":-3.46667,"pop":0},{"id":8247587,"name":"Akusa","lon":22.43291,"lat":4.03211,"pop":0},{"id":220428,"name":"Akwa","alt":["Akva"],"lon":29.42378,"lat":3.44646,"pop":0},{"id":220427,"name":"Akwe","alt":["Akwa"],"lon":30.13487,"lat":2.0863,"pop":0},{"id":220426,"name":"Ala","lon":30.46841,"lat":3.32105,"pop":0},{"id":220422,"name":"Alafu","alt":["Alalu"],"lon":29.23686,"lat":0.73527,"pop":0},{"id":220423,"name":"Alafu","lon":29.18333,"lat":0.73333,"pop":0},{"id":8144086,"name":"Alagwa","lon":30.01943,"lat":3.24189,"pop":0},{"id":8221296,"name":"Alama","lon":24.765,"lat":4.65808,"pop":0},{"id":8069513,"name":"Alambe","lon":27.31784,"lat":3.67431,"pop":0},{"id":220421,"name":"Alambi","lon":28.87793,"lat":1.97731,"pop":0},{"id":220418,"name":"Ale","lon":30.79746,"lat":3.16534,"pop":0},{"id":220417,"name":"Alebert","lon":28.78472,"lat":-4.57722,"pop":0},{"id":220415,"name":"Alembe","lon":24.11667,"lat":-2.78333,"pop":0},{"id":8143427,"name":"Alembi","lon":25.46094,"lat":3.21905,"pop":0},{"id":11903467,"name":"Alenge","lon":22.9537,"lat":2.44345,"pop":0},{"id":12522622,"name":"Alesa","alt":["Aleza"],"lon":30.60056,"lat":2.48186,"pop":0},{"id":220403,"name":"Ali","alt":["Ali Moia","Ali Moya"],"lon":28.80517,"lat":-5.00066,"pop":0},{"id":220413,"name":"Ali","lon":30.19471,"lat":3.63569,"pop":0},{"id":220414,"name":"Ali","lon":30.61919,"lat":3.23753,"pop":0},{"id":8022997,"name":"Ali","lon":29.69483,"lat":3.7503,"pop":0},{"id":8143205,"name":"Ali","lon":30.78382,"lat":2.25071,"pop":0},{"id":8144060,"name":"Alia","lon":30.68673,"lat":3.23412,"pop":0},{"id":8144030,"name":"Alibe","lon":30.56562,"lat":3.4679,"pop":0},{"id":220412,"name":"Aligi","alt":["Alifi"],"lon":29.62806,"lat":3.7254,"pop":0},{"id":220410,"name":"Aligo","lon":28.99162,"lat":4.41711,"pop":0},{"id":220411,"name":"Aligo","lon":27.42301,"lat":3.10694,"pop":0},{"id":220408,"name":"Alikolo","lon":27.31572,"lat":2.74995,"pop":0},{"id":220406,"name":"Alimasi","lon":26.46248,"lat":-3.31828,"pop":0},{"id":220407,"name":"Alimasi","lon":26.18333,"lat":-1.78333,"pop":0},{"id":12508700,"name":"Alimasi","lon":29.16604,"lat":2.85857,"pop":0},{"id":12518864,"name":"Alimasi","lon":28.07014,"lat":2.3874,"pop":0},{"id":220405,"name":"Alimba","lon":27.22298,"lat":-2.81062,"pop":0},{"id":220404,"name":"Alimbongo","lon":29.15527,"lat":-0.36964,"pop":0},{"id":220402,"name":"Alipago","alt":["Alipaye","Alipei"],"lon":25.72244,"lat":3.56321,"pop":0},{"id":220401,"name":"Aliposo","lon":25.11667,"lat":-0.7,"pop":0},{"id":220400,"name":"Alira","lon":26.74375,"lat":2.83305,"pop":0},{"id":220399,"name":"Alize","lon":30.43951,"lat":3.13233,"pop":0},{"id":220398,"name":"Alo","lon":30.54432,"lat":3.23123,"pop":0},{"id":220397,"name":"Aloi","lon":29.14182,"lat":0.50934,"pop":0},{"id":11919527,"name":"Aloia","lon":29.18814,"lat":0.51213,"pop":0},{"id":220396,"name":"Alokwa","lon":29.84986,"lat":3.67091,"pop":0},{"id":220394,"name":"Alombi","lon":27.11667,"lat":-1.13333,"pop":0},{"id":220393,"name":"Alomo","lon":30.25863,"lat":3.18812,"pop":0},{"id":220392,"name":"Alonga","lon":26.43333,"lat":-2.51667,"pop":0},{"id":220391,"name":"Alongane","lon":23.19958,"lat":3.51332,"pop":0},{"id":220389,"name":"Alosi","lon":30.06667,"lat":1.75,"pop":0},{"id":8144054,"name":"Alua","lon":30.81597,"lat":3.33818,"pop":0},{"id":8143116,"name":"Aluadu","lon":29.81741,"lat":2.69213,"pop":0},{"id":8145551,"name":"Aluba","lon":27.83583,"lat":2.67216,"pop":0},{"id":220388,"name":"Alubati","lon":27.03333,"lat":-3.75,"pop":0},{"id":8143123,"name":"Alulembane","lon":29.95127,"lat":2.61709,"pop":0},{"id":220387,"name":"Aluma","lon":26.31667,"lat":0.4,"pop":0},{"id":220385,"name":"Alumba","lon":24.91667,"lat":-3,"pop":0},{"id":220386,"name":"Alumba","alt":["Wat. N"],"lon":24.97971,"lat":-2.96605,"pop":0},{"id":8329202,"name":"Aluna","lon":29.23487,"lat":0.92081,"pop":0},{"id":220384,"name":"Alungba","lon":30.3242,"lat":2.54348,"pop":0},{"id":8329310,"name":"Alunguou","lon":29.64476,"lat":0.39616,"pop":0},{"id":220382,"name":"Aluta","lon":26.23333,"lat":-1.23333,"pop":0},{"id":220381,"name":"Ama","lon":30.63899,"lat":2.46183,"pop":0},{"id":220379,"name":"Amabakumbu","lon":29.24328,"lat":0.83973,"pop":0},{"id":220378,"name":"Amabidi","lon":26.53333,"lat":-1.5,"pop":0},{"id":220377,"name":"Amadi","alt":["Amadis"],"lon":26.76837,"lat":3.63335,"pop":0},{"id":8062243,"name":"Amakedjo","lon":26.13531,"lat":2.98848,"pop":0},{"id":220376,"name":"Amaki","lon":26.11667,"lat":3.01667,"pop":0},{"id":220375,"name":"Amakibubu","lon":25.51667,"lat":-0.31667,"pop":0},{"id":8433425,"name":"Amakiki","lon":27.06385,"lat":-1.11306,"pop":0},{"id":8143313,"name":"Amalse","lon":30.76261,"lat":2.82606,"pop":0},{"id":220372,"name":"Amalue","lon":27.53325,"lat":2.78658,"pop":0},{"id":220371,"name":"Amalutu","lon":29.20624,"lat":1.00617,"pop":0},{"id":8279311,"name":"Amamba","lon":22.72099,"lat":2.99185,"pop":0},{"id":220369,"name":"Amamula","lon":27.83105,"lat":-0.28524,"pop":0},{"id":8283474,"name":"Amandanga","lon":26.90714,"lat":-0.96384,"pop":0},{"id":220367,"name":"Amandjuju","lon":23.49655,"lat":2.49875,"pop":0},{"id":8062306,"name":"Amanie","lon":26.07934,"lat":2.58815,"pop":0},{"id":220366,"name":"Amasindrenie","lon":27.30942,"lat":2.28774,"pop":0},{"id":220365,"name":"Amasunga","lon":27.05366,"lat":-1.12134,"pop":0},{"id":220364,"name":"Amasungi","lon":27,"lat":-1.08333,"pop":0},{"id":220363,"name":"Amatshilungu","lon":25.7,"lat":-0.18333,"pop":0},{"id":8279653,"name":"Amawa","lon":22.76214,"lat":2.95425,"pop":0},{"id":220361,"name":"Amba","lon":26.48333,"lat":-4.25,"pop":0},{"id":220362,"name":"Amba","lon":22.83504,"lat":2.80909,"pop":0},{"id":8147179,"name":"Amba","lon":23.5392,"lat":2.95656,"pop":0},{"id":220359,"name":"Ambaka","lon":27.7955,"lat":2.33796,"pop":0},{"id":220358,"name":"Ambaki","lon":31.1047,"lat":2.21007,"pop":0},{"id":8022325,"name":"Ambali","lon":29.89885,"lat":3.13881,"pop":0},{"id":220357,"name":"Ambalo","alt":["Ambalu"],"lon":22.61084,"lat":3.79958,"pop":0},{"id":220356,"name":"Ambarau-Gada","alt":["Ambarao","Ambarau"],"lon":29.72844,"lat":3.15948,"pop":0},{"id":8145472,"name":"Ambelekombeya","lon":27.76143,"lat":2.26172,"pop":0},{"id":220351,"name":"Ambimi","lon":30.0047,"lat":3.28775,"pop":0},{"id":220350,"name":"Ambisi","lon":30.70572,"lat":2.58791,"pop":0},{"id":220349,"name":"Ambo","lon":30.41667,"lat":2.31667,"pop":0},{"id":381439,"name":"Ambo","lon":30.79185,"lat":3.59204,"pop":0},{"id":8025478,"name":"Ambogo","lon":29.26152,"lat":3.21667,"pop":0},{"id":8145606,"name":"Amboko","lon":27.75339,"lat":2.41164,"pop":0},{"id":8145615,"name":"Amboko","lon":27.85128,"lat":2.24428,"pop":0},{"id":8145616,"name":"Amboku","lon":27.82307,"lat":2.2076,"pop":0},{"id":220348,"name":"Amboma","lon":22.51842,"lat":4.00429,"pop":0},{"id":220347,"name":"Ambonga","lon":23.63572,"lat":2.83286,"pop":0},{"id":8197660,"name":"Ambonga","lon":23.81248,"lat":3.79605,"pop":0},{"id":220345,"name":"Ambuma","lon":20.74857,"lat":3.23238,"pop":0},{"id":2317523,"name":"Ambuma","lon":18.7683,"lat":3.47677,"pop":0},{"id":2317522,"name":"Ambuma-Moke","lon":18.76287,"lat":3.4709,"pop":0},{"id":2317521,"name":"Ambura Première","alt":["Ambura I","Ambura Premiere"],"lon":18.73845,"lat":-4.38062,"pop":0},{"id":8147180,"name":"Ambwa","lon":23.66155,"lat":2.60903,"pop":0},{"id":8156817,"name":"Amdango","lon":27.86861,"lat":1.73306,"pop":0},{"id":8145617,"name":"Ame na","lon":27.90727,"lat":2.17149,"pop":0},{"id":8145509,"name":"Amegiumbiandredio","lon":27.26891,"lat":2.26375,"pop":0},{"id":220343,"name":"Amekupi","lon":26.65216,"lat":-2.78988,"pop":0},{"id":8435385,"name":"Amekupi","lon":26.79779,"lat":-2.65142,"pop":0},{"id":220341,"name":"Amemete","alt":["Amehele","Amenete"],"lon":27.71667,"lat":-0.11667,"pop":0},{"id":220340,"name":"Ameta","lon":27.98662,"lat":3.59252,"pop":0},{"id":220337,"name":"Amishi","lon":29.13128,"lat":-5.81671,"pop":0},{"id":220336,"name":"Amisi","lon":25.53694,"lat":0.13528,"pop":0},{"id":220334,"name":"Amolia","lon":26.2,"lat":3.01667,"pop":0},{"id":220333,"name":"Amongo","lon":24.11667,"lat":-1.26667,"pop":0},{"id":8062297,"name":"Amonie","lon":26.70767,"lat":2.64001,"pop":0},{"id":220332,"name":"Amonietau","lon":25.94141,"lat":2.84086,"pop":0},{"id":220331,"name":"Amosa","lon":26.49393,"lat":2.94185,"pop":0},{"id":220330,"name":"Amoti","lon":25.08333,"lat":1.51667,"pop":0},{"id":220329,"name":"Amuapa","lon":27.5304,"lat":2.38903,"pop":0},{"id":220328,"name":"Amuladi","lon":27.08333,"lat":-4.38333,"pop":0},{"id":8251153,"name":"Amundala","lon":27.39765,"lat":-4.76489,"pop":0},{"id":220327,"name":"Amundero","lon":26.18208,"lat":2.99507,"pop":0},{"id":220326,"name":"Amungini","lon":27.4,"lat":-4.11667,"pop":0},{"id":220325,"name":"Amusini","lon":27.41104,"lat":-4.12444,"pop":0},{"id":8251175,"name":"Amusini","lon":28.13497,"lat":-4.74201,"pop":0},{"id":220323,"name":"Ana","lon":30.20713,"lat":3.47583,"pop":0},{"id":220322,"name":"Ana Bangu","lon":22.66667,"lat":-7.8,"pop":0},{"id":220373,"name":"Anakonzi","alt":["Amakonzi"],"lon":29.88182,"lat":3.2826,"pop":0},{"id":220321,"name":"Anapuno","lon":27.72296,"lat":2.3387,"pop":0},{"id":8250455,"name":"Anc Ngoie Kahoha","lon":26.08472,"lat":-4.51485,"pop":0},{"id":220319,"name":"Andagone","lon":27.92814,"lat":2.65366,"pop":0},{"id":220318,"name":"Andalumo","lon":30,"lat":2.81667,"pop":0},{"id":8145488,"name":"Andanoma","lon":27.71646,"lat":2.97898,"pop":0},{"id":220316,"name":"Andata","lon":30.04332,"lat":3.81773,"pop":0},{"id":220315,"name":"Andekwakwa","lon":29.16532,"lat":1.34603,"pop":0},{"id":220314,"name":"Andengu","lon":28.73333,"lat":2.65,"pop":0},{"id":220312,"name":"Andi-Kenopi","lon":28.86908,"lat":2.95447,"pop":0},{"id":220313,"name":"Andia","lon":23.58536,"lat":2.57782,"pop":0},{"id":8143652,"name":"Andia","lon":25.3402,"lat":3.09867,"pop":0},{"id":220311,"name":"Andikoi","lon":28.75872,"lat":2.63056,"pop":0},{"id":7031718,"name":"Andikumu","lon":28.65526,"lat":1.51832,"pop":0},{"id":7504697,"name":"Andikwonge","lon":29.39692,"lat":1.40341,"pop":0},{"id":220310,"name":"Andima","alt":["Adima","Andrima"],"lon":28.00798,"lat":2.52521,"pop":0},{"id":220309,"name":"Andiri","lon":30.2642,"lat":3.37916,"pop":0},{"id":220308,"name":"Andisa","lon":29.98117,"lat":1.98873,"pop":0},{"id":7504732,"name":"Andisede","lon":29.5184,"lat":1.35787,"pop":0},{"id":220307,"name":"Andjamango","lon":27.48463,"lat":2.66562,"pop":0},{"id":220306,"name":"Andoga","lon":29.99125,"lat":2.54575,"pop":0},{"id":8145580,"name":"Andogbanaka","lon":27.73566,"lat":2.25853,"pop":0},{"id":8144053,"name":"Andogo","lon":30.80206,"lat":3.34722,"pop":0},{"id":8145499,"name":"Andrekoladi","lon":27.42609,"lat":2.76971,"pop":0},{"id":8144042,"name":"Androvoro","lon":30.65389,"lat":3.27665,"pop":0},{"id":8143431,"name":"Andu","lon":25.94884,"lat":3.05029,"pop":0},{"id":12511112,"name":"Anduala","lon":28.44431,"lat":3.9933,"pop":0},{"id":220305,"name":"Andudu","lon":28.69552,"lat":2.485,"pop":0},{"id":220302,"name":"Anga","lon":26.27287,"lat":3.27699,"pop":0},{"id":220303,"name":"Anga","lon":21.57628,"lat":-3.14018,"pop":0},{"id":220301,"name":"Angako","lon":30.55129,"lat":3.07542,"pop":0},{"id":220300,"name":"Angaku","lon":30.53333,"lat":2.96667,"pop":0},{"id":220298,"name":"Angali","lon":27.94337,"lat":2.32647,"pop":0},{"id":220299,"name":"Angali","lon":28.03333,"lat":2.18333,"pop":0},{"id":220297,"name":"Angama","lon":22.62931,"lat":3.61808,"pop":0},{"id":8143429,"name":"Angangasi","lon":25.62657,"lat":3.2208,"pop":0},{"id":8144068,"name":"Angarakini","lon":30.63568,"lat":3.07341,"pop":0},{"id":8145588,"name":"Angasuwa","lon":27.6572,"lat":2.08794,"pop":0},{"id":220296,"name":"Angelengwe","lon":27.41667,"lat":0.16667,"pop":0},{"id":220295,"name":"Angelos Poulos","lon":28.03333,"lat":-3.35,"pop":0},{"id":220294,"name":"Angemapasa","alt":["Angamapasa"],"lon":27.53709,"lat":0.05502,"pop":0},{"id":220293,"name":"Angenga","lon":21.46711,"lat":2.28379,"pop":0},{"id":11903278,"name":"Angenge","lon":22.51812,"lat":2.15702,"pop":0},{"id":8143318,"name":"Angi","lon":30.75331,"lat":2.77429,"pop":0},{"id":12510869,"name":"Angi","alt":["Angi of Ruwenzori"],"lon":29.37115,"lat":-1.1819,"pop":0},{"id":220292,"name":"Angilia","lon":30.68454,"lat":3.13835,"pop":0},{"id":220291,"name":"Angise-Bamea","lon":23.88333,"lat":2.56667,"pop":0},{"id":8433497,"name":"Angisi","lon":27.67626,"lat":-1.27803,"pop":0},{"id":220289,"name":"Ango","lon":25.85156,"lat":4.03873,"pop":0},{"id":2317520,"name":"Ango Ango","lon":13.44434,"lat":-5.76912,"pop":0},{"id":220286,"name":"Angodepala","lon":28.53541,"lat":4.29494,"pop":0},{"id":220285,"name":"Angodia","lon":25.78593,"lat":3.5147,"pop":0},{"id":220284,"name":"Angodra","lon":30.12981,"lat":3.32351,"pop":0},{"id":220282,"name":"Angonabasulu","lon":28.90102,"lat":4.44291,"pop":0},{"id":8279660,"name":"Angongo","lon":22.77974,"lat":2.95237,"pop":0},{"id":8143999,"name":"Angonia","lon":30.28926,"lat":3.89052,"pop":0},{"id":220281,"name":"Angoro","lon":28.16667,"lat":2.21667,"pop":0},{"id":220280,"name":"Angu","lon":24.46335,"lat":3.52871,"pop":0},{"id":220279,"name":"Angukulu","lon":27.52715,"lat":1.65978,"pop":0},{"id":8434645,"name":"Angula","lon":17.23171,"lat":-6.39626,"pop":0},{"id":220277,"name":"Angumu","alt":["Somiba"],"lon":27.73333,"lat":-0.15,"pop":0},{"id":220278,"name":"Angumu","alt":["Angumu Etat"],"lon":27.70344,"lat":-0.13912,"pop":0},{"id":8144089,"name":"Angva","lon":30.12366,"lat":3.15589,"pop":0},{"id":220275,"name":"Angwandi","lon":29.74933,"lat":3.55451,"pop":0},{"id":8280432,"name":"Ani","lon":30.78767,"lat":1.8326,"pop":0},{"id":220274,"name":"Ania","lon":30.78387,"lat":3.3448,"pop":0},{"id":220273,"name":"Aniakanane","lon":27.8625,"lat":2.20984,"pop":0},{"id":220272,"name":"Aniasu","alt":["Asiasu"],"lon":27.56986,"lat":3.62649,"pop":0},{"id":8198044,"name":"Aniesi","lon":24.32755,"lat":3.96848,"pop":0},{"id":220271,"name":"Anilengbe","lon":28.95576,"lat":4.44138,"pop":0},{"id":220263,"name":"Aninga","alt":["Anyinga"],"lon":23.00828,"lat":-8.58422,"pop":0},{"id":220269,"name":"Aniozo","lon":30.13094,"lat":1.4441,"pop":0},{"id":220268,"name":"Aniza","lon":25.78293,"lat":4.39783,"pop":0},{"id":8069338,"name":"Anizete","lon":27.05022,"lat":3.91303,"pop":0},{"id":220267,"name":"Anjenje","lon":26.06667,"lat":0.63333,"pop":0},{"id":220266,"name":"Ankandja","lon":23.82739,"lat":-2.45892,"pop":0},{"id":220265,"name":"Ankoro","lon":26.94401,"lat":-6.75023,"pop":0},{"id":220264,"name":"Anotano","alt":["Anotane"],"lon":27.67004,"lat":2.19586,"pop":0},{"id":220262,"name":"Anzabowa","alt":["Anzaboa"],"lon":27.77005,"lat":2.06574,"pop":0},{"id":220260,"name":"Anzani","lon":25.7,"lat":3.43333,"pop":0},{"id":220261,"name":"Anzani","lon":25.75911,"lat":2.65402,"pop":0},{"id":8145614,"name":"Anzata","lon":27.84139,"lat":2.27229,"pop":0},{"id":220257,"name":"Anzeu","lon":28.53333,"lat":2.76667,"pop":0},{"id":220256,"name":"Anzi","lon":23.40504,"lat":-0.86881,"pop":0},{"id":8198567,"name":"Ao","alt":["Ao Premiere","Ao Première"],"lon":29.0325,"lat":3.4185,"pop":0},{"id":8198568,"name":"Ao Troisième","lon":29.01394,"lat":3.43864,"pop":0},{"id":8143117,"name":"Aogu","lon":29.85364,"lat":2.69073,"pop":0},{"id":220254,"name":"Aola","lon":29.82846,"lat":3.97024,"pop":0},{"id":220253,"name":"Aosane","lon":27.29808,"lat":2.43568,"pop":0},{"id":220251,"name":"Apala","lon":31.01688,"lat":1.99932,"pop":0},{"id":220250,"name":"Apalata","lon":23.71667,"lat":2.81667,"pop":0},{"id":8143637,"name":"Apasa","lon":25.82291,"lat":3.30042,"pop":0},{"id":220248,"name":"Apawanta","lon":29.66438,"lat":1.35477,"pop":0},{"id":7504800,"name":"Apekele","alt":["Pekele"],"lon":29.16811,"lat":1.00222,"pop":0},{"id":220246,"name":"Apenraniako","lon":30.58689,"lat":2.95323,"pop":0},{"id":220245,"name":"Apepo","alt":["Babia"],"lon":27.54409,"lat":2.16805,"pop":0},{"id":220244,"name":"Api","lon":25.39591,"lat":3.70569,"pop":0},{"id":8143328,"name":"Apiko","lon":30.1259,"lat":2.95,"pop":0},{"id":220242,"name":"Apindu","lon":22.51436,"lat":4.03369,"pop":0},{"id":220240,"name":"Apodo","lon":28.64419,"lat":2.59761,"pop":0},{"id":8145630,"name":"Apokuse","lon":27.93574,"lat":2.34066,"pop":0},{"id":7028817,"name":"Apoli","lon":28.49653,"lat":1.85995,"pop":0},{"id":220239,"name":"Aponza","lon":25.56667,"lat":3.26667,"pop":0},{"id":8144029,"name":"Aponzi","lon":30.67157,"lat":3.36937,"pop":0},{"id":220238,"name":"Aposo","lon":26.09606,"lat":3.49614,"pop":0},{"id":220237,"name":"Apowa","lon":30.21667,"lat":2.11667,"pop":0},{"id":220236,"name":"Apukfu","lon":22.31667,"lat":-3.21667,"pop":0},{"id":12518867,"name":"Apuku","lon":28.0928,"lat":2.40734,"pop":0},{"id":220233,"name":"Ara","lon":30.57982,"lat":3.29333,"pop":0},{"id":220235,"name":"Ara","lon":31.03333,"lat":2.01667,"pop":0},{"id":220232,"name":"Araba","lon":30.88333,"lat":2.88333,"pop":0},{"id":220231,"name":"Aradi","alt":["Arabi"],"lon":28.56642,"lat":1.90299,"pop":0},{"id":8023269,"name":"Aragi","lon":29.53097,"lat":3.72304,"pop":0},{"id":220230,"name":"Arama","lon":28.99117,"lat":3.59689,"pop":0},{"id":220229,"name":"Arara","lon":30.78738,"lat":3.18975,"pop":0},{"id":8143100,"name":"Arebi","alt":["Arabi"],"lon":29.67367,"lat":2.85929,"pop":0},{"id":220227,"name":"Aria","lon":30.64643,"lat":2.99374,"pop":0},{"id":220226,"name":"Aribado","lon":30.55438,"lat":3.37985,"pop":0},{"id":8144049,"name":"Arie","lon":30.7899,"lat":3.43653,"pop":0},{"id":8144057,"name":"Arie","lon":30.85439,"lat":3.30076,"pop":0},{"id":220225,"name":"Arigako","lon":30.47224,"lat":3.20581,"pop":0},{"id":8145508,"name":"Arikpo","lon":27.17719,"lat":2.70022,"pop":0},{"id":8145470,"name":"Arindru","lon":27.46648,"lat":2.46043,"pop":0},{"id":8062326,"name":"Arnosa","lon":26.72913,"lat":2.5529,"pop":0},{"id":8143342,"name":"Aromada","lon":30.35001,"lat":2.87769,"pop":0},{"id":220223,"name":"Aru","lon":30.84138,"lat":2.86218,"pop":0},{"id":10401821,"name":"Aru Territory","lon":30.85,"lat":2.86667,"pop":0},{"id":220217,"name":"Arua","lon":30.82099,"lat":3.27035,"pop":0},{"id":220218,"name":"Arua","lon":30.421,"lat":2.89713,"pop":0},{"id":8143309,"name":"Arua","lon":30.79432,"lat":2.87457,"pop":0},{"id":8143228,"name":"Arudja","lon":30.52781,"lat":2.02866,"pop":0},{"id":220215,"name":"Arulama","lon":28.41629,"lat":1.79132,"pop":0},{"id":220214,"name":"Arumva","lon":30.85229,"lat":3.29218,"pop":0},{"id":220210,"name":"Asa","lon":25.82062,"lat":4.56861,"pop":0},{"id":220211,"name":"Asa","lon":27.46799,"lat":1.96571,"pop":0},{"id":220207,"name":"Asada","lon":30.30122,"lat":2.46536,"pop":0},{"id":8022375,"name":"Asaka","lon":29.50277,"lat":3.28985,"pop":0},{"id":8145490,"name":"Asaligo","lon":27.77694,"lat":2.82949,"pop":0},{"id":220206,"name":"Asangwa","lon":28.06667,"lat":0.3,"pop":0},{"id":220203,"name":"Asani","lon":27.31234,"lat":-4.84404,"pop":0},{"id":220204,"name":"Asani","lon":27.35893,"lat":-4.24575,"pop":0},{"id":220205,"name":"Asani","lon":25.8,"lat":-2.53333,"pop":0},{"id":8223770,"name":"Asani","lon":26.98338,"lat":3.81521,"pop":0},{"id":220201,"name":"Asekadeo","alt":["Asekandeo","Osekadeo"],"lon":24.70302,"lat":-4.73635,"pop":0},{"id":220200,"name":"Asekatunda","lon":25.01912,"lat":-4.27928,"pop":0},{"id":220199,"name":"Aseki","lon":23.5,"lat":-3.08333,"pop":0},{"id":220198,"name":"Asengu","lon":23.66656,"lat":2.62172,"pop":0},{"id":220197,"name":"Asengwe","lon":25.41667,"lat":-0.28333,"pop":0},{"id":220196,"name":"Asetonie","lon":26.18753,"lat":2.62374,"pop":0},{"id":220195,"name":"Ashu","lon":23.82652,"lat":-2.85627,"pop":0},{"id":220194,"name":"Asigala","lon":25.74997,"lat":3.48259,"pop":0},{"id":8145252,"name":"Asikenda","lon":25.44926,"lat":2.97709,"pop":0},{"id":220193,"name":"Asindi","lon":26.31667,"lat":-2.63333,"pop":0},{"id":220192,"name":"Asine","lon":28.04811,"lat":2.51602,"pop":0},{"id":220191,"name":"Asira","lon":29.99052,"lat":3.18786,"pop":0},{"id":220190,"name":"Asisi","lon":25.79682,"lat":-9.43806,"pop":0},{"id":8144006,"name":"Asisi","lon":30.16996,"lat":3.85292,"pop":0},{"id":8145523,"name":"Asodio","lon":27.33331,"lat":2.36501,"pop":0},{"id":220188,"name":"Asombe","lon":26.71667,"lat":3.26667,"pop":0},{"id":220187,"name":"Asomelo","alt":["Asomeno"],"lon":23.46667,"lat":-3.41667,"pop":0},{"id":220186,"name":"Asongo","lon":22.52827,"lat":2.89338,"pop":0},{"id":8069422,"name":"Asorowe","lon":27.45568,"lat":3.16438,"pop":0},{"id":8143333,"name":"Asuda","lon":30.14585,"lat":2.80811,"pop":0},{"id":220185,"name":"Asuku","lon":23.63333,"lat":-3.51667,"pop":0},{"id":8144000,"name":"Asumai","lon":30.26215,"lat":3.8729,"pop":0},{"id":220183,"name":"Asumani","alt":["Asumali"],"lon":28.46579,"lat":1.44425,"pop":0},{"id":8143428,"name":"Asungasi","lon":25.62413,"lat":3.22123,"pop":0},{"id":220182,"name":"Atabangwe","lon":26.42181,"lat":2.55948,"pop":0},{"id":8145461,"name":"Atagua","lon":27.7427,"lat":2.07212,"pop":0},{"id":8062323,"name":"Ataingu","lon":26.65274,"lat":2.51704,"pop":0},{"id":8144004,"name":"Ataki","lon":30.16084,"lat":3.78735,"pop":0},{"id":220181,"name":"Atandra","lon":30.3024,"lat":3.37806,"pop":0},{"id":220180,"name":"Atatu","lon":30.03563,"lat":3.72614,"pop":0},{"id":220178,"name":"Atetia","lon":26.21667,"lat":-1.88333,"pop":0},{"id":220175,"name":"Atima","lon":29.99227,"lat":3.3052,"pop":0},{"id":8062270,"name":"Atina","lon":26.32436,"lat":2.9875,"pop":0},{"id":220174,"name":"Atinekeli","lon":23.45,"lat":-0.83333,"pop":0},{"id":220173,"name":"Atodja","lon":26.03457,"lat":2.68743,"pop":0},{"id":220172,"name":"Atoloba","lon":27.66557,"lat":3.79111,"pop":0},{"id":8145519,"name":"Atomami","lon":27.33549,"lat":2.74359,"pop":0},{"id":8143631,"name":"Atomane","lon":25.70947,"lat":3.37513,"pop":0},{"id":220171,"name":"Atondo","lon":26.83568,"lat":-2.71539,"pop":0},{"id":8145538,"name":"Atongwa","lon":27.53717,"lat":2.64948,"pop":0},{"id":8329241,"name":"Atonza","lon":29.72743,"lat":0.85849,"pop":0},{"id":8069469,"name":"Atoro","lon":27.81762,"lat":3.01492,"pop":0},{"id":220170,"name":"Atorobako","lon":26.04855,"lat":4.06064,"pop":0},{"id":220169,"name":"Atsenga","lon":28.22041,"lat":2.62682,"pop":0},{"id":220167,"name":"Atsiango","lon":26.90733,"lat":3.16011,"pop":0},{"id":220166,"name":"Atsiengama","lon":28.28333,"lat":2.38333,"pop":0},{"id":8144063,"name":"Atsuango","lon":30.65309,"lat":3.21714,"pop":0},{"id":8145556,"name":"Atua","lon":27.52616,"lat":2.38404,"pop":0},{"id":220165,"name":"Atzo","lon":30.62869,"lat":3.26972,"pop":0},{"id":220164,"name":"Atzupani","lon":30.7,"lat":2.83333,"pop":0},{"id":8143206,"name":"Au","lon":30.75361,"lat":2.2645,"pop":0},{"id":220163,"name":"Audanga","lon":27.64646,"lat":2.44362,"pop":0},{"id":8145459,"name":"Aukumwana","lon":27.93375,"lat":2.04837,"pop":0},{"id":220162,"name":"Auma","lon":22.74976,"lat":2.95769,"pop":0},{"id":8145458,"name":"Aundabo","lon":27.92351,"lat":2.07678,"pop":0},{"id":220161,"name":"Aungba","lon":30.50626,"lat":2.54456,"pop":0},{"id":220160,"name":"Avakubi","lon":27.55607,"lat":1.31149,"pop":0},{"id":220158,"name":"Avareo","lon":29.96667,"lat":3.18333,"pop":0},{"id":220157,"name":"Aveluma","lon":30.01667,"lat":1.25,"pop":0},{"id":8280559,"name":"Avemuma","lon":30.1379,"lat":1.34661,"pop":0},{"id":8022417,"name":"Avi","lon":29.81574,"lat":3.42795,"pop":0},{"id":220156,"name":"Avimi","alt":["Avini"],"lon":30.09024,"lat":1.33444,"pop":0},{"id":8144073,"name":"Avoa","lon":30.74633,"lat":3.01192,"pop":0},{"id":8143996,"name":"Avogo","lon":30.35107,"lat":3.84376,"pop":0},{"id":220155,"name":"Avokiri","lon":30.26554,"lat":3.81998,"pop":0},{"id":8144092,"name":"Avombi","lon":30.20269,"lat":3.09129,"pop":0},{"id":220153,"name":"Avu","alt":["Rabu"],"lon":30.76479,"lat":2.21904,"pop":0},{"id":8435386,"name":"Avuanga","lon":26.61824,"lat":-2.77053,"pop":0},{"id":8143343,"name":"Avudjenguko","lon":30.45396,"lat":2.8841,"pop":0},{"id":220151,"name":"Avuluko","lon":26.51667,"lat":3.93333,"pop":0},{"id":220149,"name":"Avuruwando","lon":27.9392,"lat":4.42027,"pop":0},{"id":220148,"name":"Awago","lon":29.65884,"lat":3.40612,"pop":0},{"id":220147,"name":"Awande","lon":26.68333,"lat":3.43333,"pop":0},{"id":220146,"name":"Awango","lon":22.23333,"lat":-3.36667,"pop":0},{"id":220145,"name":"Awango-Dongo","alt":["Awangi","Awango"],"lon":22.3,"lat":-3.05,"pop":0},{"id":2317517,"name":"Awele","lon":18.80399,"lat":3.88813,"pop":0},{"id":220144,"name":"Awese","lon":27.7081,"lat":2.30738,"pop":0},{"id":8143112,"name":"Awilaba","lon":29.75525,"lat":2.76291,"pop":0},{"id":220143,"name":"Ayali","lon":28.91667,"lat":0.8,"pop":0},{"id":8329201,"name":"Ayali","lon":29.24755,"lat":0.87641,"pop":0},{"id":220142,"name":"Ayamba","lon":27.96667,"lat":2.33333,"pop":0},{"id":220141,"name":"Ayanza","lon":30.66667,"lat":2.5,"pop":0},{"id":8144062,"name":"Aye","lon":30.60978,"lat":3.21537,"pop":0},{"id":220140,"name":"Ayo","lon":27.94315,"lat":2.2724,"pop":0},{"id":220139,"name":"Ayoli","lon":28.58333,"lat":1.48333,"pop":0},{"id":8144009,"name":"Aywa","lon":30.03055,"lat":3.87413,"pop":0},{"id":220138,"name":"Aza","lon":30.21701,"lat":2.90195,"pop":0},{"id":8069459,"name":"Azakangwe","lon":27.53414,"lat":3.10469,"pop":0},{"id":220136,"name":"Azakuin","alt":["Azakuiri"],"lon":30.6,"lat":3,"pop":0},{"id":220135,"name":"Azambi","lon":29.55726,"lat":3.1741,"pop":0},{"id":220134,"name":"Azande","lon":28.69087,"lat":4.3451,"pop":0},{"id":8143639,"name":"Azanga","lon":25.96558,"lat":3.39998,"pop":0},{"id":220133,"name":"Azango","lon":28.38732,"lat":3.01441,"pop":0},{"id":8145545,"name":"Azangwe","lon":27.72735,"lat":2.78235,"pop":0},{"id":220132,"name":"Azapamba","alt":["Azabamba"],"lon":28.36209,"lat":1.7308,"pop":0},{"id":220131,"name":"Azapane","alt":["Azapana"],"lon":26.74828,"lat":2.58446,"pop":0},{"id":8062293,"name":"Azapane","lon":26.09507,"lat":2.64534,"pop":0},{"id":220130,"name":"Aziko","lon":30.69207,"lat":2.81201,"pop":0},{"id":220129,"name":"Azile","lon":29.88168,"lat":3.53273,"pop":0},{"id":220128,"name":"Azimogu","lon":29.34772,"lat":3.38013,"pop":0},{"id":8144026,"name":"Azindini","lon":30.66955,"lat":3.47535,"pop":0},{"id":220127,"name":"Azizima","lon":30.325,"lat":3.22244,"pop":0},{"id":8145552,"name":"Azuapoli","lon":27.88543,"lat":2.6767,"pop":0},{"id":8145524,"name":"Azubangwe","lon":27.34126,"lat":2.33119,"pop":0},{"id":8144069,"name":"Azupiniake","lon":30.61023,"lat":3.01161,"pop":0},{"id":8144021,"name":"Azuzia","lon":30.18892,"lat":3.61229,"pop":0},{"id":8223915,"name":"Ba","lon":28.38253,"lat":3.58122,"pop":0},{"id":2317516,"name":"Baaba","lon":18.55529,"lat":-5.47358,"pop":0},{"id":8433759,"name":"Baaba","lon":17.88585,"lat":-3.08453,"pop":0},{"id":7504921,"name":"Baazinga","lon":19.08038,"lat":2.0685,"pop":0},{"id":2317515,"name":"Baba","lon":18.31667,"lat":-4.68333,"pop":0},{"id":8446919,"name":"Baba","lon":18.10281,"lat":-3.7983,"pop":0},{"id":8143633,"name":"Bababebole","lon":25.75893,"lat":3.39103,"pop":0},{"id":220125,"name":"Babadi","lon":23.42104,"lat":-5.59563,"pop":0},{"id":8156835,"name":"Babafua","lon":27.94406,"lat":1.12739,"pop":0},{"id":220124,"name":"Babagulu","lon":27.25,"lat":0.5,"pop":0},{"id":8280771,"name":"Babagulu","lon":26.09135,"lat":0.63314,"pop":0},{"id":220123,"name":"Babagume","lon":25.97889,"lat":0.43389,"pop":0},{"id":220122,"name":"Babama","lon":25.15,"lat":0.48333,"pop":0},{"id":220121,"name":"Babamba","lon":27.48333,"lat":0.18333,"pop":0},{"id":220120,"name":"Babango","lon":26.61667,"lat":-0.68333,"pop":0},{"id":387537,"name":"Babangwa","lon":28.87056,"lat":-3.17583,"pop":0},{"id":220119,"name":"Babanjila","lon":24.63512,"lat":-9.67924,"pop":0},{"id":220118,"name":"Babayuki","alt":["Babavaki"],"lon":25.31667,"lat":0.25,"pop":0},{"id":220117,"name":"Babe","lon":27.79624,"lat":4.22573,"pop":0},{"id":2317513,"name":"Babegwa","lon":18.93554,"lat":4.09214,"pop":0},{"id":220116,"name":"Babeka","lon":25.23333,"lat":-0.76667,"pop":0},{"id":220114,"name":"Babeligo","lon":30.22855,"lat":2.76398,"pop":0},{"id":413049,"name":"Babelo","lon":22.43237,"lat":-5.71627,"pop":0},{"id":8049225,"name":"Babendja","lon":26.27011,"lat":1.86586,"pop":0},{"id":220113,"name":"Babengongo","alt":["Kayumba"],"lon":25.43433,"lat":-1.21638,"pop":0},{"id":220112,"name":"Babenza","lon":25.48952,"lat":1.64351,"pop":0},{"id":8049217,"name":"Babetiri","lon":26.45501,"lat":1.86187,"pop":0},{"id":7031018,"name":"Babetunana","lon":28.96979,"lat":1.39669,"pop":0},{"id":220111,"name":"Babeyru","alt":["Babeyro"],"lon":27.4449,"lat":1.87522,"pop":0},{"id":8156738,"name":"Babiakoto","lon":27.10081,"lat":1.70812,"pop":0},{"id":220109,"name":"Babidji","lon":25.95,"lat":-1.63333,"pop":0},{"id":220108,"name":"Babila","lon":24.47287,"lat":-5.59845,"pop":0},{"id":220107,"name":"Babimbi","lon":25.44303,"lat":-0.63045,"pop":0},{"id":220106,"name":"Babinde","alt":["Masiri"],"lon":25.78333,"lat":-1.4,"pop":0},{"id":2317425,"name":"Babinga","alt":["Bambinga"],"lon":18.89663,"lat":-3.70625,"pop":0},{"id":8022410,"name":"Babirigwa","lon":29.82351,"lat":3.35625,"pop":0},{"id":220105,"name":"Babise","lon":26.06094,"lat":1.83422,"pop":0},{"id":220104,"name":"Babiti","lon":27.62217,"lat":2.42617,"pop":0},{"id":8049224,"name":"Baboa","lon":26.29065,"lat":1.86454,"pop":0},{"id":220103,"name":"Baboandja","lon":25.18236,"lat":0.56925,"pop":0},{"id":220102,"name":"Babode","lon":25.38163,"lat":1.77306,"pop":0},{"id":8149840,"name":"Babode","lon":25.47126,"lat":1.31766,"pop":0},{"id":220101,"name":"Babogambei","lon":27.43112,"lat":0.24249,"pop":0},{"id":220099,"name":"Babogombe","alt":["Babongombe"],"lon":25.28333,"lat":0.3,"pop":0},{"id":220100,"name":"Babogombe","lon":25.54861,"lat":0.05639,"pop":0},{"id":443212,"name":"Babokambole","lon":25.96172,"lat":0.41749,"pop":0},{"id":220097,"name":"Babokoti","alt":["Babokoli"],"lon":25.35,"lat":0.38333,"pop":0},{"id":220096,"name":"Babole-Amundala","lon":27.86667,"lat":-0.35,"pop":0},{"id":8049171,"name":"Baboma","lon":26.44479,"lat":1.81235,"pop":0},{"id":220081,"name":"Babonda","alt":["Babunda"],"lon":27.67815,"lat":1.40316,"pop":0},{"id":220094,"name":"Babonde","lon":27.58078,"lat":2.25618,"pop":0},{"id":220095,"name":"Babonde","lon":26.48647,"lat":2.25136,"pop":0},{"id":8025476,"name":"Babondo","lon":29.37026,"lat":3.34174,"pop":0},{"id":220093,"name":"Babonge","lon":25.83639,"lat":0.5825,"pop":0},{"id":220092,"name":"Babongena","lon":25.73673,"lat":0.49081,"pop":0},{"id":220091,"name":"Babongie","lon":25.84602,"lat":0.55502,"pop":0},{"id":8280723,"name":"Babongie","lon":25.8424,"lat":0.37589,"pop":0},{"id":8280724,"name":"Babongombe","lon":25.93109,"lat":0.41041,"pop":0},{"id":220090,"name":"Baboniami","lon":27.75,"lat":0.98333,"pop":0},{"id":220088,"name":"Babote","lon":24.95159,"lat":-0.54909,"pop":0},{"id":220089,"name":"Babote","lon":25.1,"lat":-0.23333,"pop":0},{"id":220079,"name":"Babu-Runge","alt":["Babu"],"lon":29.11536,"lat":3.64614,"pop":0},{"id":220087,"name":"Babudjala","lon":25.78333,"lat":0.53333,"pop":0},{"id":220086,"name":"Babuede","lon":26.36667,"lat":3.13333,"pop":0},{"id":220098,"name":"Babugombe","alt":["Babogombe"],"lon":27.24201,"lat":0.42107,"pop":0},{"id":220085,"name":"Babugulu","lon":25.63659,"lat":0.47538,"pop":0},{"id":220084,"name":"Babukongo","alt":["Mulamba"],"lon":25.54174,"lat":-1.36253,"pop":0},{"id":220082,"name":"Babule","lon":26.26667,"lat":0.76667,"pop":0},{"id":220083,"name":"Babule","lon":27.35,"lat":0.33333,"pop":0},{"id":220080,"name":"Babundji","lon":24.95,"lat":0.53333,"pop":0},{"id":8246796,"name":"Baburu","lon":21.17961,"lat":4.29272,"pop":0},{"id":8062296,"name":"Babusa","lon":26.22949,"lat":2.67159,"pop":0},{"id":8280727,"name":"Babusako","lon":25.32113,"lat":0.2084,"pop":0},{"id":220078,"name":"Babuse","lon":25.93717,"lat":0.47827,"pop":0},{"id":220077,"name":"Babute","lon":25.3,"lat":0.2,"pop":0},{"id":220076,"name":"Babuya","lon":26.89559,"lat":4.63745,"pop":0},{"id":220074,"name":"Babwanjao","lon":25.88872,"lat":0.54779,"pop":0},{"id":2317511,"name":"Bada","lon":19.78676,"lat":5.08549,"pop":0},{"id":2317512,"name":"Bada","lon":19.71328,"lat":4.99016,"pop":0},{"id":220073,"name":"Badati","lon":25.9576,"lat":1.95813,"pop":0},{"id":220072,"name":"Bade","lon":23.16927,"lat":2.5745,"pop":0},{"id":2317510,"name":"Badegba","lon":19.06933,"lat":4.00549,"pop":0},{"id":8149715,"name":"Badenga","lon":25.36102,"lat":1.96691,"pop":0},{"id":8243989,"name":"Badia","lon":20.84788,"lat":4.16824,"pop":0},{"id":8328989,"name":"Badianana","lon":22.78633,"lat":-5.74636,"pop":0},{"id":220070,"name":"Badibanga","lon":23.39669,"lat":-5.89706,"pop":0},{"id":413139,"name":"Badibanga","lon":22.26254,"lat":-5.95103,"pop":0},{"id":8283026,"name":"Badibanga","lon":20.83535,"lat":-6.22849,"pop":0},{"id":8284498,"name":"Badibanga-Makubakuba","lon":22.75965,"lat":-6.38192,"pop":0},{"id":8277461,"name":"Badibange","lon":21.51663,"lat":-5.46696,"pop":0},{"id":220069,"name":"Badibu","lon":26.01667,"lat":0.6,"pop":0},{"id":2317509,"name":"Badibundu","lon":18.35752,"lat":-4.67325,"pop":0},{"id":220068,"name":"Badigba","lon":25.18333,"lat":3.06667,"pop":0},{"id":8145563,"name":"Badigo","lon":27.55255,"lat":2.20964,"pop":0},{"id":220067,"name":"Badile","lon":25.18333,"lat":0.9,"pop":0},{"id":8145202,"name":"Badile","lon":25.64648,"lat":2.06473,"pop":0},{"id":220066,"name":"Badingale","lon":23.83333,"lat":-4.88333,"pop":0},{"id":8280420,"name":"Badiya","alt":["Badya"],"lon":30.02129,"lat":1.48248,"pop":0},{"id":220063,"name":"Badja","alt":["Bauza","Bwaza"],"lon":20.65361,"lat":3.90494,"pop":0},{"id":2317506,"name":"Badja","lon":19.95891,"lat":4.58542,"pop":0},{"id":2317507,"name":"Badja","lon":18.8025,"lat":3.75347,"pop":0},{"id":8239021,"name":"Badja","lon":19.69964,"lat":4.9493,"pop":0},{"id":8246392,"name":"Badja","lon":20.6722,"lat":4.31813,"pop":0},{"id":220061,"name":"Badja Deuxième","alt":["Badja Deuxieme","Badja II"],"lon":19.99832,"lat":4.47453,"pop":0},{"id":220062,"name":"Badja Première","alt":["Badja I","Badja Premiere"],"lon":19.99311,"lat":4.49279,"pop":0},{"id":220060,"name":"Badjamba","lon":24.27109,"lat":1.32023,"pop":0},{"id":220059,"name":"Badjangele","lon":22.78333,"lat":-4.3,"pop":0},{"id":220057,"name":"Badjenge","lon":25.25333,"lat":1.39423,"pop":0},{"id":220058,"name":"Badjenge","lon":25.25982,"lat":1.35363,"pop":0},{"id":8280421,"name":"Badjo","lon":30.41451,"lat":1.92925,"pop":0},{"id":220056,"name":"Badjoge","lon":25.27109,"lat":1.046,"pop":0},{"id":8149769,"name":"Badjoge","lon":25.28781,"lat":1.4753,"pop":0},{"id":8144079,"name":"Badjube","lon":30.16323,"lat":3.32715,"pop":0},{"id":2317505,"name":"Bado","lon":18.68162,"lat":3.43602,"pop":0},{"id":2317503,"name":"Bado-Mbamba","lon":18.63716,"lat":3.5405,"pop":0},{"id":2317504,"name":"Badokwa","lon":18.63333,"lat":4.35,"pop":0},{"id":220055,"name":"Badombe","lon":25.44104,"lat":1.35211,"pop":0},{"id":220054,"name":"Badombila","alt":["Bodambila"],"lon":25.27294,"lat":1.10517,"pop":0},{"id":220053,"name":"Badri","lon":29.81644,"lat":4.03521,"pop":0},{"id":8156782,"name":"Baduau","lon":27.41858,"lat":1.15567,"pop":0},{"id":220052,"name":"Badudu","lon":27.76961,"lat":2.36033,"pop":0},{"id":220050,"name":"Baduka","lon":27.26667,"lat":0.48333,"pop":0},{"id":220051,"name":"Baduka","lon":25.58333,"lat":0.08333,"pop":0},{"id":220049,"name":"Badumbe","lon":23.99182,"lat":1.53113,"pop":0},{"id":220048,"name":"Badumbi","alt":["Wadumbi"],"lon":25.29886,"lat":0.71969,"pop":0},{"id":220047,"name":"Badumbu","lon":27.55,"lat":1.08333,"pop":0},{"id":220046,"name":"Badzamane","alt":["Bazamane"],"lon":25.27268,"lat":1.43839,"pop":0},{"id":220045,"name":"Badzanga","lon":30.06714,"lat":1.22228,"pop":0},{"id":8145455,"name":"Badzata","lon":27.67,"lat":2.54287,"pop":0},{"id":220044,"name":"Badzenge","lon":27.62618,"lat":1.05815,"pop":0},{"id":8149865,"name":"Badzoge","lon":25.26578,"lat":1.42043,"pop":0},{"id":220043,"name":"Badzombali","lon":20.03415,"lat":3.13008,"pop":0},{"id":8445790,"name":"Bae-Bao","lon":17.68318,"lat":-4.35916,"pop":0},{"id":220042,"name":"Baego","alt":["Baeco","Bayego"],"lon":26.25774,"lat":0.77038,"pop":0},{"id":8143625,"name":"Baegu","lon":25.64277,"lat":3.50634,"pop":0},{"id":220041,"name":"Baema","lon":23.75111,"lat":1.17823,"pop":0},{"id":220040,"name":"Baenga","lon":22.31941,"lat":1.45833,"pop":0},{"id":8249920,"name":"Baenga","lon":22.30894,"lat":1.49964,"pop":0},{"id":220039,"name":"Baengu","lon":23.62375,"lat":2.44946,"pop":0},{"id":8143614,"name":"Baepolo","lon":25.86947,"lat":3.98548,"pop":0},{"id":220037,"name":"Bafaka","lon":20.88333,"lat":-1.8,"pop":0},{"id":220038,"name":"Bafaka","lon":20.89618,"lat":1.51958,"pop":0},{"id":220036,"name":"Bafaki","lon":20.65,"lat":-1.6,"pop":0},{"id":2317502,"name":"Bafaki","alt":["Befaki"],"lon":19.71667,"lat":-1.6,"pop":0},{"id":220035,"name":"Bafale","lon":25.29557,"lat":-0.3685,"pop":0},{"id":220034,"name":"Bafeko","lon":24.13333,"lat":-2.08333,"pop":0},{"id":220033,"name":"Bafili","lon":20.61667,"lat":-0.25,"pop":0},{"id":9997652,"name":"Bafini","lon":24.73638,"lat":-6.08571,"pop":0},{"id":8149558,"name":"Bafo","lon":24.56959,"lat":1.26942,"pop":0},{"id":2317501,"name":"Bafolo","lon":19.26491,"lat":0.36539,"pop":0},{"id":8328979,"name":"Bafuangongo","lon":22.92849,"lat":-5.90163,"pop":0},{"id":220032,"name":"Bafuka","lon":28.5389,"lat":3.33819,"pop":0},{"id":220031,"name":"Bafuku","alt":["Bafuka"],"lon":27.9048,"lat":4.15591,"pop":0},{"id":206451,"name":"Bafule","alt":["Pafule"],"lon":24.72807,"lat":-5.06858,"pop":0},{"id":8433096,"name":"Bafuloko","alt":["Kilongalonga"],"lon":25.75619,"lat":-1.41914,"pop":0},{"id":8249886,"name":"Bafwa-Meta","lon":21.10157,"lat":-4.4329,"pop":0},{"id":220029,"name":"Bafwabaka","lon":27.67852,"lat":2.12058,"pop":0},{"id":220030,"name":"Bafwabaka","lon":27.38333,"lat":0.58333,"pop":0},{"id":220028,"name":"Bafwabala","lon":27.18333,"lat":0.6,"pop":0},{"id":220027,"name":"Bafwabalinga","lon":26.98169,"lat":0.83711,"pop":0},{"id":220026,"name":"Bafwabe","lon":28.07692,"lat":1.41079,"pop":0},{"id":220025,"name":"Bafwabena","lon":27.73226,"lat":1.61859,"pop":0},{"id":8156740,"name":"Bafwabenga","lon":27.07872,"lat":1.23037,"pop":0},{"id":220024,"name":"Bafwabenge","lon":26.98265,"lat":1.3522,"pop":0},{"id":220023,"name":"Bafwabili","lon":26.08037,"lat":0.94332,"pop":0},{"id":220022,"name":"Bafwabiobo","lon":26.43239,"lat":1.52079,"pop":0},{"id":220020,"name":"Bafwabogbo","alt":["Bafwagbogbo"],"lon":26.57745,"lat":1.67792,"pop":0},{"id":220021,"name":"Bafwabogbo","lon":27.59875,"lat":1.12563,"pop":0},{"id":8156808,"name":"Bafwabokon","lon":27.55727,"lat":1.14008,"pop":0},{"id":220019,"name":"Bafwaboli","lon":26.13737,"lat":0.63537,"pop":0},{"id":8156800,"name":"Bafwabolongo","lon":27.54014,"lat":1.20222,"pop":0},{"id":220018,"name":"Bafwaboto","lon":26.9154,"lat":1.69168,"pop":0},{"id":8156761,"name":"Bafwabuko","lon":27.30539,"lat":1.79435,"pop":0},{"id":8156739,"name":"Bafwabuku","lon":27.20872,"lat":1.7827,"pop":0},{"id":220017,"name":"Bafwadambo","lon":27.36667,"lat":0.81667,"pop":0},{"id":8049207,"name":"Bafwadangu","lon":26.71521,"lat":1.97355,"pop":0},{"id":220016,"name":"Bafwadei","lon":27.03333,"lat":1.66667,"pop":0},{"id":220015,"name":"Bafwadema","lon":27.9,"lat":1.85,"pop":0},{"id":220014,"name":"Bafwadili","lon":27.45,"lat":0.71667,"pop":0},{"id":220013,"name":"Bafwagadi","lon":25.9643,"lat":1.0584,"pop":0},{"id":8049248,"name":"Bafwagali","lon":26.87823,"lat":1.64694,"pop":0},{"id":8149810,"name":"Bafwagambo","lon":25.91395,"lat":1.4014,"pop":0},{"id":220012,"name":"Bafwagamea","lon":26.26667,"lat":1.36667,"pop":0},{"id":220011,"name":"Bafwagbese","lon":27.77798,"lat":1.42858,"pop":0},{"id":220010,"name":"Bafwagbolo","lon":26.98761,"lat":1.5836,"pop":0},{"id":220009,"name":"Bafwagbongu","lon":26.55,"lat":0.9,"pop":0},{"id":8156744,"name":"Bafwagbota","lon":27.02225,"lat":1.53186,"pop":0},{"id":220008,"name":"Bafwagbouma","lon":27.31667,"lat":1.13333,"pop":0},{"id":220007,"name":"Bafwageseni","lon":26.35,"lat":2.38333,"pop":0},{"id":8049268,"name":"Bafwageseni","lon":26.34105,"lat":1.39386,"pop":0},{"id":8156847,"name":"Bafwaghera","lon":27.77222,"lat":1.42112,"pop":0},{"id":8049190,"name":"Bafwagono","lon":26.85215,"lat":1.09569,"pop":0},{"id":220005,"name":"Bafwagosa","lon":26.42573,"lat":1.46786,"pop":0},{"id":220006,"name":"Bafwagosa","lon":26.75,"lat":1.15,"pop":0},{"id":8149809,"name":"Bafwaie","lon":25.91796,"lat":1.45372,"pop":0},{"id":220004,"name":"Bafwaio","lon":27.57877,"lat":1.33935,"pop":0},{"id":220003,"name":"Bafwaitu","lon":25.96254,"lat":1.19281,"pop":0},{"id":220002,"name":"Bafwakage","lon":27.10316,"lat":1.18952,"pop":0},{"id":8156798,"name":"Bafwakalolo","lon":27.53365,"lat":1.24287,"pop":0},{"id":220001,"name":"Bafwakao","lon":27.92652,"lat":1.38054,"pop":0},{"id":220000,"name":"Bafwakase","lon":27.26996,"lat":1.78701,"pop":0},{"id":219999,"name":"Bafwakato","alt":["Bafwakate"],"lon":26.3011,"lat":1.28773,"pop":0},{"id":219998,"name":"Bafwakengo","lon":27.2,"lat":0.56667,"pop":0},{"id":219997,"name":"Bafwakenzi","lon":27.4,"lat":0.61667,"pop":0},{"id":219996,"name":"Bafwakipuo","lon":27.1163,"lat":0.93869,"pop":0},{"id":8156742,"name":"Bafwakoi","lon":27.06011,"lat":1.69226,"pop":0},{"id":219995,"name":"Bafwakolio","lon":26.91127,"lat":1.66038,"pop":0},{"id":219994,"name":"Bafwakombo","lon":27.12965,"lat":1.06472,"pop":0},{"id":8156757,"name":"Bafwakombo","lon":27.08657,"lat":1.00533,"pop":0},{"id":219993,"name":"Bafwakondima","lon":26.59698,"lat":0.87674,"pop":0},{"id":219992,"name":"Bafwakoto","lon":27.35,"lat":0.58333,"pop":0},{"id":219991,"name":"Bafwakozua","alt":["Bafwakozuo"],"lon":26.86727,"lat":1.82948,"pop":0},{"id":219990,"name":"Bafwakubi","lon":27.52715,"lat":1.23494,"pop":0},{"id":219989,"name":"Bafwakudji","lon":26.90295,"lat":1.73465,"pop":0},{"id":219988,"name":"Bafwakumu","lon":26.55783,"lat":1.73295,"pop":0},{"id":8049194,"name":"Bafwakwama","lon":26.30406,"lat":1.32441,"pop":0},{"id":8049199,"name":"Bafwakwandji","alt":["Bafwakandji"],"lon":26.84458,"lat":1.15071,"pop":0},{"id":8156785,"name":"Bafwakweni","lon":27.28215,"lat":1.08667,"pop":0},{"id":8156799,"name":"Bafwakwetu","lon":27.55658,"lat":1.26921,"pop":0},{"id":8149820,"name":"Bafwalia","lon":25.95212,"lat":1.30402,"pop":0},{"id":219986,"name":"Bafwalipa","lon":27.06667,"lat":1.31667,"pop":0},{"id":219987,"name":"Bafwalipa","lon":26.82391,"lat":1.08174,"pop":0},{"id":219985,"name":"Bafwaloya","lon":27.55,"lat":0.76667,"pop":0},{"id":219984,"name":"Bafwaluza","lon":27.3,"lat":1.01667,"pop":0},{"id":8049178,"name":"Bafwamaboku","lon":26.96902,"lat":1.44802,"pop":0},{"id":219983,"name":"Bafwamabulu","lon":25.90619,"lat":1.43884,"pop":0},{"id":8156807,"name":"Bafwamabusu","lon":27.70916,"lat":1.281,"pop":0},{"id":8049193,"name":"Bafwamadebu","lon":26.30242,"lat":1.31691,"pop":0},{"id":219982,"name":"Bafwamadiboko","lon":26.02998,"lat":1.03575,"pop":0},{"id":219981,"name":"Bafwamadubulu","alt":["Bafwamabubulu","Bafwamabululu"],"lon":26.08523,"lat":1.41608,"pop":0},{"id":219979,"name":"Bafwamalambu","lon":26.01667,"lat":1.36667,"pop":0},{"id":219978,"name":"Bafwamamba","lon":27.10917,"lat":1.82839,"pop":0},{"id":219977,"name":"Bafwamambele","lon":27.95,"lat":1.63333,"pop":0},{"id":219976,"name":"Bafwamane","alt":["Bafwanane"],"lon":27.23159,"lat":1.78954,"pop":0},{"id":219975,"name":"Bafwamangoro","lon":26.89334,"lat":1.79461,"pop":0},{"id":8156737,"name":"Bafwamangoro","lon":27.08537,"lat":1.86016,"pop":0},{"id":219974,"name":"Bafwamasia","lon":27.63676,"lat":2.18834,"pop":0},{"id":219973,"name":"Bafwamasoa","alt":["Bafwamazoa"],"lon":27.83276,"lat":1.40491,"pop":0},{"id":8156749,"name":"Bafwamata","lon":27.01977,"lat":1.39,"pop":0},{"id":8049179,"name":"Bafwamate","lon":26.98291,"lat":1.47538,"pop":0},{"id":219971,"name":"Bafwambako","lon":26.54494,"lat":1.79603,"pop":0},{"id":219972,"name":"Bafwambako","lon":27.28333,"lat":1.1,"pop":0},{"id":8538605,"name":"Bafwambako","lon":27.17146,"lat":1.01721,"pop":0},{"id":219970,"name":"Bafwambalo","lon":27.2,"lat":0.98333,"pop":0},{"id":8156820,"name":"Bafwambawe","lon":27.81373,"lat":1.71753,"pop":0},{"id":219969,"name":"Bafwambela","lon":26.71667,"lat":0.93333,"pop":0},{"id":8049198,"name":"Bafwambogo","lon":26.08523,"lat":1.46769,"pop":0},{"id":8149693,"name":"Bafwambogo","lon":25.94825,"lat":1.46534,"pop":0},{"id":8049265,"name":"Bafwamboko","lon":26.85204,"lat":1.09154,"pop":0},{"id":219966,"name":"Bafwamboma","alt":["Bafwamboma-Imva"],"lon":27.36068,"lat":1.8213,"pop":0},{"id":219967,"name":"Bafwamboma","lon":25.93157,"lat":1.32419,"pop":0},{"id":219965,"name":"Bafwambosi","lon":26.71667,"lat":0.93333,"pop":0},{"id":219964,"name":"Bafwametinda","lon":26.94843,"lat":0.82473,"pop":0},{"id":219963,"name":"Bafwamiti","alt":["Bafwamati"],"lon":27.5713,"lat":1.16013,"pop":0},{"id":219962,"name":"Bafwamogo","lon":26.43333,"lat":0.86667,"pop":0},{"id":7030968,"name":"Bafwamoubu","lon":28.15762,"lat":1.43256,"pop":0},{"id":219980,"name":"Bafwanakokoko","alt":["Bafwamakokoko"],"lon":26.76646,"lat":1.64266,"pop":0},{"id":8049247,"name":"Bafwanamaija","lon":26.77916,"lat":1.64417,"pop":0},{"id":219961,"name":"Bafwanameto","lon":26.74305,"lat":1.62029,"pop":0},{"id":219960,"name":"Bafwananze","lon":27.89037,"lat":1.90521,"pop":0},{"id":8156762,"name":"Bafwanbabo","lon":27.25217,"lat":1.78532,"pop":0},{"id":219959,"name":"Bafwandambo","lon":26.37328,"lat":0.82488,"pop":0},{"id":8049210,"name":"Bafwandebona","lon":26.87335,"lat":1.85828,"pop":0},{"id":8049206,"name":"Bafwandei","lon":26.69919,"lat":1.98012,"pop":0},{"id":219958,"name":"Bafwandeko","lon":27.4,"lat":0.66667,"pop":0},{"id":219957,"name":"Bafwandomo","lon":26.03098,"lat":1.38203,"pop":0},{"id":8156806,"name":"Bafwanduba","lon":27.68352,"lat":1.29866,"pop":0},{"id":219956,"name":"Bafwandukoni","alt":["Bafwadukoni"],"lon":27.15,"lat":0.9,"pop":0},{"id":219955,"name":"Bafwanenzeke","lon":27.38333,"lat":0.83333,"pop":0},{"id":219954,"name":"Bafwangbe","lon":26.86034,"lat":1.63581,"pop":0},{"id":8049196,"name":"Bafwangbenda","lon":26.30215,"lat":1.35004,"pop":0},{"id":8049183,"name":"Bafwangbesie","lon":26.66285,"lat":1.63162,"pop":0},{"id":219953,"name":"Bafwangbesolo","lon":27.11248,"lat":0.8027,"pop":0},{"id":219952,"name":"Bafwangbetebo","lon":27.02227,"lat":1.5252,"pop":0},{"id":8149811,"name":"Bafwangbodi","lon":25.91931,"lat":1.37042,"pop":0},{"id":8156758,"name":"Bafwangbou","lon":27.18343,"lat":1.03856,"pop":0},{"id":8156759,"name":"Bafwangbouma","lon":27.20355,"lat":1.06415,"pop":0},{"id":8049269,"name":"Bafwangbuma","lon":26.36064,"lat":1.41047,"pop":0},{"id":8049166,"name":"Bafwangele","lon":26.7754,"lat":1.92552,"pop":0},{"id":8156780,"name":"Bafwaniama","lon":27.34061,"lat":1.13215,"pop":0},{"id":219951,"name":"Bafwanzama","lon":26.59271,"lat":1.8902,"pop":0},{"id":219950,"name":"Bafwanzebona","lon":27.45,"lat":0.83333,"pop":0},{"id":8049195,"name":"Bafwanzengba","lon":26.30515,"lat":1.33968,"pop":0},{"id":219949,"name":"Bafwanzoku","lon":27.89426,"lat":1.91328,"pop":0},{"id":8049168,"name":"Bafwanzua","lon":26.66426,"lat":1.94488,"pop":0},{"id":219948,"name":"Bafwapada","lon":26.83325,"lat":0.87021,"pop":0},{"id":8156862,"name":"Bafwapaye","lon":27.38063,"lat":1.14979,"pop":0},{"id":219947,"name":"Bafwapipoyo","lon":26.09349,"lat":1.41231,"pop":0},{"id":8156838,"name":"Bafwapishe","lon":27.03742,"lat":1.01487,"pop":0},{"id":219946,"name":"Bafwapisho","lon":27.18333,"lat":1.08333,"pop":0},{"id":219945,"name":"Bafwapoka","alt":["Bafwapoba"],"lon":27.46973,"lat":1.20009,"pop":0},{"id":219944,"name":"Bafwapombu","lon":26.3076,"lat":1.38111,"pop":0},{"id":219943,"name":"Bafwasagba","lon":27.11068,"lat":1.16845,"pop":0},{"id":8049245,"name":"Bafwasaka","lon":26.97639,"lat":1.44075,"pop":0},{"id":8156746,"name":"Bafwasaka","lon":27.00723,"lat":1.32345,"pop":0},{"id":219942,"name":"Bafwasale","lon":26.62821,"lat":1.63405,"pop":0},{"id":219941,"name":"Bafwasana","lon":27.33178,"lat":1.12329,"pop":0},{"id":219940,"name":"Bafwaseba","lon":26.60469,"lat":1.67056,"pop":0},{"id":219939,"name":"Bafwasele","lon":27.17404,"lat":1.75972,"pop":0},{"id":219938,"name":"Bafwasende","lon":27.16095,"lat":1.00726,"pop":0},{"id":219936,"name":"Bafwasengi","alt":["Bafwasenge"],"lon":26.55288,"lat":1.79746,"pop":0},{"id":8049212,"name":"Bafwasengi","lon":26.86137,"lat":1.88175,"pop":0},{"id":8538606,"name":"Bafwasengule","lon":27.37668,"lat":1.13963,"pop":0},{"id":219935,"name":"Bafwasiambo","lon":25.9303,"lat":1.45692,"pop":0},{"id":8049181,"name":"Bafwasokuto","lon":26.98728,"lat":1.60776,"pop":0},{"id":219934,"name":"Bafwasomboli","alt":["Bafwambuku","Bafwasombuli"],"lon":26.98221,"lat":1.42901,"pop":0},{"id":219933,"name":"Bafwasongoni","lon":27.13333,"lat":0.75,"pop":0},{"id":219932,"name":"Bafwatebu","lon":27.11348,"lat":1.16237,"pop":0},{"id":219931,"name":"Bafwatende","lon":27.73913,"lat":1.4085,"pop":0},{"id":219930,"name":"Bafwatete","lon":25.96151,"lat":1.25804,"pop":0},{"id":219928,"name":"Bafwatibi","lon":26.85993,"lat":1.87585,"pop":0},{"id":219929,"name":"Bafwatibi","lon":26.45716,"lat":1.58361,"pop":0},{"id":8049211,"name":"Bafwatoko","lon":26.87037,"lat":1.86966,"pop":0},{"id":8156747,"name":"Bafwatomboli","lon":27.01313,"lat":1.32184,"pop":0},{"id":219927,"name":"Bafwatongono","alt":["Bafwa Tundji","Bafwatundji","Bavatongono"],"lon":27.21863,"lat":1.07099,"pop":0},{"id":219926,"name":"Bafwatukwele","lon":27.13333,"lat":0.88333,"pop":0},{"id":8049182,"name":"Bafwayabu","lon":26.99764,"lat":1.63667,"pop":0},{"id":8156784,"name":"Bafwazana","lon":27.2787,"lat":1.08858,"pop":0},{"id":219925,"name":"Bafwazenge","lon":26.84032,"lat":1.02452,"pop":0},{"id":219924,"name":"Bafwazengule","alt":["Bafwanzegule","Bafwazegule"],"lon":27.35409,"lat":1.17062,"pop":0},{"id":219923,"name":"Bafwazio","alt":["Bafwasio"],"lon":26.55032,"lat":1.82095,"pop":0},{"id":218653,"name":"Bafwazoko","alt":["Bofwazoko"],"lon":26.57087,"lat":1.86826,"pop":0},{"id":219922,"name":"Bafwazombi","lon":26.75487,"lat":1.94115,"pop":0},{"id":8156793,"name":"Bafweamoe","lon":27.67416,"lat":1.54327,"pop":0},{"id":8238567,"name":"Baga","lon":22.16387,"lat":3.49542,"pop":0},{"id":8243982,"name":"Baga","alt":["Banga Premiere","Banga Première"],"lon":20.6249,"lat":4.28632,"pop":0},{"id":8243980,"name":"Baga Deuxième","alt":["Baga Deuxieme","Banga Deuxieme","Banga Deuxième"],"lon":20.66289,"lat":4.3125,"pop":0},{"id":8143621,"name":"Bagabe","lon":25.88208,"lat":3.53363,"pop":0},{"id":219920,"name":"Bagale","lon":29.76788,"lat":3.71703,"pop":0},{"id":219919,"name":"Bagalia","lon":26.46667,"lat":-0.38333,"pop":0},{"id":219918,"name":"Bagaliena","lon":20.43975,"lat":3.40892,"pop":0},{"id":219917,"name":"Bagara","lon":25.48193,"lat":1.92427,"pop":0},{"id":2317498,"name":"Bagata","lon":17.28327,"lat":-6.52591,"pop":0},{"id":2317499,"name":"Bagata","lon":18.76737,"lat":-4.8234,"pop":0},{"id":2317500,"name":"Bagata","lon":17.9536,"lat":-3.72466,"pop":0},{"id":8541637,"name":"Bagata Moke","lon":17.90897,"lat":-3.69804,"pop":0},{"id":8445926,"name":"Bagata-Mbamu","lon":17.16339,"lat":-4.97795,"pop":0},{"id":8274444,"name":"Bagato","lon":17.40248,"lat":-5.02738,"pop":0},{"id":8049204,"name":"Bagba","lon":26.06257,"lat":1.83832,"pop":0},{"id":8247586,"name":"Bagba","lon":22.45813,"lat":4.07578,"pop":0},{"id":219915,"name":"Bagbadje","lon":25.75442,"lat":1.69597,"pop":0},{"id":7504836,"name":"Bagbakadi","lon":19.64511,"lat":2.876,"pop":0},{"id":219914,"name":"Bagbala","lon":27.32065,"lat":3.18521,"pop":0},{"id":219898,"name":"Bagbangana","alt":["Baghangana"],"lon":25.08668,"lat":0.5324,"pop":0},{"id":219911,"name":"Bagbasingbe","lon":25.3,"lat":0.66667,"pop":0},{"id":219910,"name":"Bagbaya","lon":25.99319,"lat":3.46046,"pop":0},{"id":8143423,"name":"Bagbaya","lon":25.98616,"lat":3.31432,"pop":0},{"id":219909,"name":"Bagbe","lon":25.76751,"lat":2.11366,"pop":0},{"id":219908,"name":"Bagbele","lon":29.29054,"lat":4.34882,"pop":0},{"id":219907,"name":"Bagbetambi","alt":["Agwetambi","Magwetambi"],"lon":23.933,"lat":1.72093,"pop":0},{"id":2317496,"name":"Bagbo","lon":18.95765,"lat":4.44177,"pop":0},{"id":219905,"name":"Bagbunda","lon":25.85736,"lat":1.77604,"pop":0},{"id":219906,"name":"Bagbunda","lon":25.40195,"lat":1.47154,"pop":0},{"id":219904,"name":"Bagburu","lon":29.67918,"lat":1.36335,"pop":0},{"id":219903,"name":"Bage","lon":27.66667,"lat":0.65,"pop":0},{"id":219900,"name":"Bage Deuxième","alt":["Bage Deuxieme","Bage II"],"lon":26.10429,"lat":1.84886,"pop":0},{"id":219901,"name":"Bage Première","alt":["Bage I","Bage Premiere"],"lon":26.24317,"lat":1.86906,"pop":0},{"id":219902,"name":"Bagedaniongo","lon":27.48333,"lat":0.6,"pop":0},{"id":219899,"name":"Bagena","lon":30.21667,"lat":1.85,"pop":0},{"id":219562,"name":"Bagerelita","alt":["Bangelelita","Bangetelita","Bayerelita"],"lon":22.2865,"lat":3.73314,"pop":0},{"id":219896,"name":"Bagi","lon":22.99397,"lat":4.66915,"pop":0},{"id":219897,"name":"Bagi","lon":23.1971,"lat":4.10163,"pop":0},{"id":8247607,"name":"Bagi","lon":22.47361,"lat":4.1209,"pop":0},{"id":443207,"name":"Bagiba","lon":25.50278,"lat":0.46639,"pop":0},{"id":8246400,"name":"Bagilo","lon":20.56171,"lat":4.28073,"pop":0},{"id":8246401,"name":"Bagilo-Moke","lon":20.5166,"lat":4.26641,"pop":0},{"id":219894,"name":"Bagine","lon":24.40317,"lat":3.77531,"pop":0},{"id":219893,"name":"Bagnaza","alt":["Yambayamba"],"lon":25.73333,"lat":-1.2,"pop":0},{"id":219892,"name":"Bagno","lon":26.58215,"lat":2.96321,"pop":0},{"id":219891,"name":"Bagola","lon":25.33333,"lat":1.85,"pop":0},{"id":8049218,"name":"Bagola","lon":26.32832,"lat":1.86696,"pop":0},{"id":219890,"name":"Bagota","lon":29.93846,"lat":1.50664,"pop":0},{"id":219889,"name":"Bagua","alt":["Bage"],"lon":23.11075,"lat":4.52314,"pop":0},{"id":2317494,"name":"Bagukugu","lon":19.14278,"lat":4.61119,"pop":0},{"id":219887,"name":"Bagule","lon":26.47951,"lat":1.87742,"pop":0},{"id":219886,"name":"Baguma","alt":["Baguna"],"lon":20.2598,"lat":2.49891,"pop":0},{"id":219885,"name":"Bagwase","alt":["Ugwasi"],"lon":25.24927,"lat":-0.36358,"pop":0},{"id":219884,"name":"Bahaha","alt":["Mahaha"],"lon":29.35393,"lat":1.39454,"pop":0},{"id":219883,"name":"Bahale","lon":25.31625,"lat":1.02772,"pop":0},{"id":219882,"name":"Bahanga","lon":23.99046,"lat":1.44673,"pop":0},{"id":219881,"name":"Bahayo","lon":25.59041,"lat":1.67968,"pop":0},{"id":219589,"name":"Bahgala","alt":["Bangala"],"lon":27.59416,"lat":3.83868,"pop":0},{"id":219878,"name":"Bahoto","lon":25.41667,"lat":-0.71667,"pop":0},{"id":219877,"name":"Bahulu","lon":23.15188,"lat":1.60562,"pop":0},{"id":8238455,"name":"Bahuma","lon":22.63993,"lat":3.02225,"pop":0},{"id":219875,"name":"Bahume","lon":25.21667,"lat":1.16667,"pop":0},{"id":8149861,"name":"Bahume","lon":25.2755,"lat":1.2519,"pop":0},{"id":8149862,"name":"Bahume","lon":25.26091,"lat":1.3441,"pop":0},{"id":8327203,"name":"Bai-Munianga","lon":21.99632,"lat":-6.0613,"pop":0},{"id":219874,"name":"Baido","lon":30.2006,"lat":3.12665,"pop":0},{"id":8277345,"name":"Baie","lon":21.21367,"lat":-5.8442,"pop":0},{"id":8277446,"name":"Baie","lon":21.44929,"lat":-5.36804,"pop":0},{"id":219873,"name":"Baie-Kamoshi","alt":["Bayi-Kamoshi","Bayikamoshi"],"lon":21.21173,"lat":-5.9467,"pop":0},{"id":219872,"name":"Baie-Musenge","alt":["Bay Musenge"],"lon":23.38743,"lat":-7.60496,"pop":0},{"id":219871,"name":"Baikuba","alt":["Kaminamina"],"lon":25.55302,"lat":-1.39662,"pop":0},{"id":219870,"name":"Baileko","lon":25.66667,"lat":-1.01667,"pop":0},{"id":219869,"name":"Baimana","alt":["Nduba"],"lon":25.67692,"lat":-1.32446,"pop":0},{"id":8280495,"name":"Baimani","lon":30.28986,"lat":1.80694,"pop":0},{"id":8143624,"name":"Baime","lon":25.62831,"lat":3.50042,"pop":0},{"id":219868,"name":"Bainga","lon":22.47535,"lat":4.07087,"pop":0},{"id":8143627,"name":"Baira","lon":25.56653,"lat":3.47739,"pop":0},{"id":219866,"name":"Baisa","lon":22.17216,"lat":2.34874,"pop":0},{"id":219864,"name":"Baita","lon":27.04585,"lat":1.84655,"pop":0},{"id":219863,"name":"Baitebe","alt":["Baitebi"],"lon":28.81584,"lat":2.58471,"pop":0},{"id":8284552,"name":"Bajika-Ngondo","lon":22.96814,"lat":-6.49458,"pop":0},{"id":219862,"name":"Bajila-Kasanga","alt":["Bashila-Kasanga"],"lon":22.79658,"lat":-6.06471,"pop":0},{"id":219861,"name":"Bajilanga","lon":23.58506,"lat":-6.40587,"pop":0},{"id":219859,"name":"Baka","lon":23.15125,"lat":-4.01184,"pop":0},{"id":219860,"name":"Baka","lon":20.1,"lat":-2.06667,"pop":0},{"id":2317492,"name":"Baka","lon":15.08333,"lat":-5.61667,"pop":0},{"id":2317493,"name":"Baka","lon":19.87494,"lat":4.87106,"pop":0},{"id":7504858,"name":"Baka","lon":19.20378,"lat":2.74643,"pop":0},{"id":8252339,"name":"Baka","lon":12.77887,"lat":-5.74333,"pop":0},{"id":10207037,"name":"Baka","lon":24.57051,"lat":-10.08909,"pop":0},{"id":8281549,"name":"Bakaala","lon":18.18106,"lat":-0.04835,"pop":0},{"id":8438618,"name":"Bakadongo","lon":22.41468,"lat":-7.20432,"pop":0},{"id":219857,"name":"Bakala","lon":26.8195,"lat":4.50378,"pop":0},{"id":219858,"name":"Bakala","lon":25.82183,"lat":3.56422,"pop":0},{"id":219855,"name":"Bakalawa","lon":23.60975,"lat":3.8751,"pop":0},{"id":8236100,"name":"Bakalua","lon":20.54369,"lat":3.42738,"pop":0},{"id":219853,"name":"Bakalukudu","lon":28.35,"lat":2.38333,"pop":0},{"id":2317490,"name":"Bakamba","lon":18.33333,"lat":-1.15,"pop":0},{"id":219852,"name":"Bakambe","lon":23.6059,"lat":-5.64987,"pop":0},{"id":8070733,"name":"Bakanga","lon":18.13671,"lat":0.00285,"pop":0},{"id":8149806,"name":"Bakange","lon":25.96492,"lat":1.77815,"pop":0},{"id":9997648,"name":"Bakankale","lon":24.64202,"lat":-6.04065,"pop":0},{"id":219849,"name":"Bakapoke","lon":25.43333,"lat":0.46667,"pop":0},{"id":8156752,"name":"Bakarada","lon":27.08442,"lat":1.05737,"pop":0},{"id":219847,"name":"Bakari","lon":26.7,"lat":-4.15,"pop":0},{"id":219845,"name":"Bakasanga","lon":23.25335,"lat":-5.1792,"pop":0},{"id":8285331,"name":"Bakasanga","lon":22.98368,"lat":-6.90111,"pop":0},{"id":2317488,"name":"Bakatanga","lon":19.41667,"lat":-2.11667,"pop":0},{"id":219848,"name":"Bakavai","alt":["Bakarai"],"lon":27.53202,"lat":1.24358,"pop":0},{"id":413133,"name":"Bakazika","lon":22.35111,"lat":-5.94694,"pop":0},{"id":219844,"name":"Bakbuku","lon":27.40932,"lat":4.01928,"pop":0},{"id":219841,"name":"Bakebe","lon":25.93747,"lat":-6.07224,"pop":0},{"id":220115,"name":"Bakéké","alt":["Babeke","Bakeke"],"lon":28.04479,"lat":1.39053,"pop":0},{"id":8281703,"name":"Bakele","lon":18.5958,"lat":-0.10074,"pop":0},{"id":8281721,"name":"Bakenda","lon":18.49327,"lat":-0.41069,"pop":0},{"id":8145476,"name":"Bakenge","lon":27.16555,"lat":2.9354,"pop":0},{"id":8283936,"name":"Bakense","lon":22.73046,"lat":-6.13373,"pop":0},{"id":219839,"name":"Bakeoi","lon":25.9,"lat":0.36667,"pop":0},{"id":219838,"name":"Bakere","lon":23.79414,"lat":1.58801,"pop":0},{"id":8049170,"name":"Bakere","lon":26.44323,"lat":1.81659,"pop":0},{"id":8149695,"name":"Bakeri","lon":25.99256,"lat":1.83505,"pop":0},{"id":8149804,"name":"Bakeri","lon":25.84024,"lat":1.77223,"pop":0},{"id":219835,"name":"Baketa","alt":["Bakeba"],"lon":20.78333,"lat":-0.9,"pop":0},{"id":219836,"name":"Baketa","alt":["Boketa"],"lon":21.31667,"lat":-0.85,"pop":0},{"id":219837,"name":"Baketa","lon":20.73333,"lat":-0.65,"pop":0},{"id":8144033,"name":"Baki-Logo","lon":30.16231,"lat":3.44589,"pop":0},{"id":8144012,"name":"Baki-Mondo","lon":30.06162,"lat":3.82143,"pop":0},{"id":219832,"name":"Bakile","lon":24.905,"lat":-6.1373,"pop":0},{"id":219833,"name":"Bakile","lon":24.64371,"lat":-5.57386,"pop":0},{"id":219834,"name":"Bakile","lon":25.23333,"lat":-5.23333,"pop":0},{"id":8329602,"name":"Bakile-Totiue","lon":24.73035,"lat":-5.97205,"pop":0},{"id":219831,"name":"Bakilingba","lon":26.20284,"lat":3.75486,"pop":0},{"id":219830,"name":"Bakiliso","lon":27.18836,"lat":0.48996,"pop":0},{"id":219829,"name":"Bakime","alt":["Bakima"],"lon":24.48333,"lat":-5.35,"pop":0},{"id":219828,"name":"Bakindesungu","lon":27.39035,"lat":3.51964,"pop":0},{"id":8434718,"name":"Bakinga","lon":17.48328,"lat":-6.75569,"pop":0},{"id":8540559,"name":"Bakinga-Kikwati","lon":16.88392,"lat":-6.42166,"pop":0},{"id":8329509,"name":"Bakingame","lon":24.53259,"lat":-5.82972,"pop":0},{"id":2317487,"name":"Bakingi","lon":19.87714,"lat":4.87929,"pop":0},{"id":11903675,"name":"Bakingi","lon":20.40041,"lat":4.66554,"pop":0},{"id":8145496,"name":"Bakira","lon":27.47284,"lat":2.90284,"pop":0},{"id":8145625,"name":"Bakisato","lon":27.99346,"lat":2.16603,"pop":0},{"id":219827,"name":"Bakisombo","alt":["Kilabana"],"lon":25.66667,"lat":-1.03333,"pop":0},{"id":219826,"name":"Bakita","lon":26.66667,"lat":-0.05,"pop":0},{"id":219825,"name":"Bakiwe","lon":26.60991,"lat":4.07228,"pop":0},{"id":219824,"name":"Bako","lon":20.04001,"lat":2.59635,"pop":0},{"id":219823,"name":"Bakobo","lon":25.27511,"lat":1.2891,"pop":0},{"id":219822,"name":"Bakofomboi","alt":["Bakofombo"],"lon":25.61233,"lat":3.78292,"pop":0},{"id":219821,"name":"Bakoka","lon":20.98333,"lat":-0.86667,"pop":0},{"id":219819,"name":"Bakoma","lon":25.00898,"lat":-6.27135,"pop":0},{"id":219820,"name":"Bakoma","lon":28.13436,"lat":1.42361,"pop":0},{"id":8145585,"name":"Bakomba","lon":27.64067,"lat":2.15843,"pop":0},{"id":8049219,"name":"Bakombe","lon":26.35362,"lat":1.85348,"pop":0},{"id":219818,"name":"Bakomo","alt":["Bahomo","Bakono"],"lon":21.36532,"lat":-3.72001,"pop":0},{"id":219817,"name":"Bakongo","lon":22.15871,"lat":3.66008,"pop":0},{"id":219846,"name":"Bakoro","alt":["Bakaro"],"lon":27.95407,"lat":1.09191,"pop":0},{"id":219816,"name":"Bakoroye","lon":27.33181,"lat":0.7266,"pop":0},{"id":8149777,"name":"Bakote","lon":25.29879,"lat":1.53299,"pop":0},{"id":2317486,"name":"Bakoyo","lon":18.9,"lat":-0.55,"pop":0},{"id":8069582,"name":"Bakpa","lon":27.28602,"lat":3.88935,"pop":0},{"id":8074900,"name":"Bakpetini","lon":27.93246,"lat":4.37353,"pop":0},{"id":219815,"name":"Bakponga","lon":26.36667,"lat":3.48333,"pop":0},{"id":219814,"name":"Bakpwa","lon":22.8986,"lat":3.66184,"pop":0},{"id":219811,"name":"Baku","lon":23.81667,"lat":3.41667,"pop":0},{"id":219812,"name":"Baku","lon":30.08194,"lat":2.43236,"pop":0},{"id":8280729,"name":"Bakukwana","lon":25.01052,"lat":0.55173,"pop":0},{"id":2317485,"name":"Bakula","lon":18.98906,"lat":4.60085,"pop":0},{"id":8198522,"name":"Bakulagba","lon":27.3028,"lat":4.94242,"pop":0},{"id":219809,"name":"Bakuludu","lon":20.33678,"lat":4.7127,"pop":0},{"id":219808,"name":"Bakulumbi","lon":24.87302,"lat":-0.55215,"pop":0},{"id":2317484,"name":"Bakumania","lon":18.8,"lat":0.98333,"pop":0},{"id":8023491,"name":"Bakumboyo","lon":29.10727,"lat":3.65154,"pop":0},{"id":219807,"name":"Bakume","lon":26.54542,"lat":3.68974,"pop":0},{"id":219806,"name":"Bakumu","lon":22.06667,"lat":-2.56667,"pop":0},{"id":8280737,"name":"Bakunga","lon":25.19299,"lat":0.48723,"pop":0},{"id":219804,"name":"Bakungu","lon":27.3783,"lat":-4.44559,"pop":0},{"id":2317483,"name":"Bakungu","lon":19.69505,"lat":1.24729,"pop":0},{"id":8246376,"name":"Bakuniama","lon":18.93638,"lat":1.02287,"pop":0},{"id":219805,"name":"Bakunu","alt":["Bakune"],"lon":21.70924,"lat":2.73664,"pop":0},{"id":219803,"name":"Bakuta","alt":["Mikaeli"],"lon":25.66667,"lat":-1.03333,"pop":0},{"id":219802,"name":"Bakuti","lon":25.26756,"lat":1.32258,"pop":0},{"id":219799,"name":"Bakwa","lon":22.40397,"lat":-6.30003,"pop":0},{"id":219800,"name":"Bakwa","lon":23.22294,"lat":3.44073,"pop":0},{"id":219801,"name":"Bakwa","lon":25.13464,"lat":3.10529,"pop":0},{"id":220075,"name":"Bakwa","alt":["Babwa"],"lon":27.39527,"lat":4.1263,"pop":0},{"id":9947256,"name":"Bakwa Kalongi","lon":23.70546,"lat":-6.52986,"pop":0},{"id":9946746,"name":"Bakwa Lukusa","lon":23.62214,"lat":-6.36662,"pop":0},{"id":9946654,"name":"Bakwa Mba","lon":23.28304,"lat":-6.27255,"pop":0},{"id":8283783,"name":"Bakwa Mponga","lon":22.37941,"lat":-6.16114,"pop":0},{"id":8284913,"name":"Bakwa Mukala","lon":22.71558,"lat":-6.73773,"pop":0},{"id":9946598,"name":"Bakwa Nianga","lon":23.4366,"lat":-6.08389,"pop":0},{"id":9946729,"name":"Bakwa Nkwadi","lon":23.27803,"lat":-6.35004,"pop":0},{"id":9946912,"name":"Bakwa Punge","lon":23.6,"lat":-6.99895,"pop":0},{"id":8520477,"name":"Bakwa Tinibwe","lon":23.58196,"lat":-7.11208,"pop":0},{"id":9946787,"name":"Bakwa Tshiluila","lon":23.92796,"lat":-6.3882,"pop":0},{"id":9946775,"name":"Bakwa Tshitomgo","lon":23.89213,"lat":-6.36001,"pop":0},{"id":219798,"name":"Bakwa-Bana","lon":21.36545,"lat":-5.29121,"pop":0},{"id":8249946,"name":"Bakwa-Bashila-Nyoka","lon":22.49822,"lat":-4.92405,"pop":0},{"id":9946726,"name":"Bakwa-Bayi","lon":23.24425,"lat":-6.41892,"pop":0},{"id":219797,"name":"Bakwa-Beya","lon":21.25,"lat":-4.63333,"pop":0},{"id":219796,"name":"Bakwa-Bilonda","alt":["Bakwea-Bilonde","Bwana Bilando","Bwana Bilondo"],"lon":20.749,"lat":-4.35976,"pop":0},{"id":9946612,"name":"Bakwa-Bisampo","lon":23.62551,"lat":-6.04875,"pop":0},{"id":9946853,"name":"Bakwa-Bowa","lon":23.55314,"lat":-6.78059,"pop":0},{"id":8249952,"name":"Bakwa-Bule","lon":22.90265,"lat":-4.47851,"pop":0},{"id":9946804,"name":"Bakwa-Bumba","lon":23.23879,"lat":-6.45701,"pop":0},{"id":9946596,"name":"Bakwa-Buyu","lon":23.42859,"lat":-6.06954,"pop":0},{"id":219795,"name":"Bakwa-Bwanga","alt":["Bena-Mwanga"],"lon":23.31111,"lat":-6.44134,"pop":0},{"id":8444077,"name":"Bakwa-Dishi","lon":20.61521,"lat":-4.34788,"pop":0},{"id":8277380,"name":"Bakwa-Dongo","lon":21.30082,"lat":-5.23627,"pop":0},{"id":8277647,"name":"Bakwa-Gandu","lon":21.55716,"lat":-5.17746,"pop":0},{"id":219793,"name":"Bakwa-Indu","lon":23.71667,"lat":-5,"pop":0},{"id":8328403,"name":"Bakwa-Indu","lon":22.75239,"lat":-5.03222,"pop":0},{"id":9946725,"name":"Bakwa-Kabeya","lon":23.27232,"lat":-6.38179,"pop":0},{"id":8249872,"name":"Bakwa-Kalamba","lon":21.09551,"lat":-4.50127,"pop":0},{"id":9946814,"name":"Bakwa-Kalombo","lon":23.62238,"lat":-6.45326,"pop":0},{"id":8444087,"name":"Bakwa-Kalonji","lon":20.77508,"lat":-4.36989,"pop":0},{"id":9946811,"name":"Bakwa-Kalubi","lon":23.23804,"lat":-6.57762,"pop":0},{"id":9946815,"name":"Bakwa-Kalubi a Lukusa","lon":23.61435,"lat":-6.46853,"pop":0},{"id":9946855,"name":"Bakwa-Kalunga","lon":23.56441,"lat":-6.77935,"pop":0},{"id":9946741,"name":"Bakwa-Kamunu","lon":23.51502,"lat":-6.32807,"pop":0},{"id":9946688,"name":"Bakwa-Kande","lon":23.82434,"lat":-6.17591,"pop":0},{"id":8283684,"name":"Bakwa-Kande-Muka","lon":22.37582,"lat":-6.09135,"pop":0},{"id":219792,"name":"Bakwa-Kansinga","lon":22.06667,"lat":-4.88333,"pop":0},{"id":219791,"name":"Bakwa-Kasanga","lon":21.11667,"lat":-4.51667,"pop":0},{"id":9946650,"name":"Bakwa-Kasansa","lon":23.24257,"lat":-6.25504,"pop":0},{"id":219790,"name":"Bakwa-Kashile","lon":23.76157,"lat":-6.46335,"pop":0},{"id":9946585,"name":"Bakwa-Kayombo","lon":23.36427,"lat":-6.09493,"pop":0},{"id":219789,"name":"Bakwa-Kenge","lon":22.09821,"lat":-4.90175,"pop":0},{"id":9946816,"name":"Bakwa-Kolela","lon":23.57371,"lat":-6.57752,"pop":0},{"id":9946675,"name":"Bakwa-Kongolo","lon":23.73487,"lat":-6.21725,"pop":0},{"id":9946768,"name":"Bakwa-Kongolo","lon":23.90087,"lat":-6.3181,"pop":0},{"id":219788,"name":"Bakwa-Kwanga","lon":21.52982,"lat":-5.02658,"pop":0},{"id":8277399,"name":"Bakwa-Londo","lon":21.51094,"lat":-5.07919,"pop":0},{"id":8277398,"name":"Bakwa-Longi","lon":21.51002,"lat":-5.07347,"pop":0},{"id":9946697,"name":"Bakwa-Lonji","lon":23.98488,"lat":-6.27377,"pop":0},{"id":9946651,"name":"Bakwa-Lukanda","lon":23.26236,"lat":-6.25737,"pop":0},{"id":219787,"name":"Bakwa-Maie","alt":["Bakamaye","Bwana Maie"],"lon":21.41548,"lat":-5.09656,"pop":0},{"id":219786,"name":"Bakwa-Malaba","alt":["Bwana Malaba"],"lon":23.56315,"lat":-6.68644,"pop":0},{"id":8277381,"name":"Bakwa-Malombe","lon":21.2906,"lat":-5.22519,"pop":0},{"id":9946781,"name":"Bakwa-Masela","lon":23.91223,"lat":-6.35312,"pop":0},{"id":8277410,"name":"Bakwa-Mashiba","lon":21.42015,"lat":-5.22917,"pop":0},{"id":8444082,"name":"Bakwa-Mbaie","lon":20.65557,"lat":-4.33835,"pop":0},{"id":219785,"name":"Bakwa-Mbatshi","alt":["Bakwa-Batshi"],"lon":22.65,"lat":-4.65,"pop":0},{"id":9946809,"name":"Bakwa-Mbeya","lon":23.25068,"lat":-6.53977,"pop":0},{"id":8285339,"name":"Bakwa-Menga","lon":22.96771,"lat":-6.81661,"pop":0},{"id":8277423,"name":"Bakwa-Midima","lon":21.67262,"lat":-5.03949,"pop":0},{"id":9946806,"name":"Bakwa-Mowa","lon":23.24088,"lat":-6.46816,"pop":0},{"id":9946748,"name":"Bakwa-Mpasu","lon":23.70821,"lat":-6.29951,"pop":0},{"id":9946653,"name":"Bakwa-Mpata","lon":23.19996,"lat":-6.26661,"pop":0},{"id":219784,"name":"Bakwa-Mpika","alt":["Bakwa Bapika"],"lon":21.26667,"lat":-4.66667,"pop":0},{"id":219783,"name":"Bakwa-Mpuka","lon":23.47636,"lat":-6.11168,"pop":0},{"id":9946826,"name":"Bakwa-Muala","lon":23.89256,"lat":-6.49368,"pop":0},{"id":219782,"name":"Bakwa-Mukamba","lon":21.34528,"lat":-5.2611,"pop":0},{"id":9946774,"name":"Bakwa-Mukendi","lon":23.86863,"lat":-6.35299,"pop":0},{"id":8284973,"name":"Bakwa-Mulembo","lon":22.98328,"lat":-6.6833,"pop":0},{"id":8277434,"name":"Bakwa-Mulombe","lon":21.58253,"lat":-5.25557,"pop":0},{"id":8277394,"name":"Bakwa-Mulu","lon":21.51555,"lat":-5.04052,"pop":0},{"id":9946606,"name":"Bakwa-Mulumba","lon":23.77453,"lat":-6.00155,"pop":0},{"id":9946682,"name":"Bakwa-Mulumba","lon":23.79327,"lat":-6.19071,"pop":0},{"id":9946680,"name":"Bakwa-Musenge","lon":23.73068,"lat":-6.15149,"pop":0},{"id":219781,"name":"Bakwa-Mushilu","lon":21.05155,"lat":-4.46879,"pop":0},{"id":9946673,"name":"Bakwa-Mwala","lon":23.70285,"lat":-6.20596,"pop":0},{"id":219780,"name":"Bakwa-Mwanza","alt":["Bakwa-Muanza"],"lon":22.55,"lat":-4.81667,"pop":0},{"id":8329537,"name":"Bakwa-Mwasa","alt":["Bakwa-Muasa"],"lon":24.08087,"lat":-5.96831,"pop":0},{"id":219779,"name":"Bakwa-Ndai","lon":21.59468,"lat":-5.18796,"pop":0},{"id":8444088,"name":"Bakwa-Ndishi","lon":20.7913,"lat":-4.3842,"pop":0},{"id":219778,"name":"Bakwa-Ndola","lon":23.73622,"lat":-6.15694,"pop":0},{"id":219777,"name":"Bakwa-Ngandu","lon":22.89922,"lat":-6.14178,"pop":0},{"id":8277404,"name":"Bakwa-Nioka","lon":21.47625,"lat":-5.14749,"pop":0},{"id":219776,"name":"Bakwa-Nsakalongo","lon":23.62151,"lat":-5.84794,"pop":0},{"id":219775,"name":"Bakwa-Nyanga","lon":21.8,"lat":-4.83333,"pop":0},{"id":9946810,"name":"Bakwa-Nyoka","lon":23.39043,"lat":-6.53702,"pop":0},{"id":219774,"name":"Bakwa-Nzeba","lon":21.56667,"lat":-4.65,"pop":0},{"id":9946723,"name":"Bakwa-Nzeu","lon":23.25847,"lat":-6.36225,"pop":0},{"id":9946739,"name":"Bakwa-Poie","lon":23.5293,"lat":-6.29547,"pop":0},{"id":219773,"name":"Bakwa-Punga","alt":["Pungwe"],"lon":23.55606,"lat":-6.64062,"pop":0},{"id":9946722,"name":"Bakwa-Pungue","lon":23.25123,"lat":-6.34964,"pop":0},{"id":219772,"name":"Bakwa-Samba","lon":22.8,"lat":-4.66667,"pop":0},{"id":219771,"name":"Bakwa-Seka","lon":21.76165,"lat":-4.79788,"pop":0},{"id":8249892,"name":"Bakwa-Sole","lon":21.07332,"lat":-4.51907,"pop":0},{"id":219770,"name":"Bakwa-Sumpi","lon":24.13226,"lat":-5.99162,"pop":0},{"id":8249893,"name":"Bakwa-Sumpi","lon":21.2372,"lat":-4.64333,"pop":0},{"id":8277413,"name":"Bakwa-Sumpi","lon":21.46106,"lat":-5.16667,"pop":0},{"id":219769,"name":"Bakwa-Tombe","alt":["Bwana Tombe"],"lon":21.55494,"lat":-5.10651,"pop":0},{"id":9946652,"name":"Bakwa-Tshala","lon":23.19156,"lat":-6.25916,"pop":0},{"id":219768,"name":"Bakwa-Tshibaka","lon":23.51943,"lat":-6.32669,"pop":0},{"id":9946663,"name":"Bakwa-Tshibuye","lon":23.41938,"lat":-6.19353,"pop":0},{"id":219767,"name":"Bakwa-Tshibuyi","lon":23.72305,"lat":-6.37957,"pop":0},{"id":9946607,"name":"Bakwa-Tshidimba","lon":23.72467,"lat":-6.02292,"pop":0},{"id":219766,"name":"Bakwa-Tshilanda","lon":23.53146,"lat":-6.25796,"pop":0},{"id":8285335,"name":"Bakwa-Tshilenge","lon":22.97352,"lat":-6.86269,"pop":0},{"id":219765,"name":"Bakwa-Tshileo","alt":["Bakwa-Tshilee"],"lon":23.86751,"lat":-6.52589,"pop":0},{"id":8249897,"name":"Bakwa-Tshimini","lon":21.93449,"lat":-4.88654,"pop":0},{"id":9947240,"name":"Bakwa-Tshiniuna","lon":23.55981,"lat":-6.16669,"pop":0},{"id":9946667,"name":"Bakwa-Tshisamba","lon":23.48209,"lat":-6.26768,"pop":0},{"id":8285208,"name":"Bakwamwanza","lon":22.4648,"lat":-6.75628,"pop":0},{"id":9946841,"name":"Bakwanda","lon":23.39118,"lat":-6.76978,"pop":0},{"id":8284495,"name":"Bakwanga","lon":22.76593,"lat":-6.31775,"pop":0},{"id":8444083,"name":"Bakwanga","lon":20.66483,"lat":-4.35188,"pop":0},{"id":8438783,"name":"Bakwatshiuma","lon":22.94674,"lat":-7.27648,"pop":0},{"id":219764,"name":"Bakweme","lon":25.15,"lat":0.96667,"pop":0},{"id":219763,"name":"Bakwoli","lon":26.08473,"lat":2.73154,"pop":0},{"id":218459,"name":"Bala","alt":["Bola"],"lon":22.00202,"lat":-3.31149,"pop":0},{"id":219759,"name":"Bala","lon":24.8831,"lat":-6.10721,"pop":0},{"id":219760,"name":"Bala","alt":["Mbala"],"lon":22.55143,"lat":-3.66649,"pop":0},{"id":219761,"name":"Bala","lon":23,"lat":3.65,"pop":0},{"id":219762,"name":"Bala","lon":26.08658,"lat":2.66208,"pop":0},{"id":2317478,"name":"Bala","lon":18.60197,"lat":-6.41494,"pop":0},{"id":2317479,"name":"Bala","lon":18.78452,"lat":4.41961,"pop":0},{"id":2317480,"name":"Bala","lon":19.23513,"lat":1.68906,"pop":0},{"id":2317481,"name":"Bala","lon":19.38333,"lat":-0.4,"pop":0},{"id":219744,"name":"Bala Ngoie","alt":["Bala"],"lon":24.76411,"lat":-6.39862,"pop":0},{"id":9997618,"name":"Bala-Kabangwa","lon":24.73717,"lat":-6.42765,"pop":0},{"id":219756,"name":"Balabala","lon":24.55715,"lat":-6.0199,"pop":0},{"id":219757,"name":"Balabala","alt":["Palabala"],"lon":20.69484,"lat":2.84998,"pop":0},{"id":219758,"name":"Balabala","lon":24.26997,"lat":-0.86612,"pop":0},{"id":2317476,"name":"Balabala","lon":19.51552,"lat":2.45069,"pop":0},{"id":8280444,"name":"Balabala","lon":30.13999,"lat":1.88147,"pop":0},{"id":8069517,"name":"Balagba","lon":27.32489,"lat":3.63973,"pop":0},{"id":2317474,"name":"Balaka","lon":19.94142,"lat":-4.85711,"pop":0},{"id":2317475,"name":"Balaka","lon":18.41667,"lat":-4.15,"pop":0},{"id":219754,"name":"Balakpulani","lon":28.79576,"lat":4.46122,"pop":0},{"id":8025258,"name":"Balakpulani","lon":28.77006,"lat":4.3506,"pop":0},{"id":8239184,"name":"Balakuma","lon":23.64908,"lat":4.55329,"pop":0},{"id":2317473,"name":"Balakwa","lon":19.31819,"lat":4.90034,"pop":0},{"id":923265,"name":"Balala","lon":28.75,"lat":-12.81667,"pop":0},{"id":219752,"name":"Balama","lon":27.68958,"lat":4.69498,"pop":0},{"id":219753,"name":"Balama","lon":26.54648,"lat":1.7898,"pop":0},{"id":219751,"name":"Balambi","lon":26.29767,"lat":1.31058,"pop":0},{"id":2317472,"name":"Balambi","lon":18.2671,"lat":-5.7293,"pop":0},{"id":8276161,"name":"Balambi","lon":18.9792,"lat":-5.57932,"pop":0},{"id":2317471,"name":"Balamo","lon":18.75684,"lat":3.58341,"pop":0},{"id":8022992,"name":"Balanda","lon":29.76675,"lat":3.78967,"pop":0},{"id":219747,"name":"Balanga","lon":29.72101,"lat":-8.05416,"pop":0},{"id":219748,"name":"Balanga","lon":25.95,"lat":-5.08333,"pop":0},{"id":219749,"name":"Balanga","lon":26.47348,"lat":2.34789,"pop":0},{"id":219750,"name":"Balanga","lon":23.69046,"lat":-1.14149,"pop":0},{"id":8069518,"name":"Balanga","lon":27.28309,"lat":3.61094,"pop":0},{"id":8221231,"name":"Balanga","lon":24.10592,"lat":4.21092,"pop":0},{"id":219746,"name":"Balangaie","lon":23.80517,"lat":-5.11808,"pop":0},{"id":8328415,"name":"Balangaie","alt":["Balangale"],"lon":22.86054,"lat":-5.16651,"pop":0},{"id":8247693,"name":"Balangambi","lon":22.5068,"lat":4.04842,"pop":0},{"id":219745,"name":"Balanganza","lon":28.95002,"lat":3.75861,"pop":0},{"id":2317469,"name":"Balangonda","lon":18.76913,"lat":3.20029,"pop":0},{"id":8246431,"name":"Balangu","lon":20.38095,"lat":4.30195,"pop":0},{"id":2317467,"name":"Balankole","lon":19.48333,"lat":-0.15,"pop":0},{"id":2317466,"name":"Balatsoko","lon":17.2895,"lat":-6.08724,"pop":0},{"id":8310330,"name":"Balaw","lon":19.59505,"lat":2.74199,"pop":0},{"id":219743,"name":"Balayi","lon":24.15,"lat":-6.76667,"pop":0},{"id":219742,"name":"Balazana","lon":30.06667,"lat":1.58333,"pop":0},{"id":219741,"name":"Bale","lon":26.96667,"lat":-6.8,"pop":0},{"id":10026352,"name":"Bale","lon":25.92625,"lat":-8.53338,"pop":0},{"id":219737,"name":"Bale Deuxième","alt":["Bale Deuxieme","Bale II"],"lon":20.87465,"lat":3.35384,"pop":0},{"id":219740,"name":"Balebebisa","lon":24.55819,"lat":2.73037,"pop":0},{"id":219739,"name":"Balegi","alt":["Balegi Ngoma","Ngoma"],"lon":27.36667,"lat":0.3,"pop":0},{"id":219738,"name":"Balegia","lon":27.26667,"lat":1.05,"pop":0},{"id":219736,"name":"Baleke","alt":["Beleke"],"lon":25.30002,"lat":1.02597,"pop":0},{"id":219735,"name":"Balele","lon":26.21368,"lat":2.62868,"pop":0},{"id":8143634,"name":"Balemangwa","lon":25.72536,"lat":3.37856,"pop":0},{"id":8329606,"name":"Balembwe","lon":24.26729,"lat":-5.01822,"pop":0},{"id":2317464,"name":"Balendjale","lon":18.25,"lat":-1.55,"pop":0},{"id":2317463,"name":"Balenge","lon":19.33333,"lat":4.38333,"pop":0},{"id":219734,"name":"Balewogo","lon":24.74663,"lat":2.76313,"pop":0},{"id":8143097,"name":"Bali","lon":29.44163,"lat":2.17348,"pop":0},{"id":219731,"name":"Balia","lon":23.3055,"lat":4.59849,"pop":0},{"id":8146740,"name":"Balia","lon":24.65315,"lat":2.84856,"pop":0},{"id":219730,"name":"Baliakoko","lon":27.04127,"lat":1.68308,"pop":0},{"id":219729,"name":"Baliakondo","lon":27.1109,"lat":2.9076,"pop":0},{"id":219728,"name":"Baliba","lon":27.42219,"lat":0.24147,"pop":0},{"id":8446962,"name":"Baliba","lon":18.33719,"lat":-3.85035,"pop":0},{"id":2317462,"name":"Balibe","lon":17.84274,"lat":-3.90285,"pop":0},{"id":8281451,"name":"Balibendi","lon":28.41066,"lat":0.36498,"pop":0},{"id":2317461,"name":"Balibi","lon":18.48097,"lat":-3.86914,"pop":0},{"id":219727,"name":"Baligangara","lon":25.86963,"lat":3.98306,"pop":0},{"id":8062291,"name":"Baligio","lon":26.50163,"lat":2.78723,"pop":0},{"id":219726,"name":"Balika","lon":27.96255,"lat":1.12714,"pop":0},{"id":219725,"name":"Baliko","lon":20.87642,"lat":-0.33866,"pop":0},{"id":443197,"name":"Balila","lon":25.20833,"lat":0.90639,"pop":0},{"id":219724,"name":"Balilaka","lon":25.42054,"lat":4.4524,"pop":0},{"id":219723,"name":"Balimba","lon":28.03333,"lat":-4,"pop":0},{"id":2317460,"name":"Balinda","lon":18.46667,"lat":-2.2,"pop":0},{"id":8433095,"name":"Baliniama","lon":25.69103,"lat":-1.17478,"pop":0},{"id":219721,"name":"Baliomo","lon":23.08333,"lat":-1.55,"pop":0},{"id":8143680,"name":"Balipi","lon":25.45114,"lat":3.20342,"pop":0},{"id":8251199,"name":"Balise","lon":17.7149,"lat":-0.49498,"pop":0},{"id":219720,"name":"Balisi","lon":25.66843,"lat":2.07353,"pop":0},{"id":2317459,"name":"Ball I","lon":19.8,"lat":4.35,"pop":0},{"id":219718,"name":"Balo","lon":24.9037,"lat":4.55583,"pop":0},{"id":219719,"name":"Balo","lon":30.49963,"lat":1.60576,"pop":0},{"id":8325348,"name":"Balo","lon":14.23735,"lat":-5.8069,"pop":0},{"id":10046634,"name":"Balo","lon":27.53171,"lat":-8.14213,"pop":0},{"id":219716,"name":"Balobe","lon":27.8803,"lat":0.12199,"pop":0},{"id":219717,"name":"Balobe","lon":27.66667,"lat":-0.08333,"pop":0},{"id":8283422,"name":"Baloji","lon":20.95898,"lat":-6.87202,"pop":0},{"id":219715,"name":"Baloma","lon":25.52132,"lat":1.22583,"pop":0},{"id":2317457,"name":"Balombolombo","lon":18.75,"lat":-2.08333,"pop":0},{"id":218382,"name":"Balondo","alt":["Bolondo"],"lon":20.07094,"lat":0.34599,"pop":0},{"id":8145453,"name":"Balongama","lon":27.83716,"lat":2.56737,"pop":0},{"id":219714,"name":"Balonge","lon":29.21056,"lat":-0.10083,"pop":0},{"id":8069433,"name":"Baloyo","lon":27.01751,"lat":3.10867,"pop":0},{"id":10010976,"name":"Balozi","lon":28.37586,"lat":-6.55756,"pop":0},{"id":2317455,"name":"Balu","lon":14.39806,"lat":-5.87166,"pop":0},{"id":219713,"name":"Baluba","lon":25.16667,"lat":-5.3,"pop":0},{"id":10048985,"name":"Balubuse","lon":15.83673,"lat":-4.10348,"pop":0},{"id":8282307,"name":"Baluka","lon":25.62116,"lat":-0.17081,"pop":0},{"id":8463468,"name":"Balula","lon":24.02866,"lat":-9.41938,"pop":0},{"id":2317453,"name":"Balumbe","lon":18.4,"lat":0.56667,"pop":0},{"id":2317454,"name":"Balumbe","lon":18.53333,"lat":0.35,"pop":0},{"id":2317452,"name":"Balumu","lon":15.90455,"lat":-4.10868,"pop":0},{"id":219709,"name":"Balunga","alt":["Belunga"],"lon":25.40444,"lat":-5.40728,"pop":0},{"id":219708,"name":"Balya","lon":30.26096,"lat":3.23508,"pop":0},{"id":219706,"name":"Bama","lon":26.11667,"lat":3.36667,"pop":0},{"id":219707,"name":"Bama","lon":26.09475,"lat":2.99849,"pop":0},{"id":2317451,"name":"Bamaba","lon":18.636,"lat":-3.09537,"pop":0},{"id":8074901,"name":"Bamai","lon":27.94834,"lat":4.3156,"pop":0},{"id":219705,"name":"Bamanga","lon":25.53333,"lat":-0.28333,"pop":0},{"id":8049222,"name":"Bamanga","lon":26.39819,"lat":1.85672,"pop":0},{"id":8070919,"name":"Bamania","alt":["Bumanya"],"lon":18.32513,"lat":0.00518,"pop":0},{"id":8143656,"name":"Bamanza","lon":25.52534,"lat":3.2304,"pop":0},{"id":219702,"name":"Bamata","alt":["Bomata"],"lon":21.03617,"lat":-1.07428,"pop":0},{"id":219703,"name":"Bamata","lon":21.1,"lat":-1,"pop":0},{"id":2317436,"name":"Bamba","lon":18.37308,"lat":-5.76642,"pop":0},{"id":2317437,"name":"Bamba","lon":18.20131,"lat":-5.72715,"pop":0},{"id":2317438,"name":"Bamba","lon":13.79434,"lat":-5.66979,"pop":0},{"id":2317439,"name":"Bamba","lon":14.8578,"lat":-5.31303,"pop":0},{"id":2317440,"name":"Bamba","lon":14.33018,"lat":-5.30315,"pop":0},{"id":2317441,"name":"Bamba","lon":13.69319,"lat":-5.21976,"pop":0},{"id":2317442,"name":"Bamba","alt":["Bamba Madimba"],"lon":18.51667,"lat":-4.98333,"pop":0},{"id":2317443,"name":"Bamba","lon":13.70807,"lat":-4.86619,"pop":0},{"id":2317444,"name":"Bamba","lon":15.56714,"lat":-4.79856,"pop":0},{"id":2317445,"name":"Bamba","lon":18.20611,"lat":-4.22954,"pop":0},{"id":2317446,"name":"Bamba","lon":19.03333,"lat":-3.91667,"pop":0},{"id":2317447,"name":"Bamba","lon":18.65088,"lat":3.55908,"pop":0},{"id":8254389,"name":"Bamba","lon":15.50793,"lat":-5.16741,"pop":0},{"id":8254769,"name":"Bamba","lon":15.05344,"lat":-5.05191,"pop":0},{"id":8276266,"name":"Bamba","lon":18.74674,"lat":-5.73278,"pop":0},{"id":8276557,"name":"Bamba","lon":19.21842,"lat":-5.22092,"pop":0},{"id":8325618,"name":"Bamba","lon":14.66183,"lat":-5.49537,"pop":0},{"id":8445710,"name":"Bamba","lon":17.87892,"lat":-4.80546,"pop":0},{"id":2317433,"name":"Bamba Kilenda","alt":["Bamba-Kilenda","Mbamba Kilenda"],"lon":15.49917,"lat":-4.92362,"pop":0},{"id":2317432,"name":"Bamba Kopo","lon":15.58023,"lat":-5.40152,"pop":0},{"id":2317434,"name":"Bamba-Gongo","lon":14.67458,"lat":-5.3958,"pop":0},{"id":8274459,"name":"Bamba-Mabula","lon":17.81435,"lat":-5.01122,"pop":0},{"id":219695,"name":"Bambadjo","alt":["Bambandjo"],"lon":26.18868,"lat":0.81968,"pop":0},{"id":219699,"name":"Bambakita","lon":25.95182,"lat":0.43079,"pop":0},{"id":219698,"name":"Bambako","alt":["Bambaku"],"lon":21.65,"lat":-3.06667,"pop":0},{"id":219696,"name":"Bambala","lon":22.91044,"lat":4.70552,"pop":0},{"id":219697,"name":"Bambala","lon":25.65,"lat":-0.98333,"pop":0},{"id":8325644,"name":"Bambala","lon":14.38926,"lat":-5.39765,"pop":0},{"id":8156756,"name":"Bambandjo","lon":27.1094,"lat":1.02468,"pop":0},{"id":8444092,"name":"Bambangi","lon":20.57333,"lat":-4.23769,"pop":0},{"id":8280730,"name":"Bambashe","lon":25.21663,"lat":0.96858,"pop":0},{"id":219694,"name":"Bambaye","lon":25.46667,"lat":-1.05,"pop":0},{"id":8149857,"name":"Bambaye","lon":25.30915,"lat":1.03394,"pop":0},{"id":219693,"name":"Bambe","lon":25.38136,"lat":3.45284,"pop":0},{"id":2317431,"name":"Bambe","lon":19.00549,"lat":3.29291,"pop":0},{"id":2317429,"name":"Bambenga","lon":18.74083,"lat":4.20083,"pop":0},{"id":2317430,"name":"Bambenga","lon":18.64045,"lat":3.68962,"pop":0},{"id":219692,"name":"Bambesa","lon":25.6947,"lat":3.4477,"pop":0},{"id":2317428,"name":"Bambese-Baya","lon":19.10485,"lat":3.09513,"pop":0},{"id":8277553,"name":"Bambi","lon":21.89353,"lat":-5.15382,"pop":0},{"id":8283064,"name":"Bambi","lon":20.46112,"lat":-6.30679,"pop":0},{"id":8432747,"name":"Bambi","lon":18.82878,"lat":-1.23428,"pop":0},{"id":2317427,"name":"Bambi-Gangi","lon":18.81667,"lat":-1.3,"pop":0},{"id":219690,"name":"Bambili","lon":26.0754,"lat":3.65386,"pop":0},{"id":2317426,"name":"Bambili","lon":19.21667,"lat":4.06667,"pop":0},{"id":8242939,"name":"Bambilo","lon":25.96734,"lat":4.13547,"pop":0},{"id":2317424,"name":"Bambinga Etat","lon":18.90609,"lat":-3.70518,"pop":0},{"id":219689,"name":"Bambisa","lon":26.92525,"lat":4.49674,"pop":0},{"id":219688,"name":"Bambo","lon":29.22729,"lat":-1.08258,"pop":0},{"id":219687,"name":"Bambodanga","lon":25.94133,"lat":3.93102,"pop":0},{"id":219686,"name":"Bambodi","lon":27.56667,"lat":0.9,"pop":0},{"id":8149845,"name":"Bambole","lon":25.43077,"lat":1.39841,"pop":0},{"id":219684,"name":"Bamboloi","lon":26.46667,"lat":1.88153,"pop":0},{"id":10048967,"name":"Bamboma","lon":15.85437,"lat":-4.06076,"pop":0},{"id":219683,"name":"Bambongo","lon":25.3847,"lat":1.75855,"pop":0},{"id":8145593,"name":"Bambowa","lon":27.7219,"lat":2.10602,"pop":0},{"id":219681,"name":"Bambu","lon":27.34066,"lat":2.28631,"pop":0},{"id":219682,"name":"Bambu","lon":22.96667,"lat":1.06667,"pop":0},{"id":8246792,"name":"Bambu","lon":21.0222,"lat":4.29807,"pop":0},{"id":10048960,"name":"Bambu","lon":15.81647,"lat":-4.076,"pop":0},{"id":2317423,"name":"Bambudi","lon":19.92182,"lat":-4.30912,"pop":0},{"id":219680,"name":"Bambula","alt":["Mayunga"],"lon":25.5514,"lat":-1.32592,"pop":0},{"id":2317422,"name":"Bambula","lon":19.04689,"lat":-6.57145,"pop":0},{"id":8197749,"name":"Bambula","lon":23.3209,"lat":3.08917,"pop":0},{"id":8280726,"name":"Bambundje Troisième","lon":25.6074,"lat":0.13572,"pop":0},{"id":219679,"name":"Bambuyi","alt":["Bambay","Bambuy"],"lon":21.57675,"lat":-4.49123,"pop":0},{"id":219678,"name":"Bambwe","lon":25.25854,"lat":1.15596,"pop":0},{"id":8434059,"name":"Bame","lon":17.23309,"lat":-3.83839,"pop":0},{"id":219676,"name":"Bamekiyo","lon":27.84111,"lat":2.10427,"pop":0},{"id":219675,"name":"Bamekuamburo","alt":["Mokwara"],"lon":25.3,"lat":-1.41667,"pop":0},{"id":8143630,"name":"Bamili","lon":25.70181,"lat":3.35473,"pop":0},{"id":8149799,"name":"Bamili","lon":25.72116,"lat":1.69507,"pop":0},{"id":219673,"name":"Bamini","lon":25.4,"lat":-0.76667,"pop":0},{"id":219674,"name":"Bamini","lon":25.32477,"lat":-0.34003,"pop":0},{"id":8144076,"name":"Bamo","lon":30.3444,"lat":3.18876,"pop":0},{"id":219672,"name":"Bamodu","lon":27.25,"lat":1.01667,"pop":0},{"id":219671,"name":"Bamoi","lon":26.88333,"lat":3.56667,"pop":0},{"id":219670,"name":"Bamopange","lon":25.25,"lat":-1.38333,"pop":0},{"id":219669,"name":"Bampese","lon":21.82811,"lat":-7.21456,"pop":0},{"id":2317421,"name":"Bampumbu","lon":19.72148,"lat":-4.33582,"pop":0},{"id":2317420,"name":"Bampumbu-Mtinda","lon":19.65,"lat":-4.35,"pop":0},{"id":8238592,"name":"Bamu","lon":22.93976,"lat":3.6675,"pop":0},{"id":219667,"name":"Bamuele","lon":21.1211,"lat":-6.58494,"pop":0},{"id":219665,"name":"Bamugui","alt":["Kusu"],"lon":25.41667,"lat":-0.31667,"pop":0},{"id":219666,"name":"Bamugui","alt":["Bongo"],"lon":25.35,"lat":-0.2,"pop":0},{"id":219664,"name":"Bamukandu","lon":25.06667,"lat":-5.08333,"pop":0},{"id":8075996,"name":"Bamungu","lon":28.6017,"lat":2.83856,"pop":0},{"id":8277376,"name":"Bamuyaya","lon":21.30928,"lat":-5.39777,"pop":0},{"id":8440301,"name":"Bamvua","lon":21.49082,"lat":-7.06918,"pop":0},{"id":8440381,"name":"Bamvua","alt":["Mbaamvua","Mbamvua","Mbamvwa"],"lon":21.62084,"lat":-7.13096,"pop":0},{"id":219663,"name":"Bamvuta","lon":28.45255,"lat":4.07549,"pop":0},{"id":219662,"name":"Bamvuwe","lon":27.44945,"lat":2.9152,"pop":0},{"id":10049270,"name":"Bana","lon":15.49098,"lat":-4.44423,"pop":0},{"id":219661,"name":"Banabotenda","alt":["Lokobekobe"],"lon":25.23333,"lat":-1.41667,"pop":0},{"id":219660,"name":"Banakambea","alt":["Mongamba-Kifuku","Mongomba-Kifuko"],"lon":25.55649,"lat":-1.43546,"pop":0},{"id":219659,"name":"Banakelesha","alt":["Alatshu"],"lon":25.46667,"lat":-1.11667,"pop":0},{"id":219658,"name":"Banaketembo","lon":25.48333,"lat":-0.98333,"pop":0},{"id":219657,"name":"Banakibande","alt":["Kongobira"],"lon":25.51667,"lat":-1.23333,"pop":0},{"id":219656,"name":"Banakira","alt":["Bita"],"lon":25.31667,"lat":-1.25,"pop":0},{"id":219655,"name":"Banakpuenga","alt":["Mitumbi"],"lon":25.35,"lat":-1.26667,"pop":0},{"id":219654,"name":"Banalia","alt":["Sainte Elisabeth"],"lon":25.32784,"lat":1.54408,"pop":0},{"id":8433098,"name":"Banambene","alt":["Mbiliniama"],"lon":25.48088,"lat":-1.23088,"pop":0},{"id":219651,"name":"Banambia","alt":["Italo"],"lon":25.56667,"lat":-1.15,"pop":0},{"id":219652,"name":"Banambia","lon":25.559,"lat":-0.92411,"pop":0},{"id":219650,"name":"Banamolio","alt":["Mongiembo"],"lon":25.56667,"lat":-1.11667,"pop":0},{"id":219649,"name":"Banamongi","lon":25.46667,"lat":-1.08333,"pop":0},{"id":219648,"name":"Banana","lon":28.86723,"lat":1.37273,"pop":0},{"id":2317418,"name":"Banana","alt":["Banane"],"lon":12.39929,"lat":-6.00413,"pop":0},