[{"id":2293570,"name":"Aalé","lon":-5.73444,"lat":7.36528,"pop":0},{"id":2293568,"name":"Abadjin-Doumé","alt":["Abadji Doume","Abadji Doumé","Abadjin-Doume","Abaoji-Doume"],"lon":-4.14669,"lat":5.30962,"pop":0},{"id":2293567,"name":"Abadjin-Kouté","alt":["Abadji Koute","Abadji Kouté","Abadjin-Koute"],"lon":-4.15226,"lat":5.33017,"pop":0},{"id":8032419,"name":"Abadou","lon":-4.04609,"lat":5.67653,"pop":0},{"id":8031692,"name":"Abakakoua","lon":-3.86739,"lat":5.48026,"pop":0},{"id":2293564,"name":"Abakro","lon":-5.24926,"lat":6.69094,"pop":0},{"id":8031745,"name":"Aban","alt":["Akoue Agban","Akoué Agban"],"lon":-3.85563,"lat":5.31062,"pop":0},{"id":2293563,"name":"Abaoua","lon":-3.85903,"lat":6.35947,"pop":0},{"id":2595319,"name":"Abata","lon":-3.91434,"lat":5.3233,"pop":0},{"id":2293561,"name":"Abatoulilié","lon":-5.60615,"lat":5.99533,"pop":0},{"id":2293166,"name":"Abayansi","alt":["Akbeansi","Akbéansi"],"lon":-5.56844,"lat":7.59052,"pop":0},{"id":8031504,"name":"Abbè Achi","lon":-4.15905,"lat":5.43006,"pop":0},{"id":8032873,"name":"Abdoulaye","lon":-4.12063,"lat":5.91645,"pop":0},{"id":8033196,"name":"Abdoulayékro","lon":-3.5594,"lat":5.53559,"pop":0},{"id":2293559,"name":"Abé","lon":-5.32972,"lat":7.20619,"pop":0},{"id":8032020,"name":"Abé","alt":["Abbe","Abe"],"lon":-3.98753,"lat":5.66047,"pop":0},{"id":8032223,"name":"Abé","lon":-4.3826,"lat":5.68103,"pop":0},{"id":8032470,"name":"Abé","lon":-4.42904,"lat":5.92845,"pop":0},{"id":8033172,"name":"Abé","lon":-3.61955,"lat":5.49962,"pop":0},{"id":2293556,"name":"Abé Aounyessou","alt":["Abe Aounyassou","Abe Aounyessou","Abé Aounyassou"],"lon":-5.35345,"lat":7.84192,"pop":0},{"id":2293554,"name":"Abé Kofikro","alt":["Abe Kofikro","Abekofikro","Abékofikro"],"lon":-5.22124,"lat":7.82973,"pop":0},{"id":2293553,"name":"Abé Kouadiokro","lon":-5.35552,"lat":7.84478,"pop":0},{"id":2293558,"name":"Abéanou","lon":-4.2328,"lat":6.97326,"pop":0},{"id":2293555,"name":"Abédéni","lon":-4.06475,"lat":7.68353,"pop":0},{"id":2596949,"name":"Abéguié","alt":["Abegue","Abeguie","Abégué"],"lon":-4.14562,"lat":5.79951,"pop":0},{"id":8031753,"name":"Abéka","lon":-3.88605,"lat":5.28747,"pop":0},{"id":8032374,"name":"Abenan","lon":-4.04412,"lat":5.50251,"pop":0},{"id":2293546,"name":"Abengourou","lon":-5.31791,"lat":7.93874,"pop":0},{"id":2293547,"name":"Abengourou","lon":-2.98333,"lat":7.28333,"pop":0},{"id":2293548,"name":"Abengourou","lon":-3.98333,"lat":7.18333,"pop":0},{"id":2293549,"name":"Abengourou","alt":["Abenguru","OGO","a ben gu lu","abang-gulu","abngwrw","Абенгуру","ابنگورو","阿本古鲁","아방구루"],"lon":-3.49639,"lat":6.72972,"pop":164424},{"id":8033515,"name":"Abènin Assi","lon":-3.74894,"lat":5.91527,"pop":0},{"id":8031547,"name":"Abessé","lon":-4.09197,"lat":5.47686,"pop":0},{"id":8031654,"name":"Abèsso","lon":-3.97628,"lat":5.46619,"pop":0},{"id":2596881,"name":"Abévé","lon":-4.74439,"lat":5.91111,"pop":0},{"id":8031683,"name":"Abi","lon":-3.91068,"lat":5.48106,"pop":0},{"id":2596873,"name":"Abiadougou","lon":-5.29139,"lat":5.95417,"pop":0},{"id":2597079,"name":"Abiaté I","alt":["Abatie","Abatié","Abiate","Abiate I","Abiaté"],"lon":-4.32072,"lat":5.38075,"pop":0},{"id":8536563,"name":"Abiaté II","lon":-4.29323,"lat":5.40773,"pop":0},{"id":2293539,"name":"Abiati","alt":["Abiadi"],"lon":-3.4836,"lat":5.67065,"pop":0},{"id":2293540,"name":"Abiati","lon":-3.17069,"lat":5.28984,"pop":0},{"id":8032382,"name":"Abici Elliam","lon":-4.04188,"lat":5.53197,"pop":0},{"id":2293538,"name":"Abidjan","alt":["ABJ","Abican","Abidzan","Abidzana","Abidzanas","Abidzans","Abidzhan","Abidzhan shaary","Abidżan","Abidžan","Abidžana","Abidžanas","Abidžans","Abigano","Abijan","Abiyan","Abiyán","Abizhan khot","Abiĝano","Ampitzan","a bi rang","a bi ren","abdjan","abijan","abijana","abijang","abijani","abydjan","abyjan","xabi can","ʼbydgʼn","Αμπιτζάν","Абиджан","Абиджан шаары","Абижан хот","Абиџан","Абіджан","Աբիջան","אבידגאן","אבידזשאן","آبدجان","آبیجان","أبيدجان","आबिजान","আবিজান","ਅਬੀਜਾਨ","അബിജാൻ","อาบีจาน","აბიჯანი","アビジャン","阿必仁","阿比让","아비장"],"lon":-4.00167,"lat":5.35444,"pop":6321017},{"id":2293536,"name":"Abidji","lon":-5.00956,"lat":7.5915,"pop":0},{"id":2293535,"name":"Abié","alt":["Abbie","Abbié","Abie"],"lon":-3.92574,"lat":5.86647,"pop":0},{"id":2293533,"name":"Abigou","lon":-5.01667,"lat":6.95,"pop":0},{"id":2293532,"name":"Abigui","lon":-4.83379,"lat":6.69462,"pop":0},{"id":7847752,"name":"Abiguy","alt":["Abigou"],"lon":-5.01509,"lat":6.94211,"pop":0},{"id":2293531,"name":"Abikofikro","alt":["Abikoffikro"],"lon":-5.50473,"lat":7.31714,"pop":0},{"id":2293530,"name":"Abikro","lon":-5.44213,"lat":7.80978,"pop":0},{"id":2293529,"name":"Abinba","lon":-2.76168,"lat":8.11955,"pop":0},{"id":2293523,"name":"Abinibro","alt":["Ablouikro"],"lon":-4.87334,"lat":7.31666,"pop":0},{"id":8032142,"name":"Abiolékro","lon":-3.15552,"lat":5.17048,"pop":0},{"id":2293528,"name":"Ablékro","lon":-5.06844,"lat":7.50857,"pop":0},{"id":2293527,"name":"Abli Aloukro","lon":-4.99499,"lat":6.59422,"pop":0},{"id":2293525,"name":"Abli Bonikro","lon":-4.99402,"lat":6.59658,"pop":0},{"id":2293517,"name":"Abo Blakro","alt":["Abobrako"],"lon":-4.98319,"lat":7.09288,"pop":0},{"id":2293497,"name":"Abo Kouadjokro","alt":["Abokoidiokro"],"lon":-4.81034,"lat":7.21805,"pop":0},{"id":2293495,"name":"Abo Kouassikro","alt":["Abokouassikro"],"lon":-4.70446,"lat":7.16919,"pop":0},{"id":2293521,"name":"Abobo","alt":["Abobo-Gare"],"lon":-4.0159,"lat":5.41613,"pop":1340083},{"id":2293520,"name":"Abobo Baoulé","alt":["Abobo Baoule","Abobo-Abaoure","Abobo-Abaouré"],"lon":-3.99036,"lat":5.41445,"pop":0},{"id":2293519,"name":"Abobo Doumé","lon":-4.03958,"lat":5.30809,"pop":0},{"id":2293518,"name":"Abobo Té","alt":["Abobo Te","Abobo-Atte","Abobo-Atté"],"lon":-3.99682,"lat":5.40569,"pop":0},{"id":2293515,"name":"Abodougou","alt":["Abokouakoudougou"],"lon":-2.95,"lat":7.83333,"pop":0},{"id":2293509,"name":"Aboindoukpinkro","lon":-4.06621,"lat":7.20252,"pop":0},{"id":2293508,"name":"Aboinkro","lon":-4.41861,"lat":7.23111,"pop":0},{"id":2293507,"name":"Aboisso","alt":["ABO","Abisso","Aboisas","Aboiso","Aboissa","Abuasso","a bo yi suo","abwaysw","Абоисо","Абуассо","ابوایسو","阿博伊索"],"lon":-3.20711,"lat":5.46779,"pop":37654},{"id":2284679,"name":"Aboisso Comoé","alt":["Aboisso Comoe","Malamalasso"],"lon":-3.40338,"lat":5.7351,"pop":0},{"id":7849082,"name":"Aboka","lon":-6.81589,"lat":6.53867,"pop":0},{"id":8031735,"name":"Aboka","lon":-3.85487,"lat":5.39688,"pop":0},{"id":8032412,"name":"Aboké Dosso","lon":-4.03393,"lat":5.65724,"pop":0},{"id":2293499,"name":"Abokindé","lon":-4.16667,"lat":7.16667,"pop":0},{"id":2293496,"name":"Abokosso","lon":-3.59698,"lat":7.60058,"pop":0},{"id":2293477,"name":"Abokouamikro","alt":["Aboikoimekro","Aboikoimékro","Abouakouamekro","Abouakouamékro"],"lon":-5.05506,"lat":6.82884,"pop":0},{"id":2293494,"name":"Abokouma","lon":-3.12834,"lat":7.71385,"pop":0},{"id":2293493,"name":"Abokro","alt":["Abokrou"],"lon":-4.28726,"lat":7.46473,"pop":0},{"id":8536703,"name":"Abole Kouassikro","alt":["Kouasikro"],"lon":-5.25368,"lat":7.64088,"pop":0},{"id":2293492,"name":"Abolékro","lon":-4.28333,"lat":7.1,"pop":0},{"id":8031919,"name":"Aboli Laib","lon":-4.4327,"lat":5.51656,"pop":0},{"id":2293491,"name":"Abolikro","lon":-5.33337,"lat":7.68467,"pop":0},{"id":2293488,"name":"Abondié","lon":-3.4275,"lat":7.90056,"pop":0},{"id":2293510,"name":"Abongnikro","alt":["Aboikro"],"lon":-4.44222,"lat":7.19149,"pop":0},{"id":8032421,"name":"Abongo","lon":-4.0446,"lat":5.67074,"pop":0},{"id":2293487,"name":"Abongonamoun","lon":-4.31667,"lat":7.31667,"pop":0},{"id":2293486,"name":"Abongoua","lon":-4.10178,"lat":6.6527,"pop":0},{"id":2293550,"name":"Abongoua","alt":["Abengoua"],"lon":-3.54335,"lat":6.24709,"pop":0},{"id":8032452,"name":"Aboni","lon":-4.50132,"lat":5.92131,"pop":0},{"id":8032436,"name":"Abonokro","lon":-4.49689,"lat":5.89959,"pop":0},{"id":8032895,"name":"Abou Abé","lon":-4.07518,"lat":5.80238,"pop":0},{"id":8032247,"name":"Abou Ayoro","lon":-4.38686,"lat":5.51357,"pop":0},{"id":8031558,"name":"Aboua","lon":-4.07815,"lat":5.4473,"pop":0},{"id":8032904,"name":"Aboua Akesse","lon":-4.03054,"lat":5.81677,"pop":0},{"id":8032953,"name":"Aboua Kouao","lon":-4.00426,"lat":5.86095,"pop":0},{"id":2293471,"name":"Aboua Nguessankro","lon":-5.15465,"lat":7.94937,"pop":0},{"id":8033394,"name":"Aboua Seka","lon":-3.91079,"lat":5.8232,"pop":0},{"id":2595324,"name":"Abouabou","lon":-3.90772,"lat":5.29396,"pop":0},{"id":2293480,"name":"Abouadikro","lon":-3.96667,"lat":7.45,"pop":0},{"id":2293512,"name":"Abouakakro","alt":["Aboikakro"],"lon":-5.10377,"lat":6.47305,"pop":0},{"id":2293478,"name":"Abouakouadiokro","lon":-4.13333,"lat":7.36667,"pop":0},{"id":2293470,"name":"Abouakouassikro","alt":["Abouassikro"],"lon":-5.32952,"lat":6.82485,"pop":0},{"id":2293476,"name":"Abouakrakro","lon":-3.89399,"lat":7.21212,"pop":0},{"id":2293473,"name":"Abouakro","lon":-4.82898,"lat":7.68378,"pop":0},{"id":2293474,"name":"Abouakro","lon":-5.6,"lat":7.56667,"pop":0},{"id":2293475,"name":"Abouakro","lon":-3.9,"lat":7.28333,"pop":0},{"id":8031707,"name":"Abouakro","lon":-3.86776,"lat":5.42597,"pop":0},{"id":2293472,"name":"Abouandrikro","lon":-5.1149,"lat":6.50749,"pop":0},{"id":2293469,"name":"Abouassio","alt":["Assoundi"],"lon":-3.33637,"lat":7.4661,"pop":0},{"id":2293468,"name":"Aboudé","alt":["Aboude","Aboude Kouassikro","Aboudé Kouassikro","Abude"],"lon":-4.56253,"lat":5.89609,"pop":0},{"id":2293467,"name":"Aboudé Mendeké","alt":["Aboude Mendeke","Aboude-Mandeke","Aboudé-Mandéké","AboukeMendeke","AboukéMendéké"],"lon":-4.53484,"lat":5.89756,"pop":0},{"id":2293465,"name":"Aboudoukro","lon":-3.91667,"lat":7.78333,"pop":0},{"id":7883955,"name":"Abougnankro","lon":-4.96954,"lat":7.74611,"pop":0},{"id":8031650,"name":"Abouka","lon":-3.98197,"lat":5.44121,"pop":0},{"id":2293464,"name":"Aboukankro","lon":-4.3,"lat":7.43333,"pop":0},{"id":2293460,"name":"Aboukro","lon":-4.11421,"lat":7.46005,"pop":0},{"id":2293461,"name":"Aboukro","lon":-4.23333,"lat":7.06667,"pop":0},{"id":2293462,"name":"Aboukro","lon":-4.23333,"lat":7.01667,"pop":0},{"id":7883959,"name":"Abouokro","lon":-4.83267,"lat":7.71557,"pop":0},{"id":2293458,"name":"Aboussou","alt":["Abousou"],"lon":-5.38764,"lat":7.50191,"pop":0},{"id":8032439,"name":"Aboussoukro","lon":-4.48747,"lat":5.90379,"pop":0},{"id":8032181,"name":"Aboutou","lon":-3.34071,"lat":5.21772,"pop":0},{"id":8032185,"name":"Aboutou","lon":-3.38917,"lat":5.23928,"pop":0},{"id":2293456,"name":"Aboyo","lon":-5.80626,"lat":5.9712,"pop":0},{"id":2293455,"name":"Abraco","alt":["Abra"],"lon":-4.463,"lat":5.26889,"pop":0},{"id":2293452,"name":"Abradine","lon":-3.61125,"lat":6.19975,"pop":0},{"id":2293453,"name":"Abradinou","alt":["Abradine"],"lon":-3.455,"lat":6.19639,"pop":0},{"id":2293448,"name":"Abriokra","lon":-5.63278,"lat":7.22417,"pop":0},{"id":8031974,"name":"Abro Abro","lon":-4.45525,"lat":5.64455,"pop":0},{"id":8031883,"name":"Abrobakro","lon":-3.51283,"lat":5.27703,"pop":0},{"id":2597043,"name":"Abroki","alt":["Abruki"],"lon":-3.63378,"lat":5.54538,"pop":0},{"id":2289415,"name":"Abronambué","alt":["Abronambue","Abrounamoue","Abrounamoué","Abrunamue","Ebrianamoe","Ebrianamoé","Ebrinamoe","Ebrinamoue","Ebrinamoué","Ebrinamoé"],"lon":-3.34139,"lat":6.75611,"pop":0},{"id":8032029,"name":"Abrotchi","lon":-3.63473,"lat":5.54297,"pop":0},{"id":2293446,"name":"Abrouki","lon":-3.13472,"lat":6.05194,"pop":0},{"id":8032995,"name":"Abusu Assi","lon":-4.04245,"lat":5.99192,"pop":0},{"id":2293445,"name":"Aby","alt":["Abi"],"lon":-3.16916,"lat":5.30502,"pop":0},{"id":8033385,"name":"Acai Akaoua","lon":-3.88329,"lat":5.97822,"pop":0},{"id":8033519,"name":"Ach Epi Abènin","lon":-3.73436,"lat":5.92676,"pop":0},{"id":8031453,"name":"Achanti","lon":-4.1604,"lat":5.22907,"pop":0},{"id":8031795,"name":"Aché Kouassi","lon":-3.81391,"lat":5.25446,"pop":0},{"id":8033530,"name":"Achépi","lon":-3.7497,"lat":5.98198,"pop":0},{"id":8033474,"name":"Achèpo","lon":-3.66229,"lat":5.79797,"pop":0},{"id":8033521,"name":"Achépo Bouchou","lon":-3.73149,"lat":5.95801,"pop":0},{"id":8032978,"name":"Achi","lon":-4.03836,"lat":5.89147,"pop":0},{"id":8033120,"name":"Achi","lon":-3.73488,"lat":5.65561,"pop":0},{"id":8033128,"name":"Achi","lon":-3.71509,"lat":5.66435,"pop":0},{"id":8033143,"name":"Achi","lon":-3.72105,"lat":5.68497,"pop":0},{"id":8033377,"name":"Achi","lon":-3.84953,"lat":5.91678,"pop":0},{"id":8032920,"name":"Achi Achi","lon":-4.05925,"lat":5.85061,"pop":0},{"id":8033369,"name":"Achi Achi","lon":-3.98376,"lat":5.9623,"pop":0},{"id":8033083,"name":"Achi Ayi","lon":-3.71345,"lat":5.51441,"pop":0},{"id":8033350,"name":"Achi Mouan","lon":-3.91888,"lat":5.76729,"pop":0},{"id":8033362,"name":"Achi Yao Pail","lon":-3.95841,"lat":5.83869,"pop":0},{"id":8032981,"name":"Achi Yapi","lon":-4.04799,"lat":5.90297,"pop":0},{"id":2293443,"name":"Achiebo Koua","lon":-4.08333,"lat":5.53333,"pop":0},{"id":8031532,"name":"Acho","lon":-4.10621,"lat":5.45393,"pop":0},{"id":8032308,"name":"Acho","lon":-4.18324,"lat":5.62341,"pop":0},{"id":8033502,"name":"Acho","lon":-3.63716,"lat":5.84515,"pop":0},{"id":8033033,"name":"Acho Nda","lon":-3.96806,"lat":5.74782,"pop":0},{"id":8031715,"name":"Achokoa","alt":["Achokoua"],"lon":-3.83772,"lat":5.37429,"pop":0},{"id":8033058,"name":"Achokoua","lon":-3.83517,"lat":5.55896,"pop":0},{"id":8032866,"name":"Achoua","lon":-4.16716,"lat":5.99748,"pop":0},{"id":8031533,"name":"Ada Kouassi","lon":-4.11109,"lat":5.46418,"pop":0},{"id":8031545,"name":"Ada Kouassi","lon":-4.09975,"lat":5.49882,"pop":0},{"id":2293442,"name":"Adadikouro","lon":-3.23333,"lat":7.31667,"pop":0},{"id":8032462,"name":"Adagba","lon":-4.43086,"lat":5.95129,"pop":0},{"id":8032656,"name":"Adagba Ako","lon":-4.37774,"lat":5.80487,"pop":0},{"id":8032508,"name":"Adahi Kouadjo","lon":-4.47853,"lat":5.99542,"pop":0},{"id":2293436,"name":"Adahou","alt":["Adaou"],"lon":-4.83709,"lat":6.81292,"pop":0},{"id":2293440,"name":"Adahou","lon":-3.51246,"lat":6.71879,"pop":0},{"id":2596941,"name":"Adahou","lon":-4.22466,"lat":5.90237,"pop":0},{"id":2293439,"name":"Adaké","lon":-4.16667,"lat":5.51667,"pop":0},{"id":2597010,"name":"Adakié","alt":["Adakie","Adattie","Adattié"],"lon":-4.16695,"lat":5.54557,"pop":0},{"id":8031448,"name":"Adama","lon":-4.24573,"lat":5.23152,"pop":0},{"id":8031762,"name":"Adama","lon":-3.7799,"lat":5.24743,"pop":0},{"id":8032580,"name":"Adama","lon":-4.33428,"lat":5.91497,"pop":0},{"id":8031662,"name":"Adama Diara","lon":-3.9558,"lat":5.42507,"pop":0},{"id":8031673,"name":"Adama Diomande","lon":-3.94626,"lat":5.45014,"pop":0},{"id":8031816,"name":"Adama Diop","lon":-3.78374,"lat":5.2915,"pop":0},{"id":8032393,"name":"Adamo","lon":-4.07393,"lat":5.53412,"pop":0},{"id":2293437,"name":"Adaou","alt":["Labokro"],"lon":-5.04924,"lat":6.80119,"pop":0},{"id":2293438,"name":"Adaou","lon":-4.88275,"lat":6.27638,"pop":0},{"id":2597112,"name":"Adaou","lon":-3.26443,"lat":5.42783,"pop":0},{"id":2293435,"name":"Adaromé","lon":-4.19049,"lat":5.58043,"pop":0},{"id":8031943,"name":"Adbo Amani","lon":-4.49073,"lat":5.59688,"pop":0},{"id":2293434,"name":"Addah","alt":["Adda"],"lon":-4.6507,"lat":5.17483,"pop":0},{"id":2293364,"name":"Adébem","alt":["Adebem","Adebem-Kagberi","Adobou I","Adébem-Kagbéri"],"lon":-5.83667,"lat":5.47349,"pop":0},{"id":2293432,"name":"Adèndia","lon":-3.01043,"lat":7.75953,"pop":0},{"id":2293430,"name":"Adessé","alt":["Adesse"],"lon":-4.69887,"lat":5.16817,"pop":0},{"id":2293400,"name":"Adi Koffikro","alt":["Adi-Kofikro"],"lon":-4.6353,"lat":7.22025,"pop":0},{"id":2293377,"name":"Adi-Yaprikro","alt":["Adiapikro"],"lon":-4.30958,"lat":7.55852,"pop":0},{"id":8032964,"name":"Adia","lon":-4.01625,"lat":5.88594,"pop":0},{"id":2293429,"name":"Adiadon","lon":-5.17729,"lat":5.13,"pop":0},{"id":2293428,"name":"Adiaké","alt":["Adiake"],"lon":-3.30403,"lat":5.28634,"pop":16531},{"id":2293424,"name":"Adiakou Konankro","lon":-4.69904,"lat":6.77209,"pop":0},{"id":2293425,"name":"Adiakouémi","lon":-4.11982,"lat":7.38485,"pop":0},{"id":2293423,"name":"Adiakouro","lon":-3.55,"lat":7.88333,"pop":0},{"id":2293422,"name":"Adiao","lon":-2.88333,"lat":7.81667,"pop":0},{"id":2293421,"name":"Adiaou","lon":-4.0446,"lat":7.22051,"pop":0},{"id":2293420,"name":"Adiaoukoi","alt":["Adiaoukei"],"lon":-3.705,"lat":6.58333,"pop":0},{"id":8031437,"name":"Adiapo Moronou","alt":["Madame Djo"],"lon":-4.18285,"lat":5.33501,"pop":0},{"id":2293419,"name":"Adiapo-Doumé","alt":["Adiapo-Doume","Adiopo Doume","Adiopo Doumé"],"lon":-4.13158,"lat":5.34105,"pop":0},{"id":2293418,"name":"Adiapoté Té","alt":["Adiapo-Te","Adiapo-Té","Adiapote Te"],"lon":-4.17585,"lat":5.30889,"pop":0},{"id":2293417,"name":"Adiapoto-I","alt":["Adiapo-To","Adiapo-To I"],"lon":-4.19496,"lat":5.31431,"pop":0},{"id":8031439,"name":"Adiapoto-II","alt":["Adiapo-To II"],"lon":-4.18588,"lat":5.30607,"pop":0},{"id":2293413,"name":"Adibrébo","alt":["Adibrebo","Adibrobo"],"lon":-4.60865,"lat":6.5128,"pop":0},{"id":2293409,"name":"Adiébonou","lon":-5.25801,"lat":7.81663,"pop":0},{"id":2293408,"name":"Adiékankro","lon":-4.96722,"lat":7.81639,"pop":0},{"id":2293406,"name":"Adiékro","lon":-5.26603,"lat":7.43944,"pop":0},{"id":2293407,"name":"Adiékro","lon":-3.69271,"lat":7.06743,"pop":0},{"id":2293534,"name":"Adiékro","alt":["Abiekro","Abiékro","Adiekro"],"lon":-5.19611,"lat":7.79953,"pop":0},{"id":2289409,"name":"Adihao","alt":["Adiao","Edio","Jahu"],"lon":-3.61522,"lat":5.28641,"pop":0},{"id":2293401,"name":"Adikankourou","lon":-3.91323,"lat":7.52461,"pop":0},{"id":2293402,"name":"Adikankourou","lon":-3.91194,"lat":7.52056,"pop":0},{"id":2293399,"name":"Adikokoi","alt":["Adikokwa"],"lon":-3.71193,"lat":6.63331,"pop":0},{"id":2293398,"name":"Adikou","lon":-3.34371,"lat":5.43329,"pop":0},{"id":2293396,"name":"Adikro","lon":-4.85164,"lat":7.75728,"pop":0},{"id":2293397,"name":"Adikro","lon":-4.94353,"lat":6.9232,"pop":0},{"id":8536647,"name":"Adikro Fondi","lon":-4.88767,"lat":7.75057,"pop":0},{"id":8032145,"name":"Adima","lon":-3.07316,"lat":5.14687,"pop":0},{"id":2293395,"name":"Adimanékouro","alt":["Adimanekouro","Adiomakro"],"lon":-3.31667,"lat":7.76667,"pop":0},{"id":2293393,"name":"Adingaranamoun","lon":-4.18333,"lat":7.45,"pop":0},{"id":2293389,"name":"Adioblessou","alt":["Adiolessou"],"lon":-5.34214,"lat":7.49068,"pop":0},{"id":2293385,"name":"Adiogouansou","alt":["Adiongouasou","Adiongouassou"],"lon":-5.27989,"lat":7.55264,"pop":0},{"id":2293391,"name":"Adiokro","lon":-5.42059,"lat":7.97124,"pop":0},{"id":8032086,"name":"Adiougou","lon":-3.39223,"lat":5.4581,"pop":0},{"id":2293383,"name":"Adioumaniko","lon":-4.21667,"lat":7.46667,"pop":0},{"id":2293384,"name":"Adioumanikro","alt":["Adioumanekro","Adioumanékro"],"lon":-4.66278,"lat":6.85807,"pop":0},{"id":2293382,"name":"Adioumanikrou","lon":-3.41376,"lat":7.89807,"pop":0},{"id":2293381,"name":"Adioumbéreti","lon":-5.07181,"lat":7.84196,"pop":0},{"id":2293379,"name":"Adissakakro","lon":-5.1068,"lat":7.59893,"pop":0},{"id":2293416,"name":"Adja Ngbi Koffikro","alt":["Adiapri-Kofikro"],"lon":-4.94141,"lat":7.61254,"pop":0},{"id":8033199,"name":"Adjabikro","lon":-3.5747,"lat":5.54503,"pop":0},{"id":8032442,"name":"Adjachi Akattou","lon":-4.4192,"lat":5.90494,"pop":0},{"id":2293376,"name":"Adjacouti","alt":["Adjaconti","Adjacoutie","Adjacoutié","Adjacouty","Adjakouti","Ajaconti"],"lon":-4.56229,"lat":5.18642,"pop":0},{"id":8033405,"name":"Adjambe Ada","lon":-3.91616,"lat":5.78754,"pop":0},{"id":2293373,"name":"Adjamé","lon":-3.51713,"lat":6.27517,"pop":0},{"id":2293374,"name":"Adjamé","lon":-3.87196,"lat":5.34558,"pop":0},{"id":2293375,"name":"Adjamé","lon":-4.02464,"lat":5.35053,"pop":0},{"id":8033472,"name":"Adjé","lon":-3.66172,"lat":5.79602,"pop":0},{"id":8033197,"name":"Adjékro","lon":-3.56686,"lat":5.53393,"pop":0},{"id":2293404,"name":"Adjélilié","alt":["Adielilie","Adiélilie","Adjelilie"],"lon":-5.48622,"lat":6.06699,"pop":0},{"id":8033503,"name":"Adjicoa","lon":-3.64342,"lat":5.84556,"pop":0},{"id":2293411,"name":"Adjiebo","alt":["Adiebo","Adiébo"],"lon":-4.81184,"lat":7.30396,"pop":0},{"id":8031603,"name":"Adjifou","lon":-3.92619,"lat":5.28469,"pop":0},{"id":8031602,"name":"Adjifou Deux","lon":-3.92104,"lat":5.24282,"pop":0},{"id":8031601,"name":"Adjifou Un","lon":-3.92854,"lat":5.24386,"pop":0},{"id":8032842,"name":"Adjiko","lon":-4.24057,"lat":5.75688,"pop":0},{"id":2293240,"name":"Adjin","alt":["Aghien","Aghién","Aguien"],"lon":-3.8539,"lat":5.3959,"pop":0},{"id":8031701,"name":"Adjin","lon":-3.85269,"lat":5.41446,"pop":0},{"id":8032596,"name":"Adjodi Nguessan","lon":-4.3766,"lat":5.86388,"pop":0},{"id":2293367,"name":"Adjouan","alt":["Adjouhan","Ajwa"],"lon":-3.15232,"lat":5.30995,"pop":0},{"id":2293414,"name":"Adjuassou","alt":["Adiassou"],"lon":-5.10007,"lat":7.47697,"pop":0},{"id":2293366,"name":"Adjué","lon":-4.5478,"lat":5.18762,"pop":0},{"id":2293405,"name":"Adlékro","alt":["Adiekro","Adiékro","Adlekro"],"lon":-5.07538,"lat":7.49731,"pop":0},{"id":8032922,"name":"Ado Daffou","lon":-4.0359,"lat":5.83544,"pop":0},{"id":8032923,"name":"Ado Sombe","lon":-4.03699,"lat":5.83567,"pop":0},{"id":8032564,"name":"Adobi","lon":-4.39382,"lat":5.84023,"pop":0},{"id":2293363,"name":"Adobou II","alt":["Adobou"],"lon":-5.83671,"lat":5.49072,"pop":0},{"id":2293362,"name":"Adohosou","alt":["Adohossou"],"lon":-5.38971,"lat":8.02007,"pop":0},{"id":2293361,"name":"Adokoi","lon":-3.78154,"lat":6.00999,"pop":0},{"id":8031472,"name":"Adoma","alt":["Akouado"],"lon":-4.14159,"lat":5.29317,"pop":0},{"id":8032542,"name":"Adoma","lon":-4.3532,"lat":5.92926,"pop":0},{"id":8032271,"name":"Adon","lon":-4.2951,"lat":5.52649,"pop":0},{"id":8031419,"name":"Adonkoua","lon":-4.21007,"lat":5.41379,"pop":0},{"id":8033508,"name":"Adopo","lon":-3.52214,"lat":5.78799,"pop":0},{"id":2597101,"name":"Adosso","alt":["Dosso"],"lon":-3.52474,"lat":5.35495,"pop":0},{"id":8032005,"name":"Adou","lon":-4.47358,"lat":5.7002,"pop":0},{"id":8033124,"name":"Adou","lon":-3.71212,"lat":5.66055,"pop":0},{"id":8033491,"name":"Adou","lon":-3.61052,"lat":5.80403,"pop":0},{"id":8031677,"name":"Adou Dia","lon":-3.94433,"lat":5.46111,"pop":0},{"id":8032929,"name":"Adou Gbohaou","lon":-4.02855,"lat":5.84557,"pop":0},{"id":8032933,"name":"Adou Ncho","lon":-4.0037,"lat":5.83597,"pop":0},{"id":8032942,"name":"Adou Yapi","lon":-4.05908,"lat":5.86667,"pop":0},{"id":8031871,"name":"Adouagoassopié","lon":-3.58858,"lat":5.33922,"pop":0},{"id":8032919,"name":"Adouaié Ekpomé","lon":-4.06026,"lat":5.83886,"pop":0},{"id":2293359,"name":"Adouakouakro","lon":-4.42868,"lat":6.60644,"pop":0},{"id":2293358,"name":"Adouaprikro","lon":-5.14117,"lat":7.57508,"pop":0},{"id":8033401,"name":"Adouki","lon":-3.79736,"lat":5.88261,"pop":0},{"id":2293357,"name":"Adoukoffikro","alt":["Adoukofikro"],"lon":-3.46333,"lat":6.70222,"pop":0},{"id":2293355,"name":"Adoukro","lon":-3.33929,"lat":7.84487,"pop":0},{"id":2293356,"name":"Adoukro","lon":-3.41997,"lat":7.43868,"pop":0},{"id":8031441,"name":"Adoukro","lon":-4.24826,"lat":5.26966,"pop":0},{"id":8031406,"name":"Adoumangan","alt":["Adoumanga","Diesse","Diessé"],"lon":-4.38902,"lat":5.20504,"pop":0},{"id":2293352,"name":"Adoumkroum","lon":-2.86349,"lat":7.8058,"pop":0},{"id":2293351,"name":"Adounikro","lon":-3.56404,"lat":6.72245,"pop":0},{"id":2293347,"name":"Adroukro","lon":-3.93789,"lat":7.52348,"pop":0},{"id":2293342,"name":"Adzopé","alt":["Adzope","Адзопе"],"lon":-3.86194,"lat":6.10694,"pop":61884},{"id":2286153,"name":"Aelou Kouadiokro","alt":["Aklou Kouadiokro","Kouadiokro"],"lon":-4.73604,"lat":7.94619,"pop":0},{"id":2293337,"name":"Aérokro","lon":-4.54879,"lat":6.99017,"pop":0},{"id":2293330,"name":"Afékouro","lon":-5.20549,"lat":7.64673,"pop":0},{"id":2293328,"name":"Aféré","alt":["Afere","Affere","Afféré"],"lon":-4.08374,"lat":6.90283,"pop":0},{"id":2293329,"name":"Aféré","alt":["Afere","Affere","Afféré"],"lon":-3.15,"lat":5.71667,"pop":0},{"id":2293325,"name":"Aféri","lon":-3.51932,"lat":7.75034,"pop":0},{"id":2293326,"name":"Aféri","lon":-3.52083,"lat":7.7475,"pop":0},{"id":2293324,"name":"Aféri I","lon":-3.96028,"lat":6.315,"pop":0},{"id":2293323,"name":"Aféri II","lon":-3.95056,"lat":6.30806,"pop":0},{"id":2293322,"name":"Aféri Sénago Konakro","alt":["Aferi Senago Konakro","Aferissenago-Konakro","Aférissenago-Konakro"],"lon":-5.02732,"lat":7.48396,"pop":0},{"id":8033138,"name":"Afessi","lon":-3.73985,"lat":5.70468,"pop":0},{"id":2288118,"name":"Affery","alt":["Aferi","Aféri","Grand Aferi","Grand Aféri"],"lon":-3.95235,"lat":6.32035,"pop":47109},{"id":8032255,"name":"Affi Kakou","lon":-4.35841,"lat":5.52025,"pop":0},{"id":8031964,"name":"Affi Kaménan","lon":-4.48221,"lat":5.61978,"pop":0},{"id":8031949,"name":"Affi Ono","lon":-4.48157,"lat":5.59964,"pop":0},{"id":2293321,"name":"Affiénou","alt":["Affienou","Afienou","Afiénou"],"lon":-2.92478,"lat":5.41118,"pop":0},{"id":2293308,"name":"Affouékro","alt":["Affouekro","Afoue-Kokrekro","Afoué-Kokrékro"],"lon":-4.99319,"lat":7.20211,"pop":0},{"id":8033026,"name":"Affoukoua","lon":-3.94487,"lat":5.68213,"pop":0},{"id":2293318,"name":"Afienkouadioukro","lon":-5.12458,"lat":7.30916,"pop":0},{"id":2293315,"name":"Afodian","lon":-4.13333,"lat":7.48333,"pop":0},{"id":2293316,"name":"Afodian","lon":-4.25,"lat":7.41667,"pop":0},{"id":2293314,"name":"Afonkaha","alt":["Afounkaba","Afounkaha"],"lon":-5.14822,"lat":8.22731,"pop":0},{"id":2293312,"name":"Aforénou","alt":["Aforenou","Aforenu","Newtown"],"lon":-3.11243,"lat":5.0933,"pop":0},{"id":8031895,"name":"Aforié","lon":-3.54323,"lat":5.26518,"pop":0},{"id":2293310,"name":"Afotobo","lon":-5.46342,"lat":7.67025,"pop":0},{"id":2293311,"name":"Afotobo","alt":["Afatobo"],"lon":-5.01624,"lat":6.66432,"pop":0},{"id":2293309,"name":"Afouanvam","lon":-2.89805,"lat":7.99571,"pop":0},{"id":2293307,"name":"Afouékro","lon":-4.92258,"lat":7.7561,"pop":0},{"id":2293306,"name":"Afouibano","lon":-3.9835,"lat":7.1445,"pop":0},{"id":2293305,"name":"Afoumvassou","alt":["Afoumvasso"],"lon":-4.96409,"lat":7.86344,"pop":0},{"id":2293304,"name":"Afoumvossou","lon":-4.15,"lat":7.33333,"pop":0},{"id":8031874,"name":"Afounassépié","lon":-3.55681,"lat":5.37144,"pop":0},{"id":2293303,"name":"Afounvanso","alt":["Afounvansso","Afouvanso"],"lon":-3.87445,"lat":7.65221,"pop":0},{"id":2293302,"name":"Afounvassou","lon":-4.18333,"lat":7.36667,"pop":0},{"id":2293300,"name":"Afridoukou","alt":["Afridougou"],"lon":-5.95005,"lat":6.14844,"pop":0},{"id":8032909,"name":"Agba Abode","lon":-4.01849,"lat":5.824,"pop":0},{"id":2293287,"name":"Agba-Mbayassou","alt":["Agba-Bayassou"],"lon":-4.26818,"lat":7.11518,"pop":0},{"id":2293292,"name":"Agbagouanda","lon":-4.41667,"lat":7.2,"pop":0},{"id":2293290,"name":"Agbaillé","alt":["Agbaille","Agbaye","Agbayé"],"lon":-4.51631,"lat":5.30068,"pop":0},{"id":2293288,"name":"Agbakro","lon":-3.97031,"lat":7.76184,"pop":0},{"id":2293289,"name":"Agbakro","lon":-5.18443,"lat":7.73142,"pop":0},{"id":2293286,"name":"Agban","lon":-4.0346,"lat":5.35933,"pop":0},{"id":2293284,"name":"Agbaniassou","alt":["Agbanianssou"],"lon":-5.02065,"lat":6.58652,"pop":0},{"id":2293281,"name":"Agbanou","lon":-5.4127,"lat":7.8113,"pop":0},{"id":2293282,"name":"Agbanou","lon":-5.28175,"lat":7.47106,"pop":0},{"id":2293280,"name":"Agbao","alt":["Agbaou","Agbau"],"lon":-5.77814,"lat":7.74586,"pop":0},{"id":2293278,"name":"Agbaou","alt":["Agbau"],"lon":-3.85433,"lat":6.34136,"pop":0},{"id":2293279,"name":"Agbaou","lon":-5.21515,"lat":6.0816,"pop":0},{"id":2293251,"name":"Agbayanoua","alt":["Agouanoua"],"lon":-5.20362,"lat":7.52011,"pop":0},{"id":8032252,"name":"Agbedjé","lon":-4.36626,"lat":5.52554,"pop":0},{"id":8032254,"name":"Agbedjé Daté","lon":-4.36278,"lat":5.51784,"pop":0},{"id":8032235,"name":"Agbedjé Ossohou","lon":-4.35771,"lat":5.56576,"pop":0},{"id":2293274,"name":"Agbensi","alt":["Abayanzi"],"lon":-5.45336,"lat":8.02994,"pop":0},{"id":8031535,"name":"Agbessi","lon":-4.1171,"lat":5.46036,"pop":0},{"id":8031518,"name":"Agbessi Abokon","lon":-4.11701,"lat":5.44251,"pop":0},{"id":8031510,"name":"Agbo Mbeyan","lon":-4.14305,"lat":5.43236,"pop":0},{"id":2293271,"name":"Agboro","lon":-5.48472,"lat":5.73431,"pop":0},{"id":2293270,"name":"Agbosso","lon":-4.08333,"lat":6.85,"pop":0},{"id":2293269,"name":"Agbossou","lon":-4.0816,"lat":6.86144,"pop":0},{"id":2293268,"name":"Agboville","alt":["Agbovil'","Agbovile","Agbovilis","a bo wei er","agbawyl","agbwwyl","Агбовиле","Агбовиль","Агбовіль","اگباویل","اگبوویل","阿博維爾"],"lon":-4.21319,"lat":5.92801,"pop":81770},{"id":2293264,"name":"Agnéby","lon":-4.34565,"lat":5.31564,"pop":0},{"id":2292847,"name":"Agnéré Koffikro","alt":["Agnere Koffikro","Agnerekoflikro","Agnérékoflikro","Anyerekoffikro","Anyerékoffikro"],"lon":-4.9193,"lat":6.80507,"pop":0},{"id":8032250,"name":"Agness Akro","lon":-4.36926,"lat":5.51751,"pop":0},{"id":2293263,"name":"Agnianou","alt":["Anyanou"],"lon":-3.75747,"lat":7.6872,"pop":0},{"id":2293260,"name":"Agnibilékrou","alt":["Agnibilekrou","Anibelekru"],"lon":-3.20415,"lat":7.13113,"pop":43061},{"id":2292846,"name":"Agnibonou","alt":["Anyibonou","Kamele","Kamélé"],"lon":-5.44048,"lat":7.42984,"pop":0},{"id":2293258,"name":"Agnie","lon":-6.96053,"lat":4.69965,"pop":0},{"id":8032245,"name":"Agnigba Memei","lon":-4.39159,"lat":5.50952,"pop":0},{"id":8031716,"name":"Agnimékoua","lon":-3.91685,"lat":5.40894,"pop":0},{"id":8031566,"name":"Agnissankoua","lon":-4.02744,"lat":5.44389,"pop":0},{"id":8032495,"name":"Agnon","lon":-4.46439,"lat":5.97858,"pop":0},{"id":8031544,"name":"Ago","lon":-4.09396,"lat":5.48453,"pop":0},{"id":2293257,"name":"Agobo","lon":-4.70722,"lat":7.24083,"pop":0},{"id":2293256,"name":"Agokro","lon":-5.31829,"lat":7.56745,"pop":0},{"id":2292899,"name":"Agonassou","alt":["Angonanssou"],"lon":-5.60299,"lat":7.50417,"pop":0},{"id":2596951,"name":"Agou","lon":-3.94393,"lat":5.98289,"pop":0},{"id":8032331,"name":"Agou","lon":-4.21744,"lat":5.74078,"pop":0},{"id":2293254,"name":"Agoua","alt":["Agwa"],"lon":-4.05587,"lat":6.88063,"pop":0},{"id":2293255,"name":"Agoua","lon":-4.47738,"lat":6.49565,"pop":0},{"id":2596937,"name":"Agouahin","lon":-4.13091,"lat":5.97646,"pop":0},{"id":2293250,"name":"Agouaye","alt":["Lagagouaya"],"lon":-4.95,"lat":5.23333,"pop":0},{"id":2293249,"name":"Agouédé","lon":-5.20607,"lat":7.53024,"pop":0},{"id":2293248,"name":"Agouékro","lon":-4.96667,"lat":7.75,"pop":0},{"id":2293246,"name":"Agoussounou","lon":-3.78333,"lat":7.71667,"pop":0},{"id":2293243,"name":"Aguibango","lon":-3.18333,"lat":7.95,"pop":0},{"id":2293241,"name":"Aguibri","lon":-5.19065,"lat":7.06224,"pop":0},{"id":2293238,"name":"Aguinda","alt":["Agina"],"lon":-3.22747,"lat":7.90271,"pop":0},{"id":8031769,"name":"Ahankro","lon":-3.83577,"lat":5.28034,"pop":0},{"id":8033081,"name":"Ahi","lon":-3.72954,"lat":5.52259,"pop":0},{"id":2293232,"name":"Ahi Bango","lon":-3.25394,"lat":7.83372,"pop":0},{"id":8033111,"name":"Ahiba","lon":-3.67005,"lat":5.56907,"pop":0},{"id":2293231,"name":"Ahiérémou","lon":-4.93012,"lat":6.21777,"pop":0},{"id":2286819,"name":"Ahigbé Koffikro","alt":["Ahigbe Koffikro","Koffikro","Kofikro"],"lon":-3.38023,"lat":5.40755,"pop":0},{"id":2293229,"name":"Ahiroa","alt":["Ahirou"],"lon":-4.63357,"lat":6.17474,"pop":0},{"id":8032861,"name":"Ahizi","lon":-4.24111,"lat":5.94325,"pop":0},{"id":8033106,"name":"Aho Nguessan","lon":-3.6993,"lat":5.54729,"pop":0},{"id":8033105,"name":"Aho Yapi","lon":-3.69785,"lat":5.54482,"pop":0},{"id":2293054,"name":"Aholi","alt":["Ale","Alé"],"lon":-5.13663,"lat":7.55312,"pop":0},{"id":2293228,"name":"Ahorokpa","lon":-6.00169,"lat":4.98002,"pop":0},{"id":2293227,"name":"Ahorosso","lon":-4.20299,"lat":6.68202,"pop":0},{"id":7884049,"name":"Ahossi Takikro","lon":-5.0284,"lat":7.85909,"pop":0},{"id":8033454,"name":"Ahou","lon":-3.7257,"lat":5.82015,"pop":0},{"id":8031528,"name":"Ahou Abou Koffi","lon":-4.097,"lat":5.44902,"pop":0},{"id":8032001,"name":"Ahou Yedé","lon":-4.47141,"lat":5.70538,"pop":0},{"id":8033093,"name":"Ahoua","lon":-3.71302,"lat":5.53282,"pop":0},{"id":8033218,"name":"Ahoua","lon":-3.57389,"lat":5.73662,"pop":0},{"id":8033441,"name":"Ahoua Abé","lon":-3.73895,"lat":5.76842,"pop":0},{"id":8032635,"name":"Ahoua Passe","lon":-4.37402,"lat":5.78253,"pop":0},{"id":8033104,"name":"Ahoua Yapi","lon":-3.70485,"lat":5.54722,"pop":0},{"id":8032867,"name":"Ahouadji","lon":-4.24691,"lat":5.98082,"pop":0},{"id":2292829,"name":"Ahouakro","alt":["Aouakro"],"lon":-4.87238,"lat":6.11987,"pop":0},{"id":2292805,"name":"Ahouanou","alt":["Aounou"],"lon":-4.6295,"lat":6.51495,"pop":0},{"id":2596898,"name":"Ahouanou","lon":-4.8588,"lat":5.50565,"pop":33939},{"id":2292826,"name":"Ahouanou Deux","alt":["Ahouanou","Ahuanu","Aouanou"],"lon":-5.15746,"lat":5.89479,"pop":0},{"id":2292822,"name":"Ahouati","alt":["Aouati"],"lon":-4.97304,"lat":6.1096,"pop":0},{"id":2293226,"name":"Ahouaya","alt":["Ahoua","Ahouaja"],"lon":-4.50935,"lat":5.47693,"pop":0},{"id":8032670,"name":"Ahouchou","lon":-4.35139,"lat":5.82675,"pop":0},{"id":8033522,"name":"Ahoucli","lon":-3.72944,"lat":5.9526,"pop":0},{"id":2595310,"name":"Ahoué","lon":-3.94574,"lat":5.4975,"pop":0},{"id":2293225,"name":"Ahouékro","lon":-5.21863,"lat":6.49684,"pop":0},{"id":8031967,"name":"Ahouman Abro","lon":-4.44074,"lat":5.62451,"pop":0},{"id":8032572,"name":"Ahouna Akallou","lon":-4.34712,"lat":5.83841,"pop":0},{"id":2293222,"name":"Ahounan","lon":-4.35452,"lat":6.49535,"pop":0},{"id":2292808,"name":"Ahoungnanou","alt":["Aounianou"],"lon":-4.92843,"lat":7.19973,"pop":0},{"id":2293221,"name":"Ahouniassou","lon":-4.746,"lat":6.64991,"pop":0},{"id":8032488,"name":"Ahouri Kouakou","lon":-4.45421,"lat":5.98227,"pop":0},{"id":8032501,"name":"Ahoussou Kétékro","lon":-4.46985,"lat":5.98603,"pop":0},{"id":8031425,"name":"Ahoussou Yao","lon":-4.22388,"lat":5.38979,"pop":0},{"id":2292788,"name":"Ahoussoukro","alt":["Aoussoukro","Tussukro"],"lon":-4.52583,"lat":6.82456,"pop":0},{"id":2292553,"name":"Ahoutoué","alt":["Ahoutoue","Aoutoue","Aoutoué","Autoue","Autoué"],"lon":-3.80419,"lat":5.47429,"pop":0},{"id":2293220,"name":"Ahoutoukro","lon":-4.33333,"lat":6.98333,"pop":0},{"id":8033141,"name":"Ahu","lon":-3.71942,"lat":5.69143,"pop":0},{"id":2293219,"name":"Ahua","lon":-4.43304,"lat":5.20034,"pop":0},{"id":7855845,"name":"Ahua","lon":-4.67239,"lat":6.66535,"pop":0},{"id":2293217,"name":"Ahuakré","alt":["Ahuacre","Ahuacré","Ahuakre"],"lon":-4.85505,"lat":5.60697,"pop":0},{"id":2283578,"name":"Ahué Niamekro","alt":["Ahue Niamekro","Niamekro","Niamékro"],"lon":-5.24563,"lat":7.58144,"pop":0},{"id":2293216,"name":"Ahuinékrou","alt":["Ahuiekrou","Ahuinekrou","Ahuiékrou"],"lon":-3.64585,"lat":6.52157,"pop":0},{"id":2293215,"name":"Ahunta","alt":["Ahinta"],"lon":-3.17889,"lat":5.53028,"pop":0},{"id":8031996,"name":"Ai Attobra","lon":-4.48382,"lat":5.67403,"pop":0},{"id":2293214,"name":"Aibékro","lon":-3.50662,"lat":7.44862,"pop":0},{"id":8033074,"name":"Aié","lon":-3.77427,"lat":5.61473,"pop":0},{"id":8032457,"name":"Ail","lon":-4.46897,"lat":5.94714,"pop":0},{"id":2293213,"name":"Aïnéba","lon":-2.9145,"lat":8.02904,"pop":0},{"id":8033137,"name":"Aisé","lon":-3.74032,"lat":5.70769,"pop":0},{"id":8033444,"name":"Aisé","lon":-3.71325,"lat":5.76955,"pop":0},{"id":8032921,"name":"Aise Adou","lon":-4.03066,"lat":5.84269,"pop":0},{"id":8033384,"name":"Aisé Assamoua","lon":-3.88939,"lat":5.97353,"pop":0},{"id":8032966,"name":"Aise Beché","lon":-4.00085,"lat":5.89182,"pop":0},{"id":8033366,"name":"Aisé Okou","lon":-3.96401,"lat":5.84913,"pop":0},{"id":8033355,"name":"Aise Yapo","lon":-3.92001,"lat":5.77216,"pop":0},{"id":8031979,"name":"Ajou","lon":-4.45864,"lat":5.65033,"pop":0},{"id":8032414,"name":"Aka","lon":-4.03016,"lat":5.63593,"pop":0},{"id":8032492,"name":"Aka","lon":-4.47826,"lat":5.97378,"pop":0},{"id":8032844,"name":"Aka","lon":-4.22783,"lat":5.78475,"pop":0},{"id":8033501,"name":"Aka","lon":-3.63664,"lat":5.84424,"pop":0},{"id":8032261,"name":"Aka Agbimel","lon":-4.36204,"lat":5.52616,"pop":0},{"id":2293207,"name":"Aka Akaffoukro","alt":["Akafoukro"],"lon":-4.98457,"lat":7.35717,"pop":0},{"id":7883985,"name":"Aka Bloukro","lon":-4.65276,"lat":7.53895,"pop":0},{"id":8032559,"name":"Aka Boco","lon":-4.40736,"lat":5.8537,"pop":0},{"id":8031985,"name":"Aka Diman","lon":-4.49336,"lat":5.64388,"pop":0},{"id":8032526,"name":"Aka Gouassou","lon":-4.41061,"lat":5.9433,"pop":0},{"id":2293201,"name":"Aka Kofikro","alt":["Akakofikro"],"lon":-5.47358,"lat":7.89959,"pop":0},{"id":8031953,"name":"Aka Ndja","lon":-4.46166,"lat":5.59698,"pop":0},{"id":2293182,"name":"Aka Nguessankro","alt":["Akanyissankro"],"lon":-5.77559,"lat":7.16835,"pop":0},{"id":8032592,"name":"Aka Soka","lon":-4.35432,"lat":5.8979,"pop":0},{"id":2293197,"name":"Aka-Kouamikro","lon":-4.78,"lat":7.26806,"pop":0},{"id":8031789,"name":"Akabo","lon":-3.79668,"lat":5.21672,"pop":0},{"id":2293209,"name":"Akadiafoué","lon":-5.52934,"lat":7.61329,"pop":0},{"id":8032915,"name":"Akaffou Kouao","lon":-4.06098,"lat":5.83667,"pop":0},{"id":8032927,"name":"Akaffou Kouao","lon":-4.04434,"lat":5.84376,"pop":0},{"id":8032973,"name":"Akaffou Yapi","lon":-4.04971,"lat":5.88427,"pop":0},{"id":2293208,"name":"Akafou Kofi","lon":-4.85,"lat":7.45,"pop":0},{"id":2293206,"name":"Akafou-Ndrikro","lon":-4.38991,"lat":7.64084,"pop":0},{"id":2293205,"name":"Akafou-Nzikro","lon":-4.25,"lat":7.01667,"pop":0},{"id":8033135,"name":"Akahin","lon":-3.74328,"lat":5.71755,"pop":0},{"id":8032515,"name":"Akaifou","lon":-4.40853,"lat":5.91967,"pop":0},{"id":2293203,"name":"Akakangakro","lon":-4.36667,"lat":7.13333,"pop":0},{"id":2293204,"name":"Akakangakro","lon":-4.4,"lat":7.11667,"pop":0},{"id":2293202,"name":"Akakofikro","lon":-3.9987,"lat":7.14132,"pop":0},{"id":2293200,"name":"Akakomoékro","lon":-3.35576,"lat":6.17191,"pop":0},{"id":2293199,"name":"Akakomoékrou","alt":["Akacomekrou","Akacomoekrou","Akacomoékrou","Akacomékrou","Akakomoekrou","Akakoumoekrou","Akakoumoékrou"],"lon":-3.52388,"lat":7.44764,"pop":0},{"id":2293195,"name":"Akakoumokro","lon":-3.9,"lat":7.43333,"pop":0},{"id":2292612,"name":"Akakro","alt":["Atakro"],"lon":-5.01735,"lat":7.82634,"pop":0},{"id":2292613,"name":"Akakro","alt":["Atakro"],"lon":-4.46732,"lat":7.75726,"pop":0},{"id":2293189,"name":"Akakro","lon":-5.28625,"lat":7.36268,"pop":0},{"id":2293190,"name":"Akakro","lon":-5.55546,"lat":7.0092,"pop":0},{"id":2293191,"name":"Akakro","lon":-5.10713,"lat":6.64354,"pop":0},{"id":2293192,"name":"Akakro","lon":-4.23346,"lat":6.59832,"pop":0},{"id":2293193,"name":"Akakro","lon":-4.9253,"lat":6.31945,"pop":0},{"id":2293194,"name":"Akakro","alt":["Akakrou"],"lon":-4.5159,"lat":5.48241,"pop":0},{"id":7884020,"name":"Akakro","lon":-4.47528,"lat":7.08823,"pop":0},{"id":8031666,"name":"Akakro","lon":-3.92079,"lat":5.43305,"pop":0},{"id":8031826,"name":"Akakro","lon":-3.82459,"lat":5.3663,"pop":0},{"id":8032099,"name":"Akakro","lon":-3.34098,"lat":5.43143,"pop":0},{"id":8032128,"name":"Akakro","lon":-3.07298,"lat":5.31965,"pop":0},{"id":8032739,"name":"Akalfou","lon":-4.26443,"lat":5.90288,"pop":0},{"id":2286156,"name":"Akalou Koudiokro","alt":["Kouadiokro"],"lon":-4.94644,"lat":7.8437,"pop":0},{"id":2293188,"name":"Akanangbo","lon":-3.88694,"lat":7.54684,"pop":0},{"id":2293187,"name":"Akandi","lon":-5.13987,"lat":7.35353,"pop":0},{"id":2293186,"name":"Akandjé","lon":-3.89561,"lat":5.41141,"pop":0},{"id":2293185,"name":"Akanguissakro","lon":-3.87611,"lat":7.79333,"pop":0},{"id":8032829,"name":"Akannakro","lon":-4.28213,"lat":5.97835,"pop":0},{"id":2293180,"name":"Akanza Kouadjokro","alt":["Akanza-Kouadiokro"],"lon":-4.68777,"lat":7.41136,"pop":0},{"id":2293179,"name":"Akanzakro","lon":-5.10971,"lat":7.60907,"pop":0},{"id":2293183,"name":"Akanzakro","alt":["Akansakro"],"lon":-5.23486,"lat":7.54361,"pop":0},{"id":11204915,"name":"Akanzakro","lon":-6.48,"lat":7.33,"pop":0},{"id":2293177,"name":"Akapo","lon":-5.35772,"lat":7.66761,"pop":0},{"id":2293176,"name":"Akarakourou","lon":-3.81667,"lat":7.65,"pop":0},{"id":8032315,"name":"Akassa","lon":-4.2373,"lat":5.67158,"pop":0},{"id":2293174,"name":"Akassinzi","lon":-4.03333,"lat":7.1,"pop":0},{"id":2293173,"name":"Akasso","alt":["Akaso"],"lon":-3.20922,"lat":7.25529,"pop":0},{"id":2293169,"name":"Akayakro","lon":-5.511,"lat":7.71551,"pop":0},{"id":2293168,"name":"Akayao","lon":-3.37541,"lat":7.69946,"pop":0},{"id":7847779,"name":"Akayaokro","lon":-5.00204,"lat":6.76757,"pop":0},{"id":2293167,"name":"Akazalilié","lon":-5.46819,"lat":5.96686,"pop":0},{"id":8031611,"name":"Aké","lon":-3.95309,"lat":5.32831,"pop":0},{"id":8031689,"name":"Aké","lon":-3.85461,"lat":5.49538,"pop":0},{"id":8032589,"name":"Aké","lon":-4.36958,"lat":5.91003,"pop":0},{"id":8032969,"name":"Aké","lon":-4.00615,"lat":5.91764,"pop":0},{"id":8033094,"name":"Aké","lon":-3.70669,"lat":5.53085,"pop":0},{"id":8033173,"name":"Aké","lon":-3.60984,"lat":5.50066,"pop":0},{"id":8032226,"name":"Ake Kakou","lon":-4.37948,"lat":5.67741,"pop":0},{"id":8032674,"name":"Aké Njé","lon":-4.27748,"lat":5.77872,"pop":0},{"id":8033451,"name":"Aké Séka","lon":-3.70584,"lat":5.79241,"pop":0},{"id":2293164,"name":"Aké-Béfiat","alt":["Ake-Befiat","Akebefia","Akébéfia"],"lon":-4.17544,"lat":5.66523,"pop":0},{"id":8031687,"name":"Akékoua","lon":-3.88158,"lat":5.499,"pop":0},{"id":2293162,"name":"Akendé","lon":-5.67787,"lat":7.8505,"pop":0},{"id":2293160,"name":"Akessé Kakou","lon":-5.33084,"lat":7.15479,"pop":0},{"id":7883972,"name":"Akessé Nguissankro","lon":-4.81422,"lat":7.50744,"pop":0},{"id":7855843,"name":"Akessémossou","lon":-4.70019,"lat":6.61504,"pop":0},{"id":2293159,"name":"Akété Diabo","lon":-5.37624,"lat":7.52469,"pop":0},{"id":8032336,"name":"Akgecho","lon":-4.19232,"lat":5.74418,"pop":0},{"id":8033116,"name":"Akichi","lon":-3.71135,"lat":5.64177,"pop":0},{"id":2293156,"name":"Akiékrou","lon":-3.67932,"lat":6.64448,"pop":0},{"id":2293157,"name":"Akiékrou","alt":["Akie-Kru","Akiekrou","Aklekrou","Aklékrou"],"lon":-3.21345,"lat":6.13321,"pop":0},{"id":2292563,"name":"Akimouyaokro","alt":["Attimouyaokro"],"lon":-5.10682,"lat":6.91643,"pop":0},{"id":8031511,"name":"Akinzé","lon":-4.14414,"lat":5.43752,"pop":0},{"id":8032461,"name":"Akissi","lon":-4.45074,"lat":5.95303,"pop":0},{"id":8032483,"name":"Akissi","lon":-4.45582,"lat":5.97767,"pop":0},{"id":8033461,"name":"Akissi","lon":-3.73786,"lat":5.8024,"pop":0},{"id":2293153,"name":"Aklaloukou","lon":-5.24014,"lat":8.02586,"pop":0},{"id":2293078,"name":"Aklou Gbangbokro","alt":["Akroubangbokro"],"lon":-4.84188,"lat":7.67162,"pop":0},{"id":8031588,"name":"Ako","lon":-4.03265,"lat":5.259,"pop":0},{"id":8032816,"name":"Ako Tetchi","lon":-4.2877,"lat":5.96101,"pop":0},{"id":2293135,"name":"Akoatoukro","alt":["Akouadoukro"],"lon":-4.91068,"lat":7.81354,"pop":0},{"id":8032464,"name":"Akobi","lon":-4.4212,"lat":5.94565,"pop":0},{"id":8032890,"name":"Akochi Yapi","lon":-4.09729,"lat":5.80497,"pop":0},{"id":8033118,"name":"Akoki","lon":-3.7486,"lat":5.64842,"pop":0},{"id":8033456,"name":"Akoki","lon":-3.73143,"lat":5.82477,"pop":0},{"id":2293148,"name":"Akokokro","lon":-5.23293,"lat":7.76991,"pop":0},{"id":2293147,"name":"Akokoro","alt":["Akoikrou","Akrouakrou","Akwakru"],"lon":-3.51176,"lat":6.77596,"pop":0},{"id":2293146,"name":"Akokouro","lon":-3.91667,"lat":7.35,"pop":0},{"id":2293145,"name":"Akokrou","lon":-3.26972,"lat":6.60056,"pop":0},{"id":8032624,"name":"Akomo Atté","lon":-4.40114,"lat":5.91218,"pop":0},{"id":2293144,"name":"Akongba","lon":-4.23333,"lat":7.08333,"pop":0},{"id":8031788,"name":"Akoniaba","lon":-3.80033,"lat":5.21866,"pop":0},{"id":2293143,"name":"Akoromyébra","lon":-4.6182,"lat":7.91584,"pop":0},{"id":8031918,"name":"Akossi","lon":-4.42849,"lat":5.50131,"pop":0},{"id":8031500,"name":"Akossi Gbouesso","lon":-4.14541,"lat":5.41169,"pop":0},{"id":2293127,"name":"Akossikro","alt":["Akouassikro"],"lon":-4.40385,"lat":7.1694,"pop":0},{"id":2293142,"name":"Akossiom","lon":-2.98333,"lat":7.56667,"pop":0},{"id":8032820,"name":"Akosso Kohora","lon":-4.30209,"lat":5.96877,"pop":0},{"id":2293139,"name":"Akotiakro","lon":-5.73627,"lat":7.37485,"pop":0},{"id":2293140,"name":"Akotiakro","alt":["Akoliakro"],"lon":-4.58778,"lat":7.35858,"pop":0},{"id":2293141,"name":"Akotiakro","lon":-4.57611,"lat":7.28611,"pop":0},{"id":8032416,"name":"Akou","lon":-4.02533,"lat":5.62553,"pop":0},{"id":2293105,"name":"Akou Toué Nguessankro","lon":-5.14003,"lat":7.96543,"pop":0},{"id":8032911,"name":"Akou Yapo","lon":-4.01893,"lat":5.82655,"pop":0},{"id":2293138,"name":"Akoua","lon":-4.99795,"lat":7.53067,"pop":0},{"id":8033447,"name":"Akoua Yapi","lon":-3.70305,"lat":5.76522,"pop":0},{"id":2293137,"name":"Akouaba","lon":-3.41971,"lat":6.54114,"pop":0},{"id":2293131,"name":"Akouakro","lon":-3.24778,"lat":6.34556,"pop":0},{"id":2293128,"name":"Akouassanou","lon":-4.45074,"lat":7.35385,"pop":0},{"id":2293126,"name":"Akouatano","lon":-3.93333,"lat":7.8,"pop":0},{"id":2293125,"name":"Akouaviénou","lon":-4.25,"lat":7.23333,"pop":0},{"id":2293124,"name":"Akoudzin","lon":-3.98333,"lat":6.02639,"pop":0},{"id":2293121,"name":"Akoué Kouadiokro","lon":-5.01676,"lat":6.62773,"pop":0},{"id":2595316,"name":"Akoué Santé","alt":["Akoue Sante","Sante","Santé"],"lon":-3.89875,"lat":5.36671,"pop":0},{"id":2293123,"name":"Akouéboué","lon":-4.1446,"lat":7.44548,"pop":0},{"id":2293122,"name":"Akouédo","alt":["Akouadio","Akouedo"],"lon":-3.95187,"lat":5.34905,"pop":0},{"id":8536614,"name":"Akouèdo Attié","lon":-3.9291,"lat":5.35714,"pop":0},{"id":2293117,"name":"Akouessou","lon":-4.36667,"lat":7.05,"pop":0},{"id":2293116,"name":"Akouiakro","lon":-3.88759,"lat":7.17639,"pop":0},{"id":2293114,"name":"Akoumanou","lon":-2.86667,"lat":7.9,"pop":0},{"id":2293113,"name":"Akoumiakro","lon":-5.57871,"lat":7.87421,"pop":0},{"id":2293112,"name":"Akounadougou","lon":-3.85,"lat":7.6,"pop":0},{"id":2293111,"name":"Akoundoukro","lon":-5.68497,"lat":7.0341,"pop":0},{"id":2596894,"name":"Akoungou","lon":-4.78576,"lat":5.66988,"pop":0},{"id":2597159,"name":"Akounougbé","alt":["Akounougbe"],"lon":-3.17836,"lat":5.18278,"pop":0},{"id":2293107,"name":"Akoupé","alt":["Akoupe","Akupe"],"lon":-3.88759,"lat":6.38423,"pop":35970},{"id":2293108,"name":"Akoupé","lon":-4.15502,"lat":5.48115,"pop":0},{"id":2293106,"name":"Akouré","alt":["Akoure","Aoure","Aouré"],"lon":-3.74779,"lat":5.37742,"pop":0},{"id":2293102,"name":"Akoviébo","alt":["Akoviebo","Akoyebo","Akoyébo"],"lon":-5.67789,"lat":7.4496,"pop":0},{"id":2293103,"name":"Akoyakro","lon":-4.11667,"lat":7.36667,"pop":0},{"id":2595315,"name":"Akoyaté","alt":["Akoyate","Ankoyate","Ankoyaté"],"lon":-3.84733,"lat":5.38625,"pop":0},{"id":2293120,"name":"Akoye Ndénou","alt":["Akoue Ndenou","Akoue Ndénou","Akoye Ndenou"],"lon":-5.07072,"lat":7.2383,"pop":0},{"id":8032152,"name":"Akpangne","lon":-3.13978,"lat":5.1106,"pop":0},{"id":2292782,"name":"Akpatoufoué","alt":["Akpatoufoue","Apatafoue","Apatafoué"],"lon":-4.62195,"lat":7.24889,"pop":0},{"id":8032332,"name":"Akpé Ojé","lon":-4.21121,"lat":5.74069,"pop":0},{"id":2293119,"name":"Akpesse","alt":["Akouessi"],"lon":-4.95694,"lat":7.56862,"pop":0},{"id":2293099,"name":"Akpessékro","alt":["Akpessekro","Akpouessekro","Akpouéssékro"],"lon":-5.30602,"lat":6.72488,"pop":0},{"id":2293244,"name":"Akpokro","alt":["Agpokro"],"lon":-5.05773,"lat":7.85719,"pop":0},{"id":7889469,"name":"Akpoué Kouassikro","lon":-4.53339,"lat":7.82715,"pop":0},{"id":2293082,"name":"Akproabo","alt":["Akroabo"],"lon":-5.31377,"lat":7.64471,"pop":0},{"id":2292766,"name":"Akpuibo","alt":["Apouibo"],"lon":-5.04083,"lat":7.50145,"pop":0},{"id":2293096,"name":"Akradio","alt":["Aonediou","Aonédiou"],"lon":-4.36353,"lat":5.43719,"pop":0},{"id":8031475,"name":"Akradjin","lon":-4.09482,"lat":5.26723,"pop":0},{"id":2293095,"name":"Akrakro","lon":-5.26057,"lat":7.2611,"pop":0},{"id":2293093,"name":"Akrankakro","lon":-4.01667,"lat":7.53333,"pop":0},{"id":2293092,"name":"Akrarinkro","lon":-3.85112,"lat":7.39884,"pop":0},{"id":2293091,"name":"Akrassikro","alt":["Daoukro"],"lon":-3.29055,"lat":7.65947,"pop":0},{"id":2293088,"name":"Akré Nguessandon","alt":["Akre Nguessandon","Guessandan"],"lon":-4.81667,"lat":5.15,"pop":0},{"id":2293089,"name":"Akréby","alt":["Akrebi","Akreby","Akrébi"],"lon":-3.38539,"lat":6.14352,"pop":0},{"id":2293087,"name":"Akressi","alt":["Akresi","Akresse","Akrezi","Akrési","Akréssé","Akrézi"],"lon":-3.07821,"lat":5.66642,"pop":0},{"id":2293086,"name":"Akrétia","lon":-5.28726,"lat":7.26489,"pop":0},{"id":2293085,"name":"Akridou","alt":["Akridu"],"lon":-5.60681,"lat":5.62668,"pop":0},{"id":2293084,"name":"Akrifoukro","lon":-4.35095,"lat":7.48503,"pop":0},{"id":8031849,"name":"Akroaba Akoudjekoa","lon":-3.50702,"lat":5.4152,"pop":0},{"id":8031850,"name":"Akroaba Beniekoa","lon":-3.50455,"lat":5.39567,"pop":0},{"id":8031851,"name":"Akroaba Biéssiékro","lon":-3.50066,"lat":5.38884,"pop":0},{"id":2293081,"name":"Akrokro","lon":-4.88389,"lat":7.6525,"pop":0},{"id":8032189,"name":"Akromiabra","lon":-3.33959,"lat":5.30199,"pop":0},{"id":2293080,"name":"Akromiopla","lon":-5.02503,"lat":7.33609,"pop":0},{"id":2293079,"name":"Akrou","lon":-4.3572,"lat":5.20814,"pop":0},{"id":2293077,"name":"Akroufra","alt":["Akroufla"],"lon":-5.49123,"lat":6.33965,"pop":0},{"id":2293076,"name":"Akroukro","lon":-5.26839,"lat":6.54522,"pop":0},{"id":8032242,"name":"Akuio Late","lon":-4.40736,"lat":5.50437,"pop":0},{"id":8033169,"name":"Akukuma","lon":-3.64889,"lat":5.51236,"pop":0},{"id":2293075,"name":"Akuvikro","alt":["Akumvikro"],"lon":-4.85439,"lat":6.55128,"pop":0},{"id":2293040,"name":"Al Hadj Dialo","lon":-4.28333,"lat":7.58333,"pop":0},{"id":2293013,"name":"Alaka Sakassou","alt":["Alouko Sakassou"],"lon":-5.38556,"lat":7.78125,"pop":0},{"id":2293072,"name":"Alakanou","alt":["Alokanou"],"lon":-3.32361,"lat":6.74278,"pop":0},{"id":2293069,"name":"Alakro","lon":-5.31302,"lat":8.03591,"pop":0},{"id":2293070,"name":"Alakro","lon":-3.71667,"lat":7.3,"pop":0},{"id":2293071,"name":"Alakro","lon":-3.69879,"lat":7.06367,"pop":0},{"id":2293068,"name":"Alamandyougoukaha","alt":["Alamandiougoukaha"],"lon":-5.13177,"lat":9.4506,"pop":0},{"id":8032968,"name":"Alamin Saié","lon":-4.00265,"lat":5.90247,"pop":0},{"id":2293066,"name":"Alangoua","lon":-5.60278,"lat":7.20722,"pop":0},{"id":2293065,"name":"Alangouanou","alt":["Allangouanou"],"lon":-2.93518,"lat":5.15211,"pop":0},{"id":2293062,"name":"Alanikro","lon":-4.86845,"lat":7.33575,"pop":0},{"id":2293061,"name":"Alaninkoro","alt":["Alamingoro","Alimingoro"],"lon":-3.19229,"lat":8.69794,"pop":0},{"id":2293059,"name":"Alaou","alt":["Alaou Bassi"],"lon":-5.51722,"lat":7.03728,"pop":0},{"id":2293060,"name":"Alaou","lon":-5.03527,"lat":7.14135,"pop":0},{"id":8033162,"name":"Alé Assamoua","lon":-3.65055,"lat":5.58757,"pop":0},{"id":8033163,"name":"Alé Asso","lon":-3.64156,"lat":5.58842,"pop":0},{"id":2293052,"name":"Alébla","lon":-5.39363,"lat":7.65861,"pop":0},{"id":2293051,"name":"Alébonou","lon":-5.05944,"lat":7.54556,"pop":0},{"id":8031565,"name":"Alechikoua","lon":-4.03039,"lat":5.44761,"pop":0},{"id":2293049,"name":"Alekédon","alt":["Alekedon","Arekadon","Arékadon"],"lon":-5.32425,"lat":5.11382,"pop":0},{"id":8031552,"name":"Alékikoua","lon":-4.01145,"lat":5.46172,"pop":0},{"id":2293048,"name":"Alekokofi","lon":-4.43333,"lat":7.1,"pop":0},{"id":2293046,"name":"Alékro","alt":["Alekro","Alekrou","Alékrou"],"lon":-5.53024,"lat":7.9653,"pop":0},{"id":2293047,"name":"Alékro","alt":["Alekro","Atekro","Atékro"],"lon":-5.56595,"lat":8.01186,"pop":0},{"id":2293045,"name":"Alépé","alt":["Alepe","Little Alepe"],"lon":-3.66308,"lat":5.5004,"pop":0},{"id":8031534,"name":"Alèri","lon":-4.11232,"lat":5.45159,"pop":0},{"id":2293041,"name":"Aley","lon":-5.49897,"lat":6.96934,"pop":0},{"id":8031693,"name":"Ali","lon":-3.86712,"lat":5.47865,"pop":0},{"id":8031756,"name":"Ali","lon":-3.87604,"lat":5.30123,"pop":0},{"id":8032545,"name":"Ali","lon":-4.36205,"lat":5.92571,"pop":0},{"id":8032612,"name":"Ali","lon":-4.38564,"lat":5.89789,"pop":0},{"id":2293039,"name":"Ali Alikro","alt":["Ali-Alikro"],"lon":-5.03756,"lat":7.38208,"pop":0},{"id":8032776,"name":"Ali Coulibaly","lon":-4.25211,"lat":5.92471,"pop":0},{"id":2293038,"name":"Aliboti","lon":-5.24468,"lat":7.58416,"pop":0},{"id":2293037,"name":"Aliéman","alt":["Alieman","Aliemano"],"lon":-3.26329,"lat":5.34644,"pop":0},{"id":2293036,"name":"Aligérikouadiokro","lon":-4.61667,"lat":6.75,"pop":0},{"id":2293034,"name":"Alikoassué","lon":-2.98796,"lat":7.19394,"pop":0},{"id":8032182,"name":"Alikro","lon":-3.32099,"lat":5.22251,"pop":0},{"id":2293033,"name":"Alikrou","lon":-3.61439,"lat":7.79463,"pop":0},{"id":8032369,"name":"Alla","lon":-4.08672,"lat":5.52711,"pop":0},{"id":8032726,"name":"Alla Kouassi","lon":-4.2969,"lat":5.9073,"pop":0},{"id":8031405,"name":"Allaba","alt":["Assaba"],"lon":-4.34859,"lat":5.28366,"pop":0},{"id":8032009,"name":"Allahin","lon":-4.19572,"lat":5.63238,"pop":0},{"id":2293032,"name":"Allakro","alt":["Alakouakrou"],"lon":-2.89087,"lat":5.29353,"pop":0},{"id":7850326,"name":"Allakro","lon":-4.54824,"lat":6.32936,"pop":0},{"id":9895251,"name":"Allangba Kouadiokro","lon":-7.55006,"lat":5.97885,"pop":0},{"id":2293063,"name":"Allangouassou","alt":["Alangouassi","Alangouassou","Alanguasu"],"lon":-4.58246,"lat":7.50926,"pop":0},{"id":8032118,"name":"Allekro","lon":-3.20577,"lat":5.36049,"pop":0},{"id":8031755,"name":"Allo","lon":-3.88695,"lat":5.29902,"pop":0},{"id":8031499,"name":"Allokoa","alt":["Alokoua"],"lon":-4.14884,"lat":5.39738,"pop":0},{"id":2293022,"name":"Allokokro","alt":["Alokoukro"],"lon":-5.09815,"lat":7.72649,"pop":0},{"id":2293067,"name":"Allomanou Ahagnino","alt":["Alamanou","Alomanou"],"lon":-4.83751,"lat":7.96827,"pop":0},{"id":8032047,"name":"Allosépé","lon":-3.44362,"lat":5.23973,"pop":0},{"id":8032045,"name":"Allowéuré","lon":-3.43885,"lat":5.26637,"pop":0},{"id":2293031,"name":"Alluminankro","alt":["Alumnankro"],"lon":-5.07277,"lat":6.39046,"pop":0},{"id":2293026,"name":"Aloko Koffikro","alt":["Aloko-Kofikro"],"lon":-4.43664,"lat":7.27468,"pop":0},{"id":7883990,"name":"Aloko Yobouekro","lon":-4.89531,"lat":7.40582,"pop":0},{"id":2293027,"name":"Alokokmikro","lon":-4.28333,"lat":7.21667,"pop":0},{"id":2293012,"name":"Alokokro","alt":["Aloukoukro"],"lon":-4.50487,"lat":6.87949,"pop":0},{"id":2293023,"name":"Alokokro","alt":["Alokoukro"],"lon":-4.84453,"lat":7.18848,"pop":0},{"id":2293025,"name":"Alokokro","alt":["Aloukokro"],"lon":-5.44168,"lat":8.08192,"pop":0},{"id":2293024,"name":"Alokonou","lon":-5.21838,"lat":8.02198,"pop":0},{"id":2293021,"name":"Alokouyakro","lon":-5.08333,"lat":7.78333,"pop":0},{"id":8033179,"name":"Alomin","lon":-3.59141,"lat":5.53457,"pop":0},{"id":2596848,"name":"Alongo","lon":-4.46852,"lat":6.37946,"pop":0},{"id":2293018,"name":"Alosso I","alt":["Aloso","Alosso","Alosso Un"],"lon":-3.54967,"lat":5.65336,"pop":0},{"id":8032042,"name":"Alosso-II","lon":-3.50035,"lat":5.56437,"pop":0},{"id":2597121,"name":"Alouakro","lon":-3.15306,"lat":5.45889,"pop":0},{"id":2293014,"name":"Alouibo","lon":-5.64361,"lat":7.58528,"pop":0},{"id":2293009,"name":"Aloukro","lon":-5.34374,"lat":8.07593,"pop":0},{"id":2293010,"name":"Aloukro","lon":-4.80133,"lat":7.78051,"pop":0},{"id":2293011,"name":"Aloukro","lon":-5.3096,"lat":7.44712,"pop":0},{"id":2293008,"name":"Aloukro Diékro","alt":["Aloukro Diekro","Aloukro Drekro","Aloukro Drékro"],"lon":-5.25833,"lat":7.34681,"pop":0},{"id":2293007,"name":"Aloukro Namouéno","lon":-5.50203,"lat":7.81471,"pop":0},{"id":2293006,"name":"Aloumabo","lon":-4.91667,"lat":7.77028,"pop":0},{"id":2293004,"name":"Alounamouénou","lon":-3.80139,"lat":7.52444,"pop":0},{"id":2293002,"name":"Aloussou","lon":-3.79793,"lat":7.60836,"pop":0},{"id":2293001,"name":"Alubo","lon":-4.73333,"lat":7.3,"pop":0},{"id":8032094,"name":"Alunkro","lon":-3.22895,"lat":5.47944,"pop":0},{"id":8032906,"name":"Ama Akoto","lon":-4.01776,"lat":5.81618,"pop":0},{"id":8031618,"name":"Amadou","lon":-3.91857,"lat":5.335,"pop":0},{"id":2292998,"name":"Amadou Namoun","lon":-4.3,"lat":7.46667,"pop":0},{"id":8031431,"name":"Amadou Sangaré","lon":-4.2295,"lat":5.37361,"pop":0},{"id":2292999,"name":"Amadoukro","lon":-3.85,"lat":7.71667,"pop":0},{"id":8032986,"name":"Amagoua","lon":-4.0285,"lat":5.91515,"pop":0},{"id":8033113,"name":"Amah","lon":-3.67959,"lat":5.62553,"pop":0},{"id":2292996,"name":"Amakro","lon":-4.42056,"lat":7.81389,"pop":0},{"id":8031773,"name":"Amamou","lon":-3.87797,"lat":5.235,"pop":0},{"id":8031557,"name":"Aman","lon":-4.07883,"lat":5.44444,"pop":0},{"id":8033400,"name":"Aman","lon":-3.81104,"lat":5.90445,"pop":0},{"id":2292982,"name":"Aman Kofikro","lon":-5.57744,"lat":7.2295,"pop":0},{"id":2292980,"name":"Aman Salékro","alt":["Aman Salekro","Salekro","Salékro"],"lon":-5.57404,"lat":7.22577,"pop":0},{"id":8033475,"name":"Aman Yapi","lon":-3.65797,"lat":5.79709,"pop":0},{"id":2293223,"name":"Aman-Pokoukro","alt":["Ahoumar Pakoukro"],"lon":-4.7714,"lat":6.94074,"pop":0},{"id":2292994,"name":"Amanakro","lon":-4.65517,"lat":6.98296,"pop":0},{"id":8032073,"name":"Amandi Afoué","lon":-3.17887,"lat":5.92305,"pop":0},{"id":2292989,"name":"Amangbo","lon":-4.37141,"lat":6.0206,"pop":0},{"id":2292988,"name":"Amangouakro","alt":["Amangouakrou"],"lon":-3.76973,"lat":6.86664,"pop":0},{"id":8032769,"name":"Amani Houchou","lon":-4.28484,"lat":5.92377,"pop":0},{"id":8031997,"name":"Amani Kola","lon":-4.48308,"lat":5.66871,"pop":0},{"id":7850552,"name":"Amani Ménou","lon":-4.9833,"lat":6.08359,"pop":0},{"id":2292987,"name":"Amanikoti","lon":-3.90416,"lat":7.17557,"pop":0},{"id":2292983,"name":"Amanikro","lon":-4.35328,"lat":7.68711,"pop":0},{"id":2292984,"name":"Amanikro","lon":-5.02311,"lat":7.57974,"pop":0},{"id":2292985,"name":"Amanikro","lon":-4.0584,"lat":7.37278,"pop":0},{"id":2292986,"name":"Amanikro","lon":-3.86667,"lat":7.01667,"pop":0},{"id":8032088,"name":"Amanikro","lon":-3.38676,"lat":5.42514,"pop":0},{"id":8032102,"name":"Amankokro","lon":-3.31474,"lat":5.43164,"pop":0},{"id":2292981,"name":"Amankro","lon":-3.99542,"lat":7.41642,"pop":0},{"id":2597070,"name":"Amankro","alt":["Amanekro","Amanékro"],"lon":-3.17681,"lat":5.54605,"pop":0},{"id":2597111,"name":"Amanoukro","alt":["Amanekro","Amanékro"],"lon":-3.34711,"lat":5.42509,"pop":0},{"id":2292979,"name":"Amanvi","lon":-3.13889,"lat":7.96972,"pop":0},{"id":2292978,"name":"Amanzi","alt":["Amanze","Amanzé"],"lon":-5.62937,"lat":7.2379,"pop":0},{"id":2292976,"name":"Amara","lon":-3.85,"lat":7.35,"pop":0},{"id":2292975,"name":"Amarakro","lon":-3.6626,"lat":7.09925,"pop":0},{"id":2292974,"name":"Amarando","lon":-3.25,"lat":7.86667,"pop":0},{"id":2292973,"name":"Amata","lon":-2.9876,"lat":7.83717,"pop":0},{"id":8033024,"name":"Amatikoua","lon":-3.93181,"lat":5.66647,"pop":0},{"id":8033112,"name":"Ambénou","lon":-3.66282,"lat":5.56501,"pop":0},{"id":2292972,"name":"Améakouro","lon":-3.30235,"lat":7.28392,"pop":0},{"id":2292971,"name":"Amélékia","alt":["Amelekia","Ameleya","Améléya"],"lon":-3.57522,"lat":6.83036,"pop":0},{"id":2292969,"name":"Amenaiboué","lon":-5.44839,"lat":5.76354,"pop":0},{"id":2292968,"name":"Amessandon","alt":["Amessan"],"lon":-4.83597,"lat":5.14828,"pop":0},{"id":2292967,"name":"Amgama-Kouadioukro","lon":-5.2,"lat":7.65,"pop":0},{"id":2292966,"name":"Amia","lon":-3.53667,"lat":5.38306,"pop":0},{"id":8032943,"name":"Amia Akaffou","lon":-4.05973,"lat":5.86814,"pop":0},{"id":2292964,"name":"Amiakro","lon":-3.9615,"lat":7.55942,"pop":0},{"id":8032041,"name":"Amiakro","lon":-3.49348,"lat":5.58272,"pop":0},{"id":2292963,"name":"Amiakrou","lon":-3.13834,"lat":7.31779,"pop":0},{"id":2292961,"name":"Amianou","lon":-5.03661,"lat":7.60279,"pop":0},{"id":8033203,"name":"Amicoukro","lon":-3.53553,"lat":5.54986,"pop":0},{"id":2292962,"name":"Amienkro","alt":["Amiankro"],"lon":-4.94422,"lat":7.13627,"pop":0},{"id":8051549,"name":"Amin Anon","lon":-3.87487,"lat":5.89498,"pop":0},{"id":2292959,"name":"Amindi","lon":-3.56547,"lat":9.71469,"pop":0},{"id":8032156,"name":"Amissiakro","lon":-3.14421,"lat":5.10012,"pop":0},{"id":8031794,"name":"Amiti","lon":-3.81505,"lat":5.25528,"pop":0},{"id":8032089,"name":"Amlakro","lon":-3.40244,"lat":5.39497,"pop":0},{"id":2292956,"name":"Amodi","lon":-3.0707,"lat":8.13484,"pop":0},{"id":8032597,"name":"Amoichi","lon":-4.37691,"lat":5.86213,"pop":0},{"id":8032081,"name":"Amoikro","lon":-3.1688,"lat":5.54595,"pop":0},{"id":2292955,"name":"Amokouabenakroum","lon":-2.98333,"lat":7.7,"pop":0},{"id":8033060,"name":"Amon","lon":-3.85243,"lat":5.56019,"pop":0},{"id":8033498,"name":"Amon","lon":-3.58949,"lat":5.81723,"pop":0},{"id":8032982,"name":"Amon Ncho","lon":-4.03528,"lat":5.90161,"pop":0},{"id":8032980,"name":"Amon Séka","lon":-4.03217,"lat":5.89645,"pop":0},{"id":8033520,"name":"Amon Yangoran","lon":-3.73568,"lat":5.9289,"pop":0},{"id":8032979,"name":"Amon Yapo","lon":-4.04094,"lat":5.89572,"pop":0},{"id":2292954,"name":"Amonkro","alt":["Lomokankro"],"lon":-5.03104,"lat":7.08498,"pop":0},{"id":2292953,"name":"Amoriakro","alt":["Ameliakro","Ameliakrou","Améliakro","Améliakrou"],"lon":-3.52821,"lat":7.09941,"pop":0},{"id":2292952,"name":"Amoriki","lon":-4.16155,"lat":7.08793,"pop":0},{"id":2292951,"name":"Amorofikroum","lon":-3.14964,"lat":7.60106,"pop":0},{"id":8032212,"name":"Amou","lon":-4.35933,"lat":5.74207,"pop":0},{"id":2292950,"name":"Amouaténé","lon":-3.08454,"lat":8.09665,"pop":0},{"id":8032301,"name":"Amoudji","lon":-4.24964,"lat":5.62971,"pop":0},{"id":2292949,"name":"Amoukoukro","lon":-3.62834,"lat":7.11557,"pop":0},{"id":2292948,"name":"Amoukrou","lon":-3.11056,"lat":6.06361,"pop":0},{"id":2292947,"name":"Amounakro","lon":-3.73333,"lat":7.25,"pop":0},{"id":8033186,"name":"Amukou","lon":-3.63064,"lat":5.58164,"pop":0},{"id":8033174,"name":"Amurwan","lon":-3.58935,"lat":5.52018,"pop":0},{"id":2292944,"name":"Anakikro","lon":-3.33333,"lat":7.56667,"pop":0},{"id":2292943,"name":"Anamakro","lon":-4.00119,"lat":7.35949,"pop":0},{"id":2292942,"name":"Anamoué","lon":-7.35,"lat":5.2,"pop":0},{"id":2292941,"name":"Ananda","lon":-4.26667,"lat":7.28333,"pop":0},{"id":2292940,"name":"Ananda-Koidiokro","lon":-4.25519,"lat":7.28359,"pop":0},{"id":2292939,"name":"Ananda-Kouassikro","alt":["Anandakassikro","Anando Kouassikro"],"lon":-4.24446,"lat":7.28489,"pop":0},{"id":2292937,"name":"Ananguié","lon":-3.77333,"lat":6.22299,"pop":0},{"id":2293235,"name":"Ananguié","alt":["Ahandje","Ananguie"],"lon":-4.47707,"lat":6.06649,"pop":0},{"id":8031774,"name":"Anani","lon":-3.87309,"lat":5.23634,"pop":0},{"id":8033383,"name":"Anassin Egou","lon":-3.88664,"lat":5.97144,"pop":0},{"id":2595326,"name":"Anaviblé","lon":-3.84889,"lat":5.28667,"pop":0},{"id":2292935,"name":"Anboufinou","lon":-3.95,"lat":7.11667,"pop":0},{"id":8536607,"name":"Ancien Koumassi","lon":-3.96717,"lat":5.27486,"pop":0},{"id":2292934,"name":"Andan","alt":["Endan"],"lon":-3.72103,"lat":9.90678,"pop":0},{"id":2292932,"name":"Andé","lon":-4.08517,"lat":6.78176,"pop":0},{"id":2292933,"name":"Andé","lon":-3.95376,"lat":6.04172,"pop":0},{"id":8032463,"name":"Andé","lon":-4.42483,"lat":5.94623,"pop":0},{"id":8032657,"name":"Andé Hinon","lon":-4.36618,"lat":5.80318,"pop":0},{"id":2292930,"name":"Andi","lon":-5.61635,"lat":7.56119,"pop":0},{"id":2292927,"name":"Andianou","lon":-5.61416,"lat":7.73774,"pop":0},{"id":2292928,"name":"Andianou","lon":-4.47278,"lat":7.02067,"pop":0},{"id":2292929,"name":"Andianou","lon":-4.63114,"lat":6.71634,"pop":0},{"id":2292925,"name":"Ando","lon":-4.73189,"lat":7.91235,"pop":0},{"id":2292926,"name":"Ando","lon":-5.57486,"lat":7.50901,"pop":0},{"id":2292924,"name":"Ando Blékro","lon":-5.33072,"lat":7.27242,"pop":0},{"id":2292922,"name":"Ando Koua Kauamikro","alt":["Andokoua-Kouamekro","Andokoua-Kouamékro"],"lon":-4.87553,"lat":7.28975,"pop":0},{"id":2292923,"name":"Andobo","lon":-5.29987,"lat":7.40299,"pop":0},{"id":8032103,"name":"Andokakro","lon":-3.30615,"lat":5.39669,"pop":0},{"id":2292921,"name":"Andokoi-Kokrékro","alt":["Andokoi-Kokrekro","Andokoy-Kokorekro","Andokoy-Kokorékro"],"lon":-4.84119,"lat":6.98391,"pop":0},{"id":2292873,"name":"Andokro","alt":["Anokro"],"lon":-5.1211,"lat":7.43434,"pop":0},{"id":2292919,"name":"Andokro Kouakou","alt":["Andokro"],"lon":-5.31527,"lat":7.65939,"pop":0},{"id":2597096,"name":"Andou Mbatto","alt":["Andou Mbato"],"lon":-3.657,"lat":5.40489,"pop":0},{"id":2292869,"name":"Andoufoué","alt":["Andofoue","Andofoué","Andoufoue","Anoufoue Bounou","Anoufoué Bounou"],"lon":-5.23963,"lat":7.38172,"pop":0},{"id":8032649,"name":"André Soboua","lon":-4.3765,"lat":5.79775,"pop":0},{"id":8031935,"name":"Anediou Massi","lon":-4.48947,"lat":5.57238,"pop":0},{"id":8032174,"name":"Anga","lon":-3.28774,"lat":5.2147,"pop":0},{"id":2292915,"name":"Angakro","lon":-5.07556,"lat":7.49611,"pop":0},{"id":2292914,"name":"Angamaki","lon":-4.44282,"lat":6.49022,"pop":0},{"id":2292913,"name":"Angamankro","alt":["Angama Kouassikro"],"lon":-5.1747,"lat":7.49831,"pop":0},{"id":2286804,"name":"Angan Koffikro","alt":["Kofikro","Koukro"],"lon":-4.89414,"lat":7.51046,"pop":0},{"id":2292912,"name":"Angankro","lon":-5.05468,"lat":7.78245,"pop":0},{"id":2292911,"name":"Angaossoukro","lon":-4.86667,"lat":7.55,"pop":0},{"id":2292909,"name":"Angaye","alt":["Engaye"],"lon":-3.2891,"lat":9.59027,"pop":0},{"id":7884323,"name":"Angban Broukro","lon":-4.42094,"lat":7.81171,"pop":0},{"id":2292896,"name":"Angbannikro","alt":["Angouanikro"],"lon":-4.62773,"lat":7.37234,"pop":0},{"id":2292908,"name":"Angbara","lon":-5.32679,"lat":8.07276,"pop":0},{"id":2292906,"name":"Angbavia","lon":-5.01624,"lat":6.38643,"pop":0},{"id":8031864,"name":"Angboko","lon":-3.64067,"lat":5.1925,"pop":0},{"id":2597164,"name":"Angboudjou","alt":["Aboudou"],"lon":-3.20718,"lat":5.15408,"pop":0},{"id":2293283,"name":"Anglanou","alt":["Agbanou"],"lon":-4.4842,"lat":6.29507,"pop":0},{"id":8032012,"name":"Ango","lon":-4.29754,"lat":5.93994,"pop":0},{"id":8032860,"name":"Ango","lon":-4.23655,"lat":5.94161,"pop":0},{"id":8031931,"name":"Angoa Madjibre","lon":-4.49576,"lat":5.57758,"pop":0},{"id":2292903,"name":"Angoakro","alt":["Angouakrou"],"lon":-4.31589,"lat":7.36099,"pop":0},{"id":2292902,"name":"Angobila","lon":-3.56173,"lat":8.46979,"pop":0},{"id":8033526,"name":"Angodoua","lon":-3.72195,"lat":5.98741,"pop":0},{"id":8032588,"name":"Angoli Ngbesso","lon":-4.36369,"lat":5.90916,"pop":0},{"id":2292900,"name":"Angolokaha","lon":-5.17567,"lat":8.51825,"pop":0},{"id":8032889,"name":"Angoran Couao","lon":-4.0893,"lat":5.80335,"pop":0},{"id":8031636,"name":"Angorankoua","lon":-3.90577,"lat":5.41094,"pop":0},{"id":8031523,"name":"Angoua Kouassi","lon":-4.08551,"lat":5.45551,"pop":0},{"id":2292898,"name":"Angouakoukro","lon":-4.85626,"lat":6.72119,"pop":0},{"id":2292897,"name":"Angouakro","lon":-3.93333,"lat":7.2,"pop":0},{"id":2292895,"name":"Angouassi","lon":-5.40361,"lat":7.00139,"pop":0},{"id":8033041,"name":"Angoubékoua","lon":-3.91018,"lat":5.67193,"pop":0},{"id":2292894,"name":"Angounakro","lon":-4,"lat":7.18333,"pop":0},{"id":2292893,"name":"Angovia","lon":-5.53697,"lat":7.03305,"pop":0},{"id":8032413,"name":"Angra","lon":-4.02338,"lat":5.64649,"pop":0},{"id":2292891,"name":"Angwakro","lon":-5.42896,"lat":8.00726,"pop":0},{"id":2292786,"name":"Anhounzankro","alt":["Aouzankro"],"lon":-4.65304,"lat":7.27703,"pop":0},{"id":7883966,"name":"Anhounzankro","lon":-4.76887,"lat":7.73731,"pop":0},{"id":8032941,"name":"Ania Adou","lon":-4.06013,"lat":5.86591,"pop":0},{"id":2292889,"name":"Ania-Assikasso","alt":["Agni Assikasso","Agnia Assikasso"],"lon":-4.06571,"lat":7.10959,"pop":0},{"id":8031627,"name":"Aniaka","lon":-3.95749,"lat":5.402,"pop":0},{"id":2292888,"name":"Anialesso","lon":-4.31897,"lat":6.52374,"pop":0},{"id":8031896,"name":"Aniaman","lon":-3.52198,"lat":5.2658,"pop":0},{"id":2293262,"name":"Aniassué","alt":["Agniassue","Agniassué","Aniassue","Aniasue","Aniasué"],"lon":-3.68103,"lat":6.65368,"pop":0},{"id":2292883,"name":"Anibossué","lon":-3.30306,"lat":6.60083,"pop":0},{"id":2292881,"name":"Anikro","lon":-5.11007,"lat":6.62536,"pop":0},{"id":8033490,"name":"Anin","lon":-3.61328,"lat":5.80299,"pop":0},{"id":2595320,"name":"Anna","lon":-3.87876,"lat":5.32454,"pop":0},{"id":8032052,"name":"Annassoukro","lon":-3.39019,"lat":5.19693,"pop":0},{"id":2292878,"name":"Annékrou","alt":["Amekrou","Amekru","Amékrou","Annekrou"],"lon":-4.11128,"lat":6.75068,"pop":0},{"id":2292936,"name":"Annépé","alt":["Anape","Anapé","Anepe","Annepe","Anépé"],"lon":-3.76986,"lat":5.90612,"pop":0},{"id":2292877,"name":"Anno","alt":["Ano"],"lon":-4.37902,"lat":5.85952,"pop":0},{"id":8031906,"name":"Anno","alt":["Ano"],"lon":-4.40758,"lat":5.52564,"pop":0},{"id":2292875,"name":"Ano Doupa","lon":-5.39214,"lat":7.27667,"pop":0},{"id":8031629,"name":"Anoma","lon":-3.96463,"lat":5.40358,"pop":0},{"id":8032491,"name":"Anoma","lon":-4.48694,"lat":5.96271,"pop":0},{"id":8032453,"name":"Anomaou Ahoso","lon":-4.49497,"lat":5.93127,"pop":0},{"id":8032251,"name":"Anon","lon":-4.37132,"lat":5.52108,"pop":0},{"id":2292868,"name":"Anonkoua-Kouté","alt":["Anonkoua","Anonkoua-Koute","Anoukoua-Koute","Anoukoua-Kouté"],"lon":-4.12032,"lat":5.43914,"pop":0},{"id":8031501,"name":"Anonkpo Kouassi","lon":-4.1649,"lat":5.43688,"pop":0},{"id":8033207,"name":"Anonkro","lon":-3.54932,"lat":5.57568,"pop":0},{"id":2292871,"name":"Anono","lon":-3.9741,"lat":5.34221,"pop":0},{"id":8031540,"name":"Anontcho","lon":-4.12761,"lat":5.46525,"pop":0},{"id":8033025,"name":"Anopo Assikoua","lon":-3.95036,"lat":5.66678,"pop":0},{"id":2292811,"name":"Anouan Kouamikro","alt":["Aouma-Kouamikro"],"lon":-4.98552,"lat":7.23207,"pop":0},{"id":7884037,"name":"Anouanze Bokaha","lon":-4.84151,"lat":7.00797,"pop":0},{"id":2292867,"name":"Anoublékro","alt":["Anoublekro","Anoulekouamikro"],"lon":-5.27985,"lat":7.58037,"pop":0},{"id":2292861,"name":"Anougbakro","alt":["Anombakro","Anoumbakro"],"lon":-3.74453,"lat":6.96271,"pop":0},{"id":8032865,"name":"Anougbré Kouassi","lon":-4.17684,"lat":5.96975,"pop":0},{"id":8033208,"name":"Anoukro","lon":-3.55326,"lat":5.58125,"pop":0},{"id":2292866,"name":"Anoumaba","alt":["Anumaba"],"lon":-4.51626,"lat":6.33735,"pop":0},{"id":2292864,"name":"Anoumabo","lon":-3.95327,"lat":7.09269,"pop":0},{"id":2292865,"name":"Anoumabo","lon":-3.96728,"lat":5.30876,"pop":0},{"id":2292863,"name":"Anoumabou","lon":-5.10824,"lat":5.62144,"pop":0},{"id":7849987,"name":"Anoumangoua","alt":["Anoumagoua"],"lon":-5.22283,"lat":6.70812,"pop":0},{"id":8031706,"name":"Anoumankro","lon":-3.8636,"lat":5.42248,"pop":0},{"id":2292860,"name":"Anponou","lon":-3.03471,"lat":8.20784,"pop":0},{"id":2292859,"name":"Ansomanakouro","lon":-3.78333,"lat":7.75,"pop":0},{"id":2292858,"name":"Ansoum","alt":["Anson","Ansou"],"lon":-3.06053,"lat":9.22919,"pop":0},{"id":2292856,"name":"Anuanua","lon":-3.55411,"lat":6.72612,"pop":0},{"id":2292855,"name":"Anvahi","lon":-3.08333,"lat":8.53333,"pop":0},{"id":2292852,"name":"Anyama","alt":["An'jame","Aniama","Anyama Sossokoua","Аньяме"],"lon":-4.05183,"lat":5.49462,"pop":100653},{"id":2292853,"name":"Anyama","lon":-3.9217,"lat":5.43345,"pop":0},{"id":2292851,"name":"Anyama Adjamé","lon":-4.04469,"lat":5.48041,"pop":0},{"id":2292850,"name":"Anyama Ahouabo","lon":-4.02491,"lat":5.5043,"pop":0},{"id":2292849,"name":"Anyanfoutou","lon":-3.24777,"lat":7.20075,"pop":0},{"id":2292848,"name":"Anyen","lon":-4.48333,"lat":6.5,"pop":0},{"id":2292843,"name":"Anzandougou","lon":-4.25639,"lat":7.76972,"pop":0},{"id":8032159,"name":"Anze Assahoun","lon":-3.18076,"lat":5.1158,"pop":0},{"id":2292840,"name":"Aobé","lon":-5.18885,"lat":7.45335,"pop":0},{"id":2292836,"name":"Aokokro","alt":["Aotokro"],"lon":-5.45099,"lat":7.8058,"pop":0},{"id":8033009,"name":"Aon","lon":-3.96391,"lat":5.60356,"pop":0},{"id":2292839,"name":"Aondo","lon":-5.1528,"lat":6.28234,"pop":0},{"id":7847774,"name":"Aondo","lon":-5.14226,"lat":6.82181,"pop":0},{"id":2282884,"name":"Aossi Lossankro","alt":["Ouassi Dossankro"],"lon":-4.54922,"lat":7.50721,"pop":0},{"id":7883987,"name":"Aossi Lossankro","lon":-4.49646,"lat":7.49282,"pop":0},{"id":2292834,"name":"Aoua","alt":["Ahoua","Ahouo"],"lon":-4.81201,"lat":5.7938,"pop":0},{"id":2292832,"name":"Aouabo","lon":-3.79218,"lat":6.23958,"pop":0},{"id":2292830,"name":"Aouakamissi","lon":-3.55062,"lat":7.44039,"pop":0},{"id":2292813,"name":"Aouakro","alt":["Aoukro"],"lon":-5.41139,"lat":7.42249,"pop":0},{"id":2292828,"name":"Aouan","alt":["Ahouan"],"lon":-3.66748,"lat":7.51945,"pop":0},{"id":2292827,"name":"Aouan-Komoénou","lon":-3.62975,"lat":7.57296,"pop":0},{"id":2292831,"name":"Aouaniénou","alt":["Aouaenou","Aouanienou","Aouaénou"],"lon":-5.30579,"lat":7.83173,"pop":0},{"id":2292823,"name":"Aouati","lon":-5.16458,"lat":5.87744,"pop":0},{"id":8033005,"name":"Aouchikoua","lon":-3.93896,"lat":5.60135,"pop":0},{"id":2292816,"name":"Aouinti","lon":-5.62222,"lat":7.85222,"pop":0},{"id":8033201,"name":"Aoukoukro","lon":-3.56502,"lat":5.55588,"pop":0},{"id":2292814,"name":"Aoukro","lon":-3.71667,"lat":7.25,"pop":0},{"id":2292815,"name":"Aoukro","lon":-5.07552,"lat":7.05277,"pop":0},{"id":2292810,"name":"Aoundio","lon":-5.42645,"lat":7.49057,"pop":0},{"id":2292804,"name":"Aouniafoutou","alt":["Aounyanfoutou"],"lon":-5.32191,"lat":7.6903,"pop":0},{"id":2292807,"name":"Aounienfoutou","alt":["Ahounienfoutou"],"lon":-4.37633,"lat":6.78133,"pop":0},{"id":2292806,"name":"Aounokro","lon":-3.75769,"lat":7.03288,"pop":0},{"id":2292801,"name":"Aounyassou","lon":-5.36782,"lat":7.44341,"pop":0},{"id":2292802,"name":"Aounyassou","lon":-5.07814,"lat":7.43283,"pop":0},{"id":2292803,"name":"Aounyassou","lon":-5.05932,"lat":7.16785,"pop":0},{"id":2292800,"name":"Aounzé","lon":-5.39949,"lat":7.75106,"pop":0},{"id":2292799,"name":"Aounzi","lon":-3.25,"lat":7.46667,"pop":0},{"id":2292555,"name":"Aouóbo","alt":["Aouobo","Auebou","Auébou"],"lon":-4.51099,"lat":7.75388,"pop":0},{"id":2292796,"name":"Aourikro","alt":["Aolikro"],"lon":-5.44611,"lat":8.00637,"pop":0},{"id":2292794,"name":"Aourokro","alt":["Ndouakro"],"lon":-5.03505,"lat":7.53399,"pop":0},{"id":2292793,"name":"Aourossua","lon":-3.05859,"lat":7.40796,"pop":0},{"id":2292792,"name":"Aoussakomoékrou","lon":-3.65503,"lat":7.15376,"pop":0},{"id":2292791,"name":"Aoussankro","lon":-5.12253,"lat":7.50598,"pop":0},{"id":8033514,"name":"Aoussi Kouachi","lon":-3.58041,"lat":5.81895,"pop":0},{"id":2292789,"name":"Aoussoubroukro","lon":-4.71667,"lat":6.65,"pop":0},{"id":2292787,"name":"Aouyakrou","lon":-3.09194,"lat":7.21278,"pop":0},{"id":7889398,"name":"Aouyanfoutou","lon":-4.51228,"lat":7.79142,"pop":0},{"id":2292785,"name":"Aouzankro","lon":-4.78,"lat":7.74417,"pop":0},{"id":7847751,"name":"Apangokro","lon":-5.01527,"lat":6.93212,"pop":0},{"id":2292784,"name":"Apani Mangouakro","lon":-5.39226,"lat":7.78464,"pop":0},{"id":2292783,"name":"Aparagra","lon":-5.14555,"lat":6.14106,"pop":0},{"id":8032534,"name":"Apélénoum","lon":-4.37236,"lat":5.94227,"pop":0},{"id":2292780,"name":"Apiadji","lon":-3.83879,"lat":5.94551,"pop":0},{"id":2292779,"name":"Apiakouakrou","lon":-3.88112,"lat":7.23792,"pop":0},{"id":2292778,"name":"Apiakro","lon":-5.24037,"lat":7.62259,"pop":0},{"id":2292777,"name":"Apibo","lon":-4.43305,"lat":6.45431,"pop":0},{"id":8031503,"name":"Apichi Beké","lon":-4.16233,"lat":5.43215,"pop":0},{"id":2292639,"name":"Apla Assoumankro","alt":["Assoumankro"],"lon":-5.02648,"lat":7.84474,"pop":0},{"id":8032847,"name":"Apo Kodje","lon":-4.22619,"lat":5.81257,"pop":0},{"id":2292772,"name":"Apobinou","lon":-5.48249,"lat":7.84126,"pop":0},{"id":2292771,"name":"Apokro","lon":-3.47639,"lat":7.11841,"pop":0},{"id":2293130,"name":"Apokro","alt":["Akouakro"],"lon":-5.18953,"lat":7.60121,"pop":0},{"id":2292769,"name":"Apossou","lon":-3.63779,"lat":6.70045,"pop":0},{"id":2596986,"name":"Appouasso","alt":["Apouassa"],"lon":-3.17605,"lat":5.96305,"pop":0},{"id":2292767,"name":"Appouessou","alt":["Apoisso","Apouesso"],"lon":-3.42755,"lat":6.54846,"pop":0},{"id":2292765,"name":"Apprompron","alt":["Apromprom","Aprompron","Aprompronou"],"lon":-3.31526,"lat":6.29219,"pop":0},{"id":2597092,"name":"Aprémédji","alt":["Apremedji","Aprémedji"],"lon":-3.70355,"lat":5.45508,"pop":0},{"id":2292763,"name":"Apron-Pronou","alt":["Amprompromou","Appronpronou","Aprompromou","Aprompronou"],"lon":-3.36017,"lat":7.00129,"pop":0},{"id":8031872,"name":"Aprossué","lon":-3.54049,"lat":5.39018,"pop":0},{"id":2292761,"name":"Arikokaha","lon":-5.19306,"lat":8.78763,"pop":0},{"id":2292760,"name":"Arikokro","lon":-4.07106,"lat":7.15163,"pop":0},{"id":2292758,"name":"Armébé","alt":["Armabe","Armabé","Armebe"],"lon":-4.33779,"lat":5.34693,"pop":0},{"id":2292838,"name":"Arobo","alt":["Aorobo","Oroboue","Oroboué"],"lon":-3.85799,"lat":6.89341,"pop":0},{"id":2292754,"name":"Arraguié","lon":-4.14541,"lat":6.01258,"pop":0},{"id":2292755,"name":"Arrah","alt":["Arra"],"lon":-3.96938,"lat":6.67342,"pop":37432},{"id":2292752,"name":"Asagny","alt":["Asagni","Assagny"],"lon":-4.8,"lat":5.2,"pop":0},{"id":8033404,"name":"Asoubi Akoum","lon":-3.78297,"lat":5.87554,"pop":0},{"id":2292747,"name":"Asounmakro","lon":-4.10968,"lat":7.48758,"pop":0},{"id":2292686,"name":"Asrikro","alt":["Asserikro","Assérikro"],"lon":-5.16868,"lat":7.59031,"pop":0},{"id":2292721,"name":"Assa Nguessan Namouénou","lon":-5.098,"lat":7.7879,"pop":0},{"id":8032663,"name":"Assa Oichi Mabo","lon":-4.36245,"lat":5.81401,"pop":0},{"id":8031956,"name":"Assa Uman","lon":-4.49205,"lat":5.62242,"pop":0},{"id":8033188,"name":"Assaba Kouachi","lon":-3.65051,"lat":5.57041,"pop":0},{"id":2292744,"name":"Assabonou","lon":-5.10548,"lat":7.26325,"pop":0},{"id":2292743,"name":"Assabou","lon":-4.93019,"lat":6.25515,"pop":0},{"id":8032516,"name":"Assadé Pafou","lon":-4.4023,"lat":5.91688,"pop":0},{"id":2292742,"name":"Assadeinkro","lon":-4.35549,"lat":6.84704,"pop":0},{"id":8033090,"name":"Assadji","lon":-3.67348,"lat":5.5177,"pop":0},{"id":2292741,"name":"Assadué","lon":-4.02884,"lat":7.98082,"pop":0},{"id":2292740,"name":"Assafo","lon":-3.22417,"lat":7.69252,"pop":0},{"id":2292739,"name":"Assafou","lon":-5.04775,"lat":6.73429,"pop":0},{"id":8032203,"name":"Assago Nguessan","lon":-4.4792,"lat":5.74675,"pop":0},{"id":2292737,"name":"Assahara","alt":["Assara"],"lon":-4.49775,"lat":6.66643,"pop":0},{"id":2285992,"name":"Assaie-kouassikro","alt":["Kouassikouro"],"lon":-3.90343,"lat":6.96509,"pop":0},{"id":2292736,"name":"Assakra","lon":-4.89361,"lat":6.39525,"pop":0},{"id":2292734,"name":"Assakro","lon":-5.56242,"lat":7.88501,"pop":0},{"id":2292735,"name":"Assakro","lon":-4.33333,"lat":7.25,"pop":0},{"id":2293301,"name":"Assakro","alt":["Afreko","Afréko"],"lon":-5.60892,"lat":7.68647,"pop":0},{"id":2292733,"name":"Assakrou","lon":-3.65817,"lat":6.56529,"pop":0},{"id":2292731,"name":"Assalékro","lon":-4.18427,"lat":7.28519,"pop":0},{"id":2292726,"name":"Assamoikro","lon":-4.99295,"lat":6.94475,"pop":0},{"id":8032511,"name":"Assamoua I","lon":-4.48717,"lat":5.99185,"pop":0},{"id":8032500,"name":"Assamoua II","lon":-4.48324,"lat":5.98923,"pop":0},{"id":8032992,"name":"Assamoua Yao","lon":-4.07498,"lat":5.99771,"pop":0},{"id":2292729,"name":"Assamouabo","alt":["Assamabo"],"lon":-5.65108,"lat":7.4425,"pop":0},{"id":2292725,"name":"Assamouakro","lon":-5.23957,"lat":7.60425,"pop":0},{"id":2292727,"name":"Assamouakro","alt":["Assamakro"],"lon":-5.20086,"lat":7.56197,"pop":0},{"id":2292724,"name":"Assan","lon":-5.05,"lat":7.81663,"pop":0},{"id":2286157,"name":"Assan Kouadiokro","alt":["Kouadiokro"],"lon":-5.04809,"lat":7.82453,"pop":0},{"id":8032441,"name":"Assandé Guiba","lon":-4.41852,"lat":5.90136,"pop":0},{"id":2292723,"name":"Assandifrakro","lon":-3.93333,"lat":7.48333,"pop":0},{"id":8031856,"name":"Assanfuma","lon":-3.52084,"lat":5.36733,"pop":0},{"id":2292691,"name":"Assankro","alt":["Assenkro"],"lon":-5.0157,"lat":7.33223,"pop":0},{"id":2292720,"name":"Assanou","lon":-5.15835,"lat":6.99442,"pop":0},{"id":8031818,"name":"Assaoua","lon":-3.78264,"lat":5.29018,"pop":0},{"id":2292718,"name":"Assaoufoué","lon":-4.22405,"lat":6.57675,"pop":0},{"id":2292716,"name":"Assarékro","lon":-4.41626,"lat":6.55759,"pop":0},{"id":8031923,"name":"Assareobou","lon":-4.46393,"lat":5.56502,"pop":0},{"id":8033031,"name":"Asse","lon":-3.95047,"lat":5.74321,"pop":0},{"id":8031885,"name":"Assé","lon":-3.47028,"lat":5.32771,"pop":0},{"id":2292711,"name":"Assé Blédoukro","alt":["Asse Bledoukro","Asse-Ble-Ndoukro","Assé-Blé-Ndoukro"],"lon":-4.98482,"lat":7.38893,"pop":0},{"id":2292709,"name":"Assé Diaoukro","lon":-5.17935,"lat":7.90081,"pop":0},{"id":2285976,"name":"Assé Kouassikro","alt":["Asse Kouassikro","Kouassimikro"],"lon":-5.58543,"lat":7.74461,"pop":0},{"id":2292696,"name":"Assé Ngatakro","alt":["Asse Nbatakro","Asse Ngatakro","Assé Nbatakro"],"lon":-5.09494,"lat":7.05764,"pop":0},{"id":2292712,"name":"Assé-Assasso","lon":-4.25821,"lat":6.74696,"pop":0},{"id":2292710,"name":"Assébroko","alt":["Assebrakro","Assebroko","Assebrokro","Assébrakro","Assébrokro"],"lon":-4.84934,"lat":6.664,"pop":0},{"id":8033484,"name":"Assèka","lon":-3.63538,"lat":5.82365,"pop":0},{"id":2292707,"name":"Assekankro","alt":["Assékankro"],"lon":-4.62116,"lat":7.66306,"pop":0},{"id":8033493,"name":"Asséké","lon":-3.61111,"lat":5.80661,"pop":0},{"id":2292750,"name":"Assekro","alt":["Asekro","Asékro"],"lon":-4.60181,"lat":7.37038,"pop":0},{"id":2292703,"name":"Assékro","lon":-5.25518,"lat":7.79207,"pop":0},{"id":2292704,"name":"Assékro","lon":-5.44691,"lat":7.75305,"pop":0},{"id":2292705,"name":"Assékro","alt":["Asekro","Assekro","Asékro"],"lon":-5.40498,"lat":7.67015,"pop":0},{"id":2292702,"name":"Assémanou","alt":["Assemanou","Assemaouno","Assémaouno"],"lon":-3.75687,"lat":6.78906,"pop":0},{"id":2292701,"name":"Assemba Nayé","lon":-3.30267,"lat":7.21497,"pop":0},{"id":2292700,"name":"Assembo","lon":-5.004,"lat":7.16903,"pop":0},{"id":2292699,"name":"Assemkoué","alt":["Assemboue","Assemboué","Assemkoue","Assomvoue","Assomvoué","Assumve"],"lon":-4.97965,"lat":6.48174,"pop":0},{"id":8031567,"name":"Assemoukoua","lon":-4.02712,"lat":5.44281,"pop":0},{"id":2292698,"name":"Assempanayé","lon":-3.28505,"lat":7.33918,"pop":0},{"id":2292664,"name":"Assengou","alt":["Assingou"],"lon":-5.0573,"lat":7.58428,"pop":0},{"id":2292694,"name":"Assengou","lon":-5.52512,"lat":7.66935,"pop":0},{"id":2292695,"name":"Assengou","lon":-5.03171,"lat":7.21145,"pop":0},{"id":2292693,"name":"Asséngoukor","alt":["Assengou-Kan","Assengoukor","Asséngou-Kan"],"lon":-4.8866,"lat":7.75969,"pop":0},{"id":2292692,"name":"Assengoukpri","alt":["Assengou-Kan","Assengou-Pri","Assengoukor","Asséngou-Kan","Asséngoukor"],"lon":-4.88699,"lat":7.75806,"pop":0},{"id":2292689,"name":"Assenzé","alt":["Assenze","Asseze","Assézé"],"lon":-5.5483,"lat":7.69169,"pop":0},{"id":2292690,"name":"Assenzé","alt":["Asenze","Asenzé","Assenze"],"lon":-5.25843,"lat":7.67542,"pop":0},{"id":2292688,"name":"Asseolié","lon":-3.63671,"lat":6.18806,"pop":0},{"id":7883971,"name":"Asséounblakro","lon":-4.9414,"lat":7.59796,"pop":0},{"id":2292687,"name":"Assérékro","lon":-4.87113,"lat":6.62181,"pop":0},{"id":2292713,"name":"Asséyokro","alt":["Assayakro","Asseyokro"],"lon":-5.74023,"lat":7.66973,"pop":0},{"id":8032914,"name":"Assi","lon":-4.07368,"lat":5.84065,"pop":0},{"id":8033187,"name":"Assi","lon":-3.65089,"lat":5.57591,"pop":0},{"id":8033375,"name":"Assi","lon":-3.88831,"lat":5.96096,"pop":0},{"id":8033459,"name":"Assi","lon":-3.73692,"lat":5.82367,"pop":0},{"id":8032975,"name":"Assi Akaffou","lon":-4.04817,"lat":5.88945,"pop":0},{"id":8033364,"name":"Assi Bodie","lon":-3.98346,"lat":5.80117,"pop":0},{"id":2292684,"name":"Assiasso","lon":-3.2381,"lat":7.91279,"pop":0},{"id":2292681,"name":"Assié Akpessé","lon":-4.33607,"lat":6.46539,"pop":0},{"id":2286713,"name":"Assie Kokoré","alt":["Assie Kokore","Esse Kokokro","Essé Kokokro","Kokokro"],"lon":-4.37689,"lat":6.82172,"pop":0},{"id":2292678,"name":"Assié koumassi","lon":-4.28954,"lat":6.76966,"pop":0},{"id":2292679,"name":"Assié-Kokore","lon":-4.31591,"lat":6.77508,"pop":0},{"id":2292680,"name":"Assiéblénou","alt":["Assieblenou","Assiéblenou"],"lon":-5.20245,"lat":7.67918,"pop":0},{"id":2292708,"name":"Assiekro","alt":["Asse-Diekro","Assé-Diékro"],"lon":-4.95642,"lat":7.15245,"pop":0},{"id":2292676,"name":"Assiélébroukro","alt":["Assielebroukro","Assielibroukro","Assiélibroukro"],"lon":-5.07669,"lat":7.442,"pop":0},{"id":2292673,"name":"Assiféré","lon":-3.06667,"lat":7.53333,"pop":0},{"id":2292672,"name":"Assika Bayassou","lon":-4.36667,"lat":6.88333,"pop":0},{"id":2292670,"name":"Assika-Kayabo","lon":-4.4001,"lat":6.87023,"pop":0},{"id":2292668,"name":"Assikasso","lon":-3.21694,"lat":7.08556,"pop":0},{"id":2596952,"name":"Assikoa","alt":["Assikoi","Assikoua"],"lon":-3.80923,"lat":5.99326,"pop":0},{"id":2292667,"name":"Assikoun","alt":["Assikun"],"lon":-3.88306,"lat":6.4175,"pop":0},{"id":2292665,"name":"Assiméba","alt":["Assimba","Assimeba"],"lon":-2.88301,"lat":8.01208,"pop":0},{"id":12500999,"name":"Assinie","lon":-3.32231,"lat":5.13965,"pop":0},{"id":8032165,"name":"Assinie France","lon":-3.2749,"lat":5.12474,"pop":0},{"id":8032166,"name":"Assinie Sagbadou","lon":-3.28632,"lat":5.13723,"pop":0},{"id":2292663,"name":"Assinie-Mafia","alt":["Assine","Assini","Assinie","Mafia"],"lon":-3.29096,"lat":5.13384,"pop":0},{"id":2292660,"name":"Assinzé","lon":-5.14197,"lat":6.5348,"pop":0},{"id":8031741,"name":"Assizo","lon":-3.8727,"lat":5.36329,"pop":0},{"id":8033465,"name":"Asso","lon":-3.73929,"lat":5.8648,"pop":0},{"id":8033473,"name":"Asso Elmuo","lon":-3.66071,"lat":5.79622,"pop":0},{"id":8033171,"name":"Assohouin","lon":-3.62237,"lat":5.50964,"pop":0},{"id":2292652,"name":"Assokro","lon":-4.35155,"lat":7.25315,"pop":0},{"id":2292653,"name":"Assokro","lon":-4.51667,"lat":7.16667,"pop":0},{"id":8031711,"name":"Assokro","lon":-3.91191,"lat":5.43947,"pop":0},{"id":2292651,"name":"Assokro-Ngressankro","alt":["Assoko-Nguessankro","Assokro-Nguessankro"],"lon":-4.89269,"lat":6.93951,"pop":0},{"id":2292650,"name":"Assomlan","alt":["Assomlam"],"lon":-3.29555,"lat":5.20039,"pop":0},{"id":8032830,"name":"Assoré","lon":-4.27073,"lat":5.97342,"pop":0},{"id":2292646,"name":"Assouakro","lon":-5.05965,"lat":7.79724,"pop":0},{"id":2292647,"name":"Assouakro","lon":-5.09685,"lat":7.42647,"pop":0},{"id":2292648,"name":"Assouakro","lon":-4.00974,"lat":6.96687,"pop":0},{"id":7857120,"name":"Assouakro","lon":-5.14343,"lat":6.51364,"pop":0},{"id":2597109,"name":"Assouba","lon":-3.25653,"lat":5.45956,"pop":0},{"id":2292644,"name":"Assouékro","lon":-4.05,"lat":7.51667,"pop":0},{"id":8031904,"name":"Assouindé","lon":-3.50079,"lat":5.16922,"pop":0},{"id":2292642,"name":"Assoukankro","lon":-4.11576,"lat":7.5198,"pop":0},{"id":8032430,"name":"Assouma Beugié","lon":-4.46734,"lat":5.75494,"pop":0},{"id":2292640,"name":"Assoumadougou","lon":-3.2648,"lat":7.76377,"pop":0},{"id":2290090,"name":"Assouman Diékro","alt":["Assouman Diekro","Diekro","Diékro"],"lon":-5.04277,"lat":7.84158,"pop":0},{"id":2292638,"name":"Assouman Nguessankro","lon":-5.12123,"lat":7.96422,"pop":0},{"id":8031983,"name":"Assoumou Amani","lon":-4.47228,"lat":5.66111,"pop":0},{"id":2292636,"name":"Assoumou-Kouassikro","lon":-3.7868,"lat":7.58642,"pop":0},{"id":2292635,"name":"Assoumoukro","lon":-4.3728,"lat":6.46403,"pop":0},{"id":2292634,"name":"Assuako","lon":-2.99743,"lat":7.41421,"pop":0},{"id":2292632,"name":"Assuamakro","lon":-3.03083,"lat":7.18944,"pop":0},{"id":2292631,"name":"Assuamé","alt":["Assuame","Asuame","Asuamé"],"lon":-3.20761,"lat":7.16638,"pop":0},{"id":8032175,"name":"Assuankokro","lon":-3.28363,"lat":5.22403,"pop":0},{"id":8051546,"name":"Assué Deux","lon":-2.99548,"lat":5.13318,"pop":0},{"id":8051548,"name":"Assué Gnaboua","lon":-2.98771,"lat":5.16095,"pop":0},{"id":8051547,"name":"Assué Mossi","lon":-2.99811,"lat":5.15638,"pop":0},{"id":2597173,"name":"Assué Un","alt":["Assue","Assue Un","Assué"],"lon":-3.00332,"lat":5.13134,"pop":0},{"id":2597140,"name":"Assuéfoué","alt":["Asseoufoue","Assuefoue","Asséoufoué"],"lon":-3.66893,"lat":5.18708,"pop":0},{"id":2292626,"name":"Assuéfri","lon":-2.97847,"lat":7.69973,"pop":0},{"id":2292620,"name":"Assuéti","lon":-3.9292,"lat":7.17852,"pop":0},{"id":2292619,"name":"Assuétifi","lon":-3.03274,"lat":7.39776,"pop":0},{"id":2292618,"name":"Assuétya","lon":-3,"lat":7.6,"pop":0},{"id":2292643,"name":"Assuikro","alt":["Assouikro"],"lon":-5.38831,"lat":7.08582,"pop":0},{"id":8032148,"name":"Assumé-Bonou","lon":-3.00544,"lat":5.16569,"pop":0},{"id":2292616,"name":"Atablèndoukro","lon":-3.38333,"lat":7.2,"pop":0},{"id":8032179,"name":"Atadié","lon":-3.29354,"lat":5.26227,"pop":0},{"id":2292580,"name":"Atahou","alt":["Atoou"],"lon":-5.09898,"lat":7.55488,"pop":0},{"id":2292614,"name":"Atakro","lon":-3.0391,"lat":7.18958,"pop":0},{"id":2292611,"name":"Atakrou","lon":-3.08411,"lat":7.2162,"pop":0},{"id":2292609,"name":"Ataram","lon":-3.00728,"lat":7.93677,"pop":0},{"id":2292608,"name":"Atassé","lon":-5.73969,"lat":7.4022,"pop":0},{"id":8033506,"name":"Atchapu","lon":-3.52348,"lat":5.7831,"pop":0},{"id":2292602,"name":"Atchegouakro","alt":["Atiegoakro","Atiégoakro"],"lon":-4.74274,"lat":7.35314,"pop":0},{"id":8031600,"name":"Atchi","lon":-4.07868,"lat":5.23946,"pop":0},{"id":8031733,"name":"Atchoua Kote","lon":-3.86943,"lat":5.40506,"pop":0},{"id":8031507,"name":"Atchué","lon":-4.14468,"lat":5.42448,"pop":0},{"id":2292607,"name":"Ateil","lon":-3.93333,"lat":8.43333,"pop":0},{"id":2292599,"name":"Atienka","alt":["Atienkana"],"lon":-4.96931,"lat":8.139,"pop":0},{"id":8031404,"name":"Atikon","lon":-4.40266,"lat":5.45713,"pop":0},{"id":2292592,"name":"Atimabo","alt":["Attimabo"],"lon":-3.84079,"lat":7.74449,"pop":0},{"id":2292590,"name":"Atiouakro","lon":-4.8325,"lat":7.63472,"pop":0},{"id":2292595,"name":"Atiouri Yaou","alt":["Atieuri-Yaou"],"lon":-5.16897,"lat":7.89121,"pop":0},{"id":2292589,"name":"Atissa","lon":-4.44238,"lat":8.31111,"pop":0},{"id":2292588,"name":"Atitiasso","lon":-2.99134,"lat":7.55487,"pop":0},{"id":8033509,"name":"Ato Achou","lon":-3.52617,"lat":5.79022,"pop":0},{"id":8032802,"name":"Atoelouka","lon":-4.2767,"lat":5.96058,"pop":0},{"id":2292587,"name":"Atokonou","lon":-4.05798,"lat":7.84529,"pop":0},{"id":2292586,"name":"Atokouadiokro","lon":-3.0987,"lat":7.37739,"pop":0},{"id":2292585,"name":"Atokoum","lon":-2.94293,"lat":7.49691,"pop":0},{"id":2292583,"name":"Atokro","lon":-4.34769,"lat":7.83254,"pop":0},{"id":2292582,"name":"Atonoya","lon":-6.01111,"lat":6.09944,"pop":0},{"id":2292581,"name":"Atoou","lon":-4.79209,"lat":7.26019,"pop":0},{"id":8031880,"name":"Atouguina","lon":-3.54117,"lat":5.29292,"pop":0},{"id":2292575,"name":"Atoukoukouakoukro","alt":["Aloko Kouakoukro"],"lon":-4.43515,"lat":6.80858,"pop":0},{"id":2292574,"name":"Atoumbéré","lon":-5.33315,"lat":7.98065,"pop":0},{"id":2292573,"name":"Atounkélékro","lon":-4.18139,"lat":7.42321,"pop":0},{"id":2597103,"name":"Atounoua","alt":["Abounoua"],"lon":-3.60524,"lat":5.31046,"pop":0},{"id":2292572,"name":"Atoupé","alt":["Atoupe","Atoupe Un","Atoupé Un"],"lon":-4.29996,"lat":5.69986,"pop":0},{"id":8536669,"name":"Atoupé Deux","lon":-4.3171,"lat":5.69789,"pop":0},{"id":8033386,"name":"Atoupo Iago","lon":-3.89102,"lat":5.98137,"pop":0},{"id":7847380,"name":"Atrénou","lon":-5.39828,"lat":6.9913,"pop":0},{"id":2292571,"name":"Atrobou","alt":["Atobrou","Attobrou","Attobru"],"lon":-4.0589,"lat":6.09021,"pop":0},{"id":2292570,"name":"Atrokro","alt":["Atroukro"],"lon":-4.81566,"lat":7.58802,"pop":0},{"id":8033511,"name":"Atsé","lon":-3.5781,"lat":5.81591,"pop":0},{"id":8033505,"name":"Atsé I","lon":-3.64194,"lat":5.84566,"pop":0},{"id":8031556,"name":"Atsin","lon":-4.08182,"lat":5.44956,"pop":0},{"id":8031710,"name":"Atsin","lon":-3.90801,"lat":5.43561,"pop":0},{"id":8032940,"name":"Atsin","lon":-4.04939,"lat":5.86675,"pop":0},{"id":8032897,"name":"Atsin Assèke","lon":-4.04149,"lat":5.81692,"pop":0},{"id":8032947,"name":"Atsin Koffi","lon":-4.03533,"lat":5.86871,"pop":0},{"id":2281944,"name":"Attakro","alt":["Satakro"],"lon":-5.11034,"lat":7.43683,"pop":0},{"id":8032664,"name":"Attani Agbra","lon":-4.3774,"lat":5.81362,"pop":0},{"id":2292610,"name":"Attanou","alt":["Atanou"],"lon":-4.30361,"lat":6.96778,"pop":0},{"id":8032130,"name":"Attebety","lon":-3.12401,"lat":5.36115,"pop":0},{"id":7884013,"name":"Attekro","lon":-4.80336,"lat":7.16568,"pop":0},{"id":8032237,"name":"Atti Yapo","lon":-4.36111,"lat":5.54965,"pop":0},{"id":2292605,"name":"Attiakro","alt":["Atiakro"],"lon":-5.24451,"lat":7.4322,"pop":0},{"id":8031575,"name":"Attiecoubé","lon":-4.03505,"lat":5.34532,"pop":0},{"id":8031578,"name":"Attiécoubé Diené","lon":-4.04566,"lat":5.3468,"pop":0},{"id":8031577,"name":"Attiécoubé Nématoulaye","lon":-4.04728,"lat":5.34979,"pop":0},{"id":2292564,"name":"Attiégouakro","alt":["Attiegouakro"],"lon":-5.11411,"lat":6.77402,"pop":0},{"id":2292601,"name":"Attiékoi","alt":["Atchiekoua","Atchiékoua","Atiekoi","Atiekoua","Atiékoi","Atiékoua","Attiekoi"],"lon":-3.96866,"lat":5.53616,"pop":0},{"id":8032137,"name":"Attiékro","lon":-2.97482,"lat":5.25513,"pop":0},{"id":2292598,"name":"Attien Kofikro","alt":["Atien-Kofikro"],"lon":-5.01523,"lat":7.05213,"pop":0},{"id":2292597,"name":"Attien Kouassikro","alt":["Atien-Kouassikro"],"lon":-4.87179,"lat":7.09887,"pop":0},{"id":2286523,"name":"Attienkonankro","alt":["Konakro"],"lon":-5.15679,"lat":7.59404,"pop":0},{"id":2292596,"name":"Attienkro","alt":["Atienkro"],"lon":-5.01199,"lat":7.73049,"pop":0},{"id":2292562,"name":"Attinguié","alt":["Afindje","Afindjé","Alinguie","Alinguié","Atingue","Atingué","Attingue","Attinguie","Attingué"],"lon":-4.18549,"lat":5.46739,"pop":0},{"id":2292603,"name":"Attinguié","alt":["Atidje","Atidjé","Atigueky","Atiguie","Atiguié","Atiguéky","Attinguie"],"lon":-4.5485,"lat":6.06445,"pop":0},{"id":2292561,"name":"Attissa","alt":["Atissa"],"lon":-4.09923,"lat":8.05034,"pop":0},{"id":2292560,"name":"Attobro","lon":-3.38141,"lat":7.04005,"pop":0},{"id":8031998,"name":"Attore","lon":-4.4646,"lat":5.66799,"pop":0},{"id":2292559,"name":"Attoutou","alt":["Attoutou-Amarou"],"lon":-4.57236,"lat":5.22099,"pop":0},{"id":2292558,"name":"Attoutou Kokoré","lon":-4.54591,"lat":5.27097,"pop":0},{"id":8051540,"name":"Audoin Beugréto","lon":-4.14011,"lat":5.29201,"pop":0},{"id":2292557,"name":"Audoin Santé","alt":["Andouin","Audoin","Audoin Sante","Audouin"],"lon":-4.13712,"lat":5.28995,"pop":0},{"id":2292556,"name":"Auébénou","lon":-4.48333,"lat":7.66667,"pop":0},{"id":2292554,"name":"Auénou","lon":-3.2246,"lat":7.15998,"pop":0},{"id":2292552,"name":"Avadivry","lon":-4.72921,"lat":5.16064,"pop":0},{"id":2292551,"name":"Avagou","alt":["Avagon","Half Ivory","Half Ivory Town","Moyen Ivory Town","Petit Ivory"],"lon":-4.32612,"lat":5.21132,"pop":0},{"id":8033015,"name":"Avi","lon":-3.97731,"lat":5.64386,"pop":0},{"id":11204916,"name":"Avocatier","lon":-4.05202,"lat":5.44059,"pop":0},{"id":8033013,"name":"Avoungyanou","lon":-3.97355,"lat":5.63946,"pop":0},{"id":2292548,"name":"Awahikro","alt":["Ahouahikoro","Awahikoro"],"lon":-3.95188,"lat":8.30037,"pop":0},{"id":2292536,"name":"Aya Prikro","lon":-5.23209,"lat":7.28037,"pop":0},{"id":7883960,"name":"Ayabo","lon":-4.83145,"lat":7.70388,"pop":0},{"id":8031626,"name":"Ayagoua","lon":-3.95711,"lat":5.40612,"pop":0},{"id":2279845,"name":"Ayakro","alt":["Ya-Akro"],"lon":-5.20989,"lat":7.1693,"pop":0},{"id":2292544,"name":"Ayakro","lon":-5.1563,"lat":7.3128,"pop":0},{"id":8032032,"name":"Ayalo","lon":-3.9343,"lat":5.90827,"pop":0},{"id":2292542,"name":"Ayamé","alt":["Ayame"],"lon":-3.15709,"lat":5.6052,"pop":12315},{"id":8032325,"name":"Ayasse Sofi","lon":-4.22273,"lat":5.69218,"pop":0},{"id":8032988,"name":"Ayayo Chahoua","lon":-4.03176,"lat":5.91724,"pop":0},{"id":8033483,"name":"Ayé","lon":-3.64024,"lat":5.81902,"pop":0},{"id":8032610,"name":"Ayé Kouadjo","lon":-4.38458,"lat":5.89342,"pop":0},{"id":8031505,"name":"Ayé Yapo","lon":-4.14496,"lat":5.41861,"pop":0},{"id":2597110,"name":"Ayébo","lon":-3.26408,"lat":5.44242,"pop":0},{"id":2293338,"name":"Ayengrébo","alt":["Aengrinbo","Ayengrebo"],"lon":-5.00608,"lat":7.42702,"pop":0},{"id":2292535,"name":"Ayénoua","alt":["Ayenoua","Ayenouan","Ayénouan"],"lon":-3.31774,"lat":5.36681,"pop":0},{"id":8033158,"name":"Ayeron Assi","lon":-3.62364,"lat":5.58885,"pop":0},{"id":8033157,"name":"Ayeron Ayeron","lon":-3.62337,"lat":5.59249,"pop":0},{"id":8031452,"name":"Ayi Maman","lon":-4.17335,"lat":5.22734,"pop":0},{"id":8031434,"name":"Ayou Oua","lon":-4.18665,"lat":5.35944,"pop":0},{"id":2292532,"name":"Ayzan-Kouamikro","lon":-3.91771,"lat":7.47808,"pop":0},{"id":8032417,"name":"Azago Kouadio","lon":-4.07466,"lat":5.67389,"pop":0},{"id":2292531,"name":"Azaguié","alt":["Azaguie"],"lon":-4.08204,"lat":5.62984,"pop":0},{"id":2292529,"name":"Azaguié Blida","alt":["Azaguie Blida","Azaguie-Dianle","Azaguié-Dianlé"],"lon":-4.0908,"lat":5.52561,"pop":0},{"id":2292528,"name":"Azaguié Makouguié","alt":["Azaguie Makouguie","Macouguie","Macouguié"],"lon":-4.14979,"lat":5.62498,"pop":0},{"id":2292527,"name":"Azaguié Mbromé","alt":["Azaguie","Azaguie Mbrome","Azaguié"],"lon":-4.1464,"lat":5.66277,"pop":0},{"id":2292530,"name":"Azaguié-Ahoua","alt":["Azaguie Aoua","Azaguie-Ahoua","Azaguié Aoua"],"lon":-4.05621,"lat":5.64012,"pop":0},{"id":2292525,"name":"Azito","alt":["Assito"],"lon":-4.07875,"lat":5.301,"pop":0},{"id":2292524,"name":"Azou","alt":["Acru"],"lon":-4.74483,"lat":5.20505,"pop":0},{"id":2292523,"name":"Azuretti","lon":-3.77778,"lat":5.20498,"pop":0},{"id":2292508,"name":"Baadala","alt":["Bahadala","Banadala"],"lon":-7.26654,"lat":8.10403,"pop":0},{"id":7848060,"name":"Baaplé","lon":-7.4097,"lat":6.57968,"pop":0},{"id":2292506,"name":"Baazra","lon":-6.09209,"lat":7.45779,"pop":0},{"id":2292505,"name":"Baba","lon":-6.74531,"lat":4.78931,"pop":0},{"id":2292498,"name":"Babadougou","lon":-7.83744,"lat":8.34709,"pop":0},{"id":2292499,"name":"Babadougou","lon":-4.33333,"lat":8.26667,"pop":0},{"id":8032105,"name":"Babadougou","lon":-3.34931,"lat":5.40282,"pop":0},{"id":2292496,"name":"Babafogo","lon":-5.40991,"lat":10.12505,"pop":0},{"id":2292495,"name":"Babaieroua","lon":-6.5,"lat":5.76667,"pop":0},{"id":2292494,"name":"Babakaha","lon":-5.43341,"lat":9.61861,"pop":0},{"id":2292493,"name":"Babakro","lon":-3.97942,"lat":7.76951,"pop":0},{"id":8033014,"name":"Babalebie","lon":-3.98927,"lat":5.63664,"pop":0},{"id":2292492,"name":"Babango","lon":-3.24889,"lat":7.73875,"pop":0},{"id":2292491,"name":"Babaou","lon":-2.89934,"lat":8.2979,"pop":0},{"id":2292489,"name":"Babayondo","lon":-3.28333,"lat":9.83333,"pop":0},{"id":2292488,"name":"Babayroua","alt":["Babayoourouvoua","Babeyoroua"],"lon":-6.39433,"lat":5.93311,"pop":0},{"id":2292487,"name":"Babéro","lon":-6.93367,"lat":4.83828,"pop":0},{"id":2292484,"name":"Babiaha","lon":-3.27528,"lat":6.44194,"pop":0},{"id":2292483,"name":"Babien","lon":-6.87053,"lat":7.95339,"pop":0},{"id":2292481,"name":"Babisco","lon":-6.92065,"lat":4.80136,"pop":0},{"id":2292480,"name":"Bablasrazra","alt":["Bablata","Bablata Srazra","Bablata-Zrazra"],"lon":-6.24533,"lat":7.28696,"pop":0},{"id":7848903,"name":"Babli Yaya","lon":-8.15274,"lat":6.61234,"pop":0},{"id":2292479,"name":"Bably","alt":["Babli"],"lon":-7.87339,"lat":7.02553,"pop":0},{"id":2292477,"name":"Babokoon-Appolo","alt":["Babokon"],"lon":-5.33148,"lat":5.54378,"pop":0},{"id":2292475,"name":"Babotou","lon":-6.82184,"lat":5.20406,"pop":0},{"id":2292474,"name":"Babouéso","alt":["Baboueso","Babouesso","Babouésso","Vabouesso"],"lon":-7.45005,"lat":8.59373,"pop":0},{"id":2292473,"name":"Baboukro","lon":-4.75,"lat":7.21667,"pop":0},{"id":2288709,"name":"Babroukro","alt":["Gbakroukro"],"lon":-5.45856,"lat":7.9177,"pop":0},{"id":2292366,"name":"Bacanda","alt":["Bakanda"],"lon":-4.87758,"lat":5.63331,"pop":0},{"id":2292469,"name":"Bacé","lon":-5.66667,"lat":7.75,"pop":0},{"id":8031793,"name":"Bachali","lon":-3.81221,"lat":5.25255,"pop":0},{"id":8031658,"name":"Bachon","lon":-3.97803,"lat":5.49409,"pop":0},{"id":2292347,"name":"Bacon","alt":["Bakon"],"lon":-3.91017,"lat":6.35602,"pop":0},{"id":2292467,"name":"Bada","lon":-5.52039,"lat":8.1251,"pop":0},{"id":2292468,"name":"Bada","lon":-5.27145,"lat":5.50281,"pop":0},{"id":2292466,"name":"Badafré","alt":["Badafle","Badaflé","Badafre"],"lon":-4.51667,"lat":5.68333,"pop":0},{"id":2292465,"name":"Badahinou","lon":-7.09534,"lat":6.41019,"pop":0},{"id":7847456,"name":"Badala","lon":-5.42937,"lat":6.76852,"pop":0},{"id":2596904,"name":"Badasso","lon":-4.52113,"lat":5.68172,"pop":0},{"id":2292462,"name":"Badavini","lon":-3.03333,"lat":7.38333,"pop":0},{"id":2292461,"name":"Badayo I","lon":-6.63572,"lat":5.86289,"pop":0},