[{"id":3374933,"name":"Achada Baleia","lon":-23.48333,"lat":15.05,"pop":0},{"id":11205034,"name":"Achada Bel Bel","lon":-23.67004,"lat":15.14998,"pop":0},{"id":11205028,"name":"Achada Eugénio Lima","lon":-23.52068,"lat":14.92874,"pop":0},{"id":11072571,"name":"Achada Furna","lon":-24.35841,"lat":14.87234,"pop":0},{"id":3374930,"name":"Achada Grande","lon":-24.31667,"lat":14.98333,"pop":0},{"id":11205056,"name":"Achada Grande Frente","lon":-23.50304,"lat":14.91926,"pop":0},{"id":11467852,"name":"Achada Leitão","lon":-23.618,"lat":15.097,"pop":0},{"id":11496152,"name":"Achada Lem","lon":-23.67775,"lat":15.13867,"pop":0},{"id":11103715,"name":"Achada Longueira","lon":-23.71835,"lat":15.22495,"pop":0},{"id":3374480,"name":"Achada Monte","alt":["Mangue","Mangue de Sete Ribeiras"],"lon":-23.65,"lat":15.23333,"pop":0},{"id":11103474,"name":"Achada Ponta","lon":-23.50632,"lat":15.10435,"pop":0},{"id":11205082,"name":"Achada Santo Antonio","lon":-23.5262,"lat":14.9108,"pop":0},{"id":11205516,"name":"Achada São Filipe","lon":-23.53688,"lat":14.95851,"pop":0},{"id":3374928,"name":"Achadinha","lon":-23.71667,"lat":15.23333,"pop":0},{"id":11204620,"name":"Achadinha","lon":-23.65489,"lat":15.00572,"pop":0},{"id":11257206,"name":"Achadinha Pires","lon":-23.505,"lat":14.929,"pop":0},{"id":3374924,"name":"Água das Fortes","alt":["Agua das Fortes","Agua dos Fortes","Água dos Fortes"],"lon":-25.21667,"lat":16.96667,"pop":0},{"id":11428528,"name":"Agua Gatos","lon":-23.58031,"lat":15.03507,"pop":0},{"id":3374919,"name":"Alcatraz","lon":-23.10407,"lat":15.21736,"pop":0},{"id":11205741,"name":"Alto Mira","lon":-25.217,"lat":17.1,"pop":0},{"id":11427970,"name":"Alto Sao Nicolau","lon":-24.99098,"lat":16.88944,"pop":0},{"id":3374904,"name":"Amador","lon":-22.83333,"lat":16.11667,"pop":0},{"id":3374892,"name":"Areia Branca","lon":-24.96667,"lat":16.9,"pop":0},{"id":3374888,"name":"Assomada","alt":["Assumada"],"lon":-23.68333,"lat":15.1,"pop":7927},{"id":3374887,"name":"Atalaia","lon":-24.4,"lat":15.03333,"pop":0},{"id":3374883,"name":"Baboso","lon":-25.2,"lat":16.98333,"pop":0},{"id":3374879,"name":"Baleia","lon":-24.7,"lat":14.85,"pop":0},{"id":3374877,"name":"Baluarte","lon":-24.4,"lat":15,"pop":0},{"id":3374874,"name":"Barbasco","lon":-25.05158,"lat":17.18054,"pop":0},{"id":3374870,"name":"Barreiro","lon":-23.16116,"lat":15.13532,"pop":0},{"id":8439749,"name":"Barril","lon":-24.41129,"lat":16.60079,"pop":0},{"id":3374867,"name":"Beirona","lon":-22.93333,"lat":16.68333,"pop":0},{"id":3374865,"name":"Bela Vista","lon":-22.96667,"lat":16.8,"pop":0},{"id":3374857,"name":"Biscainhos","lon":-23.7,"lat":15.25,"pop":0},{"id":11204611,"name":"Boa Entrada","lon":-23.668,"lat":15.115,"pop":0},{"id":3374856,"name":"Boa Ventura","lon":-22.9,"lat":16.13333,"pop":0},{"id":11048948,"name":"Boca de Coruja","lon":-25.1196,"lat":17.16107,"pop":0},{"id":3374848,"name":"Bofareira","alt":["Bafareira","Bafureira"],"lon":-22.83333,"lat":16.18333,"pop":0},{"id":3374843,"name":"Bomfim","lon":-22.9,"lat":16.7,"pop":0},{"id":3374842,"name":"Bonita","lon":-25.31667,"lat":17.08333,"pop":0},{"id":3374840,"name":"Botija","lon":-25.33333,"lat":17.05,"pop":0},{"id":3374823,"name":"Cabeçadas","lon":-22.9,"lat":16.11667,"pop":0},{"id":3374822,"name":"Cabeçalinho","alt":["Cabecalinho"],"lon":-24.31667,"lat":16.6,"pop":0},{"id":3374819,"name":"Cabeço dos Tarafes","alt":["Cabeco de Tarafes","Cabeco dos Tarafes","Cabeço de Tarafes"],"lon":-22.73333,"lat":16.13333,"pop":0},{"id":3374817,"name":"Cachacinho","lon":-24.31667,"lat":16.6,"pop":0},{"id":7669155,"name":"Cachaco","lon":-24.3354,"lat":16.62057,"pop":0},{"id":3374815,"name":"Cachaço","lon":-25.2,"lat":17.05,"pop":0},{"id":3374816,"name":"Cachaço","alt":["Cachaco","Cachoca"],"lon":-24.69559,"lat":14.83727,"pop":0},{"id":3374812,"name":"Caculi","lon":-25.1,"lat":17.16667,"pop":0},{"id":11205105,"name":"Caibros de Ribeira de Jorge","alt":["Caibros"],"lon":-25.14588,"lat":17.13322,"pop":0},{"id":3374801,"name":"Calejão","alt":["Caleijao","Caleijão","Calejao"],"lon":-24.31667,"lat":16.6,"pop":0},{"id":3374800,"name":"Calhau","lon":-24.86687,"lat":16.85219,"pop":0},{"id":3374793,"name":"Calheta","lon":-23.21406,"lat":15.23043,"pop":0},{"id":3374794,"name":"Calheta","lon":-23.59228,"lat":15.18613,"pop":5400},{"id":3374780,"name":"Camarões","lon":-24.35,"lat":16.66667,"pop":0},{"id":11287961,"name":"Campanas de Baixo","lon":-24.40853,"lat":15.01613,"pop":0},{"id":11287655,"name":"Campo Lem Cachorro","lon":-23.50697,"lat":14.92799,"pop":0},{"id":11103159,"name":"Cancelo","lon":-23.567,"lat":15.149,"pop":0},{"id":3374759,"name":"Carriçal","alt":["Carrical"],"lon":-24.08148,"lat":16.55454,"pop":0},{"id":3374758,"name":"Carvoeiros","lon":-24.30141,"lat":16.64927,"pop":0},{"id":3374756,"name":"Casa do Cabo Submarino","lon":-25.06007,"lat":16.82406,"pop":0},{"id":3374753,"name":"Cascabulho","lon":-23.17264,"lat":15.27004,"pop":0},{"id":3374751,"name":"Castilhiano","lon":-24.05,"lat":16.58333,"pop":0},{"id":3374748,"name":"Chã da Igreja","alt":["Cha da Egreja","Cha da Igreja","Cha de Igreja","Chã da Egreja","Chã de Igreja"],"lon":-25.16667,"lat":17.16667,"pop":0},{"id":3374747,"name":"Chã da Ribeira","lon":-25.26667,"lat":17.11667,"pop":0},{"id":11427330,"name":"Cha das Caldeiras","alt":["Chã das Caldeiras"],"lon":-24.3666,"lat":14.93333,"pop":0},{"id":11398229,"name":"Chã de Alecrim","lon":-22.90649,"lat":16.61851,"pop":0},{"id":11287591,"name":"Cha de Branquinho","lon":-25.235,"lat":17.124,"pop":0},{"id":3374746,"name":"Chã de Dentro","lon":-23.68333,"lat":15.23333,"pop":0},{"id":3374745,"name":"Chã de Figueiras","lon":-23.71667,"lat":15.18333,"pop":0},{"id":11205044,"name":"Chã de Monte Sossego","lon":-24.98922,"lat":16.87842,"pop":0},{"id":3374744,"name":"Chã de Paulo","lon":-25.2,"lat":17.15,"pop":0},{"id":11467774,"name":"Cha de Ponta","lon":-23.6628,"lat":15.2223,"pop":0},{"id":3374742,"name":"Chã de Queimada","alt":["Cha Queimada","Cha de Queimada","Chã Queimada"],"lon":-25.2,"lat":17.15,"pop":0},{"id":11395952,"name":"Cha de Tanque","lon":-23.7024,"lat":15.0922,"pop":0},{"id":3374741,"name":"Chã de Vazinha","alt":["Cha Varzinha","Cha de Vazinha","Chã Varzinha"],"lon":-25.2,"lat":17.15,"pop":0},{"id":11204774,"name":"Chã do Cemitério","lon":-24.98963,"lat":16.88261,"pop":0},{"id":3374740,"name":"Chã do Morto","alt":["Cha de Morte","Cha do Morto","Chã de Morte"],"lon":-25.21667,"lat":17.05,"pop":0},{"id":3374739,"name":"Chã do Norte","lon":-25.26667,"lat":17.11667,"pop":0},{"id":3374749,"name":"Chacha","alt":["Xa Xa","Xá Xá"],"lon":-23.66667,"lat":15.2,"pop":0},{"id":3374730,"name":"Chão Queimado","alt":["Cha de Queimado","Chao Queimado","Chã de Queimado"],"lon":-25.2,"lat":17.08333,"pop":0},{"id":3374729,"name":"Charco","lon":-23.75,"lat":15.13333,"pop":0},{"id":3374725,"name":"Cidade Velha","alt":["Sidade Vel'ja","Sidade Velia","Sidade Velja","Sidade-Vel'ja","Sidadi-Vel'ja","Velha","jiu cheng","sidade-velia","sidadeubellya","sydady fylha","Σιδάδε Βέλια","Сидаде Велья","Сидади-Велья","Сідаде-Велья","סידאדה וליה","سيدادي فيلها","სიდადე-ველია","シダーデ・ヴェーリャ","舊城","시다드벨랴"],"lon":-23.60527,"lat":14.91531,"pop":2148},{"id":3374723,"name":"Círio","lon":-25.23333,"lat":17.06667,"pop":0},{"id":11395704,"name":"Coculi","lon":-25.098,"lat":17.165,"pop":0},{"id":11237555,"name":"Corda","lon":-25.088,"lat":17.136,"pop":0},{"id":3374714,"name":"Corvo","lon":-25.11667,"lat":17.2,"pop":0},{"id":3374715,"name":"Corvo","lon":-24.31667,"lat":15,"pop":0},{"id":3374707,"name":"Cova Figueira","alt":["Koba Figera","Kóba Figera"],"lon":-24.29343,"lat":14.89054,"pop":15350},{"id":3374705,"name":"Covoada","lon":-24.35,"lat":16.65,"pop":0},{"id":11257311,"name":"Cruz de João d´Évora","alt":["Cruz Joao d'Evora","Cruz João d´Évora"],"lon":-24.98015,"lat":16.88979,"pop":0},{"id":3374697,"name":"Cruz do Pé do Verde","lon":-24.95,"lat":16.88333,"pop":0},{"id":3374696,"name":"Cruzinha","lon":-25.16667,"lat":17.16667,"pop":0},{"id":3374693,"name":"Curral","lon":-25.11667,"lat":17.16667,"pop":0},{"id":3374692,"name":"Curral Branco","lon":-22.8,"lat":16.03333,"pop":0},{"id":3374691,"name":"Curral das Vacas","lon":-25.23333,"lat":17.05,"pop":0},{"id":3374688,"name":"Curral Velho","lon":-22.8,"lat":15.98333,"pop":0},{"id":3374685,"name":"Dacabalaio","alt":["Dacalabaio"],"lon":-24.33188,"lat":14.8562,"pop":0},{"id":3374682,"name":"Derrubado","lon":-22.8,"lat":16.23333,"pop":0},{"id":11395514,"name":"Eito","lon":-25.024,"lat":17.143,"pop":0},{"id":3374677,"name":"Endriano","lon":-25.18333,"lat":17.11667,"pop":0},{"id":11352110,"name":"Entre Picos","lon":-23.65631,"lat":15.11687,"pop":0},{"id":3374672,"name":"Escabeçada","lon":-25.15,"lat":17.13333,"pop":0},{"id":3374671,"name":"Escabeçada de Baixo","lon":-25.15,"lat":17.13333,"pop":0},{"id":3374670,"name":"Escada","lon":-24.3612,"lat":16.57457,"pop":0},{"id":3374666,"name":"Esgamaleiro","lon":-25.15,"lat":17.11667,"pop":0},{"id":3374664,"name":"Espadanã","lon":-25.16667,"lat":17.1,"pop":0},{"id":8521418,"name":"Espargos","lon":-22.9446,"lat":16.75524,"pop":6173},{"id":3374660,"name":"Espingueira","lon":-22.8,"lat":16.21667,"pop":0},{"id":3374658,"name":"Estância Brás","alt":["Estancia Bras","Estancia Braz"],"lon":-24.31919,"lat":16.66801,"pop":0},{"id":3374655,"name":"Fajã","lon":-24.75,"lat":14.86667,"pop":0},{"id":7669156,"name":"Faja de Baixo","lon":-24.32373,"lat":16.64869,"pop":0},{"id":3374650,"name":"Fajãzinha","alt":["Fajansinha","Fajazinha"],"lon":-25.16667,"lat":17.15,"pop":0},{"id":3374651,"name":"Fajãzinha","alt":["Fajasinha","Fajasinhas","Fajazinha","Fajãsinha"],"lon":-24.35,"lat":15.05,"pop":0},{"id":3374649,"name":"Fanade","lon":-25.16667,"lat":17.13333,"pop":0},{"id":11205553,"name":"Fazenda","lon":-23.5078,"lat":14.9255,"pop":0},{"id":3374644,"name":"Fazenda Real","lon":-24.95,"lat":16.86667,"pop":0},{"id":3374641,"name":"Feijoal","lon":-22.90244,"lat":16.7527,"pop":0},{"id":3374634,"name":"Figueira da Horta","lon":-23.15186,"lat":15.15988,"pop":0},{"id":3374633,"name":"Figueira das Naus","alt":["Figueira da Naus"],"lon":-23.73333,"lat":15.18333,"pop":0},{"id":3374632,"name":"Figueira de Coxe","lon":-24.21667,"lat":16.63333,"pop":0},{"id":3374630,"name":"Figueira Pavão","alt":["Figueira Pavao"],"lon":-24.31103,"lat":14.87113,"pop":0},{"id":3374627,"name":"Figueira Seca","lon":-23.1448,"lat":15.15624,"pop":0},{"id":3374629,"name":"Figueiras de Baixo","lon":-25.21667,"lat":17.15,"pop":0},{"id":3374628,"name":"Figueiras de Cimas","lon":-25.2,"lat":17.13333,"pop":0},{"id":3374624,"name":"Fiura","lon":-22.91485,"lat":16.85116,"pop":0},{"id":3374615,"name":"Fogão","lon":-22.85,"lat":16.08333,"pop":0},{"id":3374611,"name":"Fontainhas","lon":-25.1,"lat":17.18333,"pop":0},{"id":3374612,"name":"Fontainhas","lon":-24.33333,"lat":16.58333,"pop":0},{"id":3374608,"name":"Fonte Aleixo","lon":-24.36667,"lat":14.83333,"pop":0},{"id":11397272,"name":"Fonte Frances","lon":-24.98056,"lat":16.87861,"pop":0},{"id":11395866,"name":"Fonte Ines","lon":-24.97806,"lat":16.89056,"pop":0},{"id":3374602,"name":"Forno","lon":-24.45,"lat":14.88333,"pop":0},{"id":3374594,"name":"Fundo das Figueiras","alt":["Fundo de Figueias","Fundo de Figueiras"],"lon":-22.73333,"lat":16.15,"pop":0},{"id":3374591,"name":"Fundura","lon":-23.7,"lat":15.16667,"pop":0},{"id":3374589,"name":"Furna","alt":["Furno"],"lon":-24.68093,"lat":14.887,"pop":0},{"id":3374582,"name":"Galinheiro","alt":["Galinheiros"],"lon":-24.45,"lat":15,"pop":0},{"id":3374580,"name":"Garça","lon":-24.7,"lat":14.86667,"pop":0},{"id":11125820,"name":"Garça de Cima","lon":-25.165,"lat":17.114,"pop":0},{"id":3374578,"name":"Gata","alt":["Gala"],"lon":-22.71667,"lat":16.2,"pop":0},{"id":11353142,"name":"Gil Bispo","lon":-23.65992,"lat":15.10863,"pop":0},{"id":11103073,"name":"Horta Seca","lon":-24.97889,"lat":16.87028,"pop":0},{"id":3374338,"name":"Igreja","alt":["Porto dos Mosteiros"],"lon":-24.325,"lat":15.03389,"pop":477},{"id":3374555,"name":"Igreja","alt":["Egreja","Ereja"],"lon":-24.33333,"lat":15.03333,"pop":0},{"id":3374554,"name":"Ilhéu","lon":-23.63333,"lat":15.2,"pop":0},{"id":3374550,"name":"Inhuco","alt":["Nhuco"],"lon":-24.45,"lat":14.93333,"pop":0},{"id":3374549,"name":"Italiano","lon":-24.46667,"lat":14.96667,"pop":0},{"id":3374540,"name":"João Barrosa","alt":["Joao Barrosa","Joao Barroza","João Barroza"],"lon":-22.75,"lat":16.01667,"pop":0},{"id":3374537,"name":"João Daninha","lon":-25.23333,"lat":16.96667,"pop":0},{"id":3374535,"name":"João Galego","alt":["Joao Galego"],"lon":-22.75,"lat":16.15,"pop":0},{"id":8441167,"name":"João Teves","alt":["Joao Teves"],"lon":-23.58917,"lat":15.06694,"pop":0},{"id":3374526,"name":"Juncalinho","lon":-24.13165,"lat":16.61371,"pop":0},{"id":3374520,"name":"Lagariça","alt":["Lagarica"],"lon":-24.46667,"lat":14.91667,"pop":0},{"id":3374519,"name":"Lagoa","lon":-23.15186,"lat":15.12905,"pop":0},{"id":3374517,"name":"Lagoa Atrás","alt":["Lagoa Atras","Lagoa Atraz"],"lon":-24.33333,"lat":15.01667,"pop":0},{"id":11353027,"name":"Lameirao","lon":-24.96182,"lat":16.87997,"pop":0},{"id":3374512,"name":"Lapa Cachorro","lon":-23.7,"lat":15.26667,"pop":0},{"id":3374509,"name":"Lazareto","alt":["Lazaretto"],"lon":-25.02183,"lat":16.87642,"pop":0},{"id":3374507,"name":"Leiro","lon":-25.2,"lat":17,"pop":0},{"id":11428149,"name":"Lem Ferreira","lon":-23.50224,"lat":14.92181,"pop":0},{"id":11495929,"name":"Lomba","lon":-24.45,"lat":14.969,"pop":0},{"id":3374499,"name":"Lombo da Torre","lon":-25.21667,"lat":17,"pop":0},{"id":3374500,"name":"Lombo das Danças","lon":-25.21667,"lat":16.98333,"pop":0},{"id":3374498,"name":"Lombo de Figueira","lon":-25.06667,"lat":17.1,"pop":0},{"id":3374497,"name":"Lombo de Galinha","alt":["Lombo Galinha"],"lon":-25.21667,"lat":17.13333,"pop":0},{"id":3374496,"name":"Lombo do Mar","lon":-25.16667,"lat":17.11667,"pop":0},{"id":11495925,"name":"Lombo Tamque","lon":-24.97778,"lat":16.88222,"pop":0},{"id":3374493,"name":"Lugar Novo","alt":["Logar Novo"],"lon":-24.48333,"lat":14.93333,"pop":0},{"id":3374491,"name":"Luzia Nunes","lon":-24.43984,"lat":14.87472,"pop":0},{"id":3374489,"name":"Madeiral","lon":-24.95,"lat":16.83333,"pop":0},{"id":3374483,"name":"Malveira","lon":-23.71667,"lat":15.13333,"pop":0},{"id":3374476,"name":"Mão para Trás","alt":["Mao para Tras","Mao para Traz","Mão para Traz"],"lon":-25.06723,"lat":17.18542,"pop":0},{"id":3374473,"name":"Martiana","lon":-25.25,"lat":17.1,"pop":0},{"id":11377114,"name":"Martiene","lon":-25.24727,"lat":17.09001,"pop":0},{"id":3374472,"name":"Massapé","lon":-23.7,"lat":15.23333,"pop":0},{"id":3374470,"name":"Mateuzinho","alt":["Mateusinho"],"lon":-24.93559,"lat":16.85988,"pop":0},{"id":11495927,"name":"Mato Baixo","lon":-23.69245,"lat":15.13411,"pop":0},{"id":3374467,"name":"Mato Correia","lon":-23.65,"lat":15.2,"pop":0},{"id":11353031,"name":"Mato Ingles","lon":-24.94833,"lat":16.86083,"pop":0},{"id":3374466,"name":"Meio de Espanha","alt":["Meio de Espanha de Figueiras"],"lon":-25.2,"lat":17.13333,"pop":0},{"id":3374463,"name":"Miguel Pires","lon":-25.23333,"lat":17.08333,"pop":0},{"id":3374462,"name":"Mindelo","alt":["Mihdelo","Mindelas","Mindello","Mindelu","Mintelo","mindellu","mindero","ming de lu","Μιντέλο","Минделу","Мінделу","ミンデロ","明德盧","민델루"],"lon":-24.98042,"lat":16.89014,"pop":70611},{"id":3374461,"name":"Mira-Mira","lon":-24.45,"lat":14.96667,"pop":0},{"id":3374460,"name":"Moerão","lon":-23.71667,"lat":15.25,"pop":0},{"id":3374459,"name":"Moia Moia","lon":-23.46667,"lat":15.01667,"pop":0},{"id":3374457,"name":"Montagarro","lon":-23.51667,"lat":14.95,"pop":0},{"id":3374456,"name":"Montanha","lon":-23.6,"lat":15.08333,"pop":0},{"id":3374454,"name":"Montão","lon":-23.71667,"lat":15.25,"pop":0},{"id":11072570,"name":"Monte Grande","lon":-24.40636,"lat":14.88951,"pop":0},{"id":3374452,"name":"Monte Joana","lon":-25.06249,"lat":17.15052,"pop":0},{"id":11428176,"name":"Monte Tabor","lon":-24.49994,"lat":14.89502,"pop":0},{"id":3374450,"name":"Monte Vermelho","lon":-24.33333,"lat":14.83333,"pop":0},{"id":3374449,"name":"Montinho","lon":-23.71667,"lat":15.21667,"pop":0},{"id":3374445,"name":"Morre Braz","lon":-24.19412,"lat":16.63341,"pop":0},{"id":3374443,"name":"Morrinho","lon":-25.23333,"lat":16.96667,"pop":0},{"id":3374444,"name":"Morrinho","lon":-23.20441,"lat":15.26591,"pop":0},{"id":3374440,"name":"Morrinho d’Égua","lon":-25.26667,"lat":17.1,"pop":0},{"id":3374438,"name":"Morro","lon":-23.22251,"lat":15.17998,"pop":0},{"id":3374436,"name":"Morro Alto","lon":-24.18333,"lat":16.61667,"pop":0},{"id":3374429,"name":"Nhã Marco","lon":-22.95,"lat":16.7,"pop":0},{"id":11468067,"name":"Nhagar","lon":-23.67258,"lat":15.10465,"pop":0},{"id":3374425,"name":"Nora","lon":-23.55,"lat":15.01667,"pop":0},{"id":3374420,"name":"Nossa Senhora do Monte","lon":-24.71667,"lat":14.85,"pop":0},{"id":3374117,"name":"Nova Sintra","alt":["Vila Nova Cinteus","Vila Nova Sintra","Vila de Nova Cintra","Vila de Nova Sintra"],"lon":-24.69556,"lat":14.87139,"pop":1813},{"id":3374418,"name":"Órgãos","lon":-23.61667,"lat":15.06667,"pop":0},{"id":3374417,"name":"Ortelão","lon":-24.36667,"lat":16.61667,"pop":0},{"id":3374413,"name":"Pai Amaro","alt":["Pae Amaro"],"lon":-22.73333,"lat":16.03333,"pop":0},{"id":11428915,"name":"Pai António","lon":-24.32762,"lat":15.02383,"pop":0},{"id":3374412,"name":"Pai Joana","lon":-23.10977,"lat":15.25801,"pop":0},{"id":3374411,"name":"Palha Carga","lon":-23.66667,"lat":15.21667,"pop":0},{"id":3374406,"name":"Palha Verde","lon":-22.93333,"lat":16.66667,"pop":0},{"id":3374407,"name":"Palhal","lon":-24.35,"lat":16.61667,"pop":0},{"id":11204800,"name":"Palmarejo","lon":-23.53053,"lat":14.9098,"pop":0},{"id":3374403,"name":"Palmeira","lon":-22.98348,"lat":16.75754,"pop":0},{"id":3374394,"name":"Patim","lon":-24.42602,"lat":14.87308,"pop":0},{"id":3374393,"name":"Pau","lon":-24.73333,"lat":14.85,"pop":0},{"id":8441169,"name":"Pedra Badejo","lon":-23.53083,"lat":15.1375,"pop":9343},{"id":3374384,"name":"Pedra Lume","alt":["Pedra Lum","Pedra de Lume"],"lon":-22.89349,"lat":16.76376,"pop":0},{"id":3374379,"name":"Pedrinha","lon":-25.14919,"lat":16.95848,"pop":0},{"id":3374375,"name":"Pedro Vaz","lon":-23.11542,"lat":15.24777,"pop":0},{"id":3374372,"name":"Penha de França","lon":-25.07323,"lat":17.18888,"pop":0},{"id":3374371,"name":"Penteada","lon":-24.46667,"lat":14.88333,"pop":0},{"id":3374369,"name":"Perdia","lon":-25.03333,"lat":17.1,"pop":0},{"id":11287473,"name":"Pico Leao","lon":-23.65168,"lat":15.04394,"pop":0},{"id":3374360,"name":"Picos","alt":["Pikus"],"lon":-23.63236,"lat":15.0836,"pop":3778},{"id":11608481,"name":"Pilao Cao","lon":-23.10493,"lat":15.20863,"pop":0},{"id":3374357,"name":"Pinchossa","lon":-23.6,"lat":15.16667,"pop":0},{"id":3374356,"name":"Pinto","lon":-25.16667,"lat":17.08333,"pop":0},{"id":3374351,"name":"Pombas","alt":["Vila das Pombas"],"lon":-25.02007,"lat":17.15026,"pop":1818},{"id":3374349,"name":"Ponta Adiante","alt":["Point Adeante","Ponta Adeante"],"lon":-22.85,"lat":16.18333,"pop":0},{"id":11204761,"name":"Ponta d'Agua","lon":-23.51126,"lat":14.9359,"pop":0},{"id":3374347,"name":"Ponta da Cruz","lon":-24.74546,"lat":16.74633,"pop":0},{"id":8030391,"name":"Ponta de Achada Baleia","lon":-23,"lat":15,"pop":0},{"id":3374346,"name":"Ponta do Sol","alt":["Sol Point"],"lon":-25.09217,"lat":17.20171,"pop":4064},{"id":11962187,"name":"Ponta Preta","lon":-22.92975,"lat":16.60561,"pop":0},{"id":3374345,"name":"Ponta São Francisco","lon":-23.5,"lat":14.98333,"pop":0},{"id":11103434,"name":"Ponta Verde","lon":-23.60003,"lat":15.19918,"pop":0},{"id":3374542,"name":"Pontinha da Janela","alt":["Janela","Janelas","Pontinha de Janela"],"lon":-24.9864,"lat":17.1203,"pop":0},{"id":3374341,"name":"Portal","lon":-23.71667,"lat":15.25,"pop":0},{"id":3374337,"name":"Porto Gouveia","alt":["Gouveia"],"lon":-23.66504,"lat":14.93882,"pop":0},{"id":11608863,"name":"Porto Mosquito","lon":-23.68457,"lat":14.95085,"pop":0},{"id":3374336,"name":"Porto Novo","alt":["Carvoeiros","Vila do Porto Novo","Vila do Pôrto Novo","alto de peixim"],"lon":-25.06471,"lat":17.01969,"pop":5580},{"id":3374335,"name":"Porto Rincão","alt":["Porto Rincao","Porto do Rincao","Porto do Rincão"],"lon":-23.76475,"lat":15.06115,"pop":0},{"id":3374334,"name":"Povoação Velha","alt":["Povoacao Velha"],"lon":-22.91667,"lat":16.03333,"pop":0},{"id":3374333,"name":"Praia","alt":["Braia","Cidade da Praia","Municipio da Praia","Município da Praia","Pragia","Praja","Praje","Prajo","Prajė","Praya","RAI","braya","pei ya","peulaia","pirxa","pra'i'a","pra'iya","praya","prayya","puraia","Πράγια","Πράια","Прая","Праја","Պրայա","פראיה","برايا","پرائا","پرائیا","پرايا","پرایا","پڕایا","प्राईया","ਪ੍ਰਾਈਆ","ไปรอา","ཕུ་ར་ཡ།","პრაია","ፕራያ","プライア","培亞","프라이아"],"lon":-23.51254,"lat":14.93152,"pop":113364},{"id":3374329,"name":"Praia Baixo","alt":["Praia Abaixo"],"lon":-23.48333,"lat":15.06667,"pop":0},{"id":3374328,"name":"Praia Branca","lon":-24.4,"lat":16.65,"pop":0},{"id":3374319,"name":"Prainha","lon":-22.91667,"lat":16.6,"pop":0},{"id":3374316,"name":"Prazeres","lon":-22.81667,"lat":16,"pop":0},{"id":3374314,"name":"Preguiça","alt":["Preguica"],"lon":-22.92945,"lat":16.78005,"pop":0},{"id":3374315,"name":"Preguiça","alt":["Paraghisi","Preguica","Prequiza","Rolla"],"lon":-24.28086,"lat":16.56311,"pop":0},{"id":11428784,"name":"Queimada","lon":-24.3796,"lat":14.87058,"pop":0},{"id":3374304,"name":"Queimadas","alt":["Queimada"],"lon":-24.31667,"lat":16.63333,"pop":0},{"id":3374303,"name":"Queimado","lon":-25.23333,"lat":16.98333,"pop":0},{"id":3374301,"name":"Rabil","alt":["BVC"],"lon":-22.88667,"lat":16.12977,"pop":0},{"id":3374293,"name":"Reguinho","lon":-22.91595,"lat":16.84953,"pop":0},{"id":3374291,"name":"Relva","lon":-24.31667,"lat":14.98333,"pop":0},{"id":11427331,"name":"Ribeira Alta","lon":-25.2,"lat":17.15,"pop":0},{"id":3374121,"name":"Ribeira Brava","alt":["Vila da Ribeira Brava"],"lon":-24.29833,"lat":16.61583,"pop":5324},{"id":3374287,"name":"Ribeira da Barca","alt":["Ribeira de Barca"],"lon":-23.75945,"lat":15.13737,"pop":0},{"id":3374284,"name":"Ribeira da Cruz","lon":-25.25,"lat":17.11667,"pop":0},{"id":3374283,"name":"Ribeira da Prata","alt":["Ribeira de Prata"],"lon":-23.74534,"lat":15.22948,"pop":0},{"id":11467908,"name":"Ribeira de Craquinha","lon":-24.97889,"lat":16.87028,"pop":0},{"id":12450736,"name":"Ribeira do Bras","lon":-25.03469,"lat":17.16425,"pop":0},{"id":11608479,"name":"Ribeira Dom João","lon":-23.12153,"lat":15.14415,"pop":0},{"id":3374278,"name":"Ribeira dos Calhaus","alt":["Ribeira Calhau"],"lon":-24.36667,"lat":16.63333,"pop":0},{"id":3374277,"name":"Ribeira Fria","lon":-25.16667,"lat":17.05,"pop":0},{"id":3374276,"name":"Ribeira Funda","lon":-24.33539,"lat":16.67464,"pop":0},{"id":3374275,"name":"Ribeira Grande","alt":["Puvuason","R'bera Grend","R’bera Grénd"],"lon":-25.065,"lat":17.1825,"pop":2950},{"id":3374273,"name":"Ribeira Ilhéu","alt":["Ribeira Ilheu"],"lon":-24.38333,"lat":15.03333,"pop":0},{"id":3374268,"name":"Ribeira Prata","alt":["Ribeira da Prata"],"lon":-24.36667,"lat":16.65,"pop":0},{"id":10300583,"name":"Ribeira Principal","lon":-23.67211,"lat":15.20376,"pop":0},{"id":7867524,"name":"Ribeira Torta","lon":-25.15705,"lat":16.95006,"pop":0},{"id":3374267,"name":"Ribeira Vermelha","lon":-25.28333,"lat":17.08333,"pop":0},{"id":11428545,"name":"Ribeirão Boi","lon":-23.58782,"lat":15.13191,"pop":0},{"id":3374270,"name":"Ribeirão Chiqueiro","lon":-23.53333,"lat":15.01667,"pop":0},{"id":11428037,"name":"Ribeirao Manuel","lon":-23.7053,"lat":15.1077,"pop":0},{"id":3374269,"name":"Ribeirão Sal","lon":-23.68333,"lat":15.23333,"pop":0},{"id":11428100,"name":"Ribeirinha","lon":-24.97553,"lat":16.88814,"pop":0},{"id":3374251,"name":"Rui Vaz","lon":-23.59983,"lat":15.03524,"pop":0},{"id":3374250,"name":"Sacramento","lon":-23.56667,"lat":15.05,"pop":0},{"id":11395777,"name":"Safende","lon":-23.515,"lat":14.94111,"pop":0},{"id":3374235,"name":"Sal Rei","alt":["Sal-Rel","Vila de Sal Rei"],"lon":-22.91722,"lat":16.17611,"pop":2122},{"id":3374247,"name":"Salamansa","alt":["Salamanza"],"lon":-24.9436,"lat":16.90313,"pop":0},{"id":3374229,"name":"Sambango","lon":-24.35,"lat":15.05,"pop":0},{"id":3374227,"name":"Santa Bárbara","alt":["Santa Barbara"],"lon":-24.7,"lat":14.88333,"pop":0},{"id":3374221,"name":"Santa Cruz","lon":-23.56667,"lat":15.13333,"pop":9488},{"id":3374218,"name":"Santa Maria","lon":-22.90509,"lat":16.59796,"pop":17231},{"id":3374214,"name":"Santiago","alt":["San Iago","Sao Tiago","São Tiago"],"lon":-23.53333,"lat":15.13333,"pop":0},{"id":11205190,"name":"Santo André","lon":-25.28,"lat":17.08,"pop":0},{"id":3374212,"name":"Santo António","lon":-23.11376,"lat":15.26719,"pop":0},{"id":11288091,"name":"Santo Gege","lon":-23.6757,"lat":15.0679,"pop":0},{"id":3374211,"name":"São Domingos","alt":["San-Domingos","Сан-Домингос"],"lon":-23.5625,"lat":15.02438,"pop":1850},{"id":3374210,"name":"São Filipe","alt":["Luz","SFL","Saint Philip","Sao Filipe","Vila de Sao Filippe","Vila de São Filippe","sheng fei li pu xian","聖菲利普縣"],"lon":-24.49556,"lat":14.8961,"pop":8189},{"id":3374207,"name":"São João","lon":-23.66008,"lat":14.94651,"pop":0},{"id":3374205,"name":"São Jorge","alt":["Sao Jorge"],"lon":-22.81667,"lat":16.06667,"pop":0},{"id":3374206,"name":"São Jorge","alt":["Sao Jorge"],"lon":-24.43333,"lat":15.01667,"pop":0},{"id":3374204,"name":"São Martinho","lon":-23.58333,"lat":14.91667,"pop":0},{"id":3374201,"name":"São Pedro","lon":-25.07049,"lat":16.8307,"pop":0},{"id":3374194,"name":"Selada","lon":-25.26667,"lat":17.1,"pop":0},{"id":3374193,"name":"Selada do Mocho","lon":-25.16667,"lat":17.15,"pop":0},{"id":3374192,"name":"Seladinha","lon":-25.30381,"lat":16.95902,"pop":0},{"id":3374188,"name":"Serrado","lon":-24.46667,"lat":14.91667,"pop":0},{"id":3374186,"name":"Sinagoga","lon":-25.0333,"lat":17.17618,"pop":0},{"id":3374175,"name":"Tabuadinha","lon":-25.16667,"lat":17.08333,"pop":0},{"id":3374174,"name":"Tabuga","lon":-25.2,"lat":17.01667,"pop":0},{"id":3374158,"name":"Tarrafal","alt":["Tarrafal da Vila de Ribeira Grande"],"lon":-25.06951,"lat":17.18635,"pop":0},{"id":3374164,"name":"Tarrafal","alt":["Tarrafal de Monte Trigo","Tarvafal"],"lon":-25.31036,"lat":16.95868,"pop":0},{"id":3374166,"name":"Tarrafal","alt":["Vila do Tarrafal"],"lon":-23.75192,"lat":15.27881,"pop":6463},{"id":3374165,"name":"Tarrafal de São Nicolau","alt":["Tarrafal"],"lon":-24.35793,"lat":16.56622,"pop":5039},{"id":3374156,"name":"Telha","lon":-24.35592,"lat":16.56201,"pop":0},{"id":11204898,"name":"Terra Branca","lon":-23.52461,"lat":14.92089,"pop":0},{"id":11497779,"name":"Tinteira","lon":-24.32975,"lat":14.92882,"pop":0},{"id":11103473,"name":"Tira Chapeu","lon":-23.52278,"lat":14.91389,"pop":0},{"id":3374153,"name":"Tongon","alt":["Tongom"],"lon":-24.48333,"lat":14.91667,"pop":0},{"id":3374150,"name":"Toril","lon":-23.71667,"lat":15.3,"pop":0},{"id":3374149,"name":"Torno d’Água","lon":-24.36667,"lat":16.61667,"pop":0},{"id":3374146,"name":"Tras-os-Montes","lon":-23.71667,"lat":15.3,"pop":0},{"id":3374143,"name":"Trindade","lon":-23.56667,"lat":14.95,"pop":0},{"id":3374140,"name":"Urzeleiro","alt":["Urgueiro","Urzeleiros"],"lon":-25.2,"lat":17.08333,"pop":0},{"id":3374138,"name":"Vale da Gusta","alt":["Vale da Custa"],"lon":-23.47253,"lat":14.99049,"pop":0},{"id":11205209,"name":"Varzea","lon":-23.51421,"lat":14.91596,"pop":0},{"id":11205549,"name":"Veneza","lon":-23.60185,"lat":15.1939,"pop":0},{"id":3374123,"name":"Vicente Dias","lon":-24.46667,"lat":14.88333,"pop":0},{"id":3374120,"name":"Vila do Maio","alt":["MMO","Maio","Nossa Senhora da Luz","Port Ingles","Porto Ingles","Porto Inglez","Porto Inglês","Vila do Porto Ingles","Vila do Porto Inglês"],"lon":-23.21158,"lat":15.13823,"pop":3009},{"id":3374119,"name":"Vila Maria Pia","lon":-25.09269,"lat":17.19631,"pop":0},{"id":3374118,"name":"Vila Nova","lon":-23.51667,"lat":14.93333,"pop":0},{"id":11497782,"name":"Vila Nova e Lombo Tanque","lon":-24.98288,"lat":16.88831,"pop":0},{"id":3374116,"name":"Vinagre","lon":-24.7,"lat":14.86667,"pop":0}]