[{"id":146844,"name":"Achéleia","alt":["Acheleia","Akheilia","Akhelia","Aselya","Aşelya","Αχέλεια"],"lon":32.48589,"lat":34.73922,"pop":119},{"id":146842,"name":"Acherítou","alt":["Acheritou","Agratur","Aharida","Aharitu","Ahiritu","Akhyritou","Aseritu","Ağratur","Aşeritu","Guvercinlik","Güvercinlik","Kouverjinlik","Αχερίτου"],"lon":33.86155,"lat":35.10022,"pop":1721},{"id":146767,"name":"Áchna","alt":["Achna","Ahna","Akhna","Athna","Duzce","Düzce","Άχνα"],"lon":33.78388,"lat":35.05515,"pop":2043},{"id":146807,"name":"Afánteia","alt":["Afanteia","Afanya","Aphaneia","Aphania","Aranya","Gazikoy","Gaziköy","Αφάντεια"],"lon":33.58587,"lat":35.15768,"pop":0},{"id":146758,"name":"Agiá","alt":["Agia","Agyia","Ayakebir","Ayia","Ayia Kebir","Dilekkaya","Αγιά"],"lon":33.56413,"lat":35.10912,"pop":0},{"id":11952717,"name":"Agia Anastasia","alt":["Αγία Αναστασία"],"lon":33.17499,"lat":35.33236,"pop":0},{"id":146756,"name":"Agía Ánna","alt":["Agia Anna","Agia Anna  Cyprus","Akhisar","Ayanna","Ayia Anna","Αγία Άννα"],"lon":33.48076,"lat":34.94292,"pop":262},{"id":146754,"name":"Agía Eiríni","alt":["Agia Eirini","Akdeniz","Ayairini","Ayia Irini","Ayia Irmi","Ayirini","Irmi","Αγία Ειρήνη"],"lon":32.96345,"lat":35.29893,"pop":0},{"id":146755,"name":"Agía Eiríni","alt":["Agia Eirini","Ayia Irini","Ayirini","Αγία Ειρήνη"],"lon":32.96951,"lat":34.98123,"pop":51},{"id":146747,"name":"Agia Fylaxis","alt":["Agia Fyla","Aya Filya","Ayafila","Ayia Fila","Ayia Phyla","Saint Phyla","Αγία Φύλα","Αγία Φύλαξης"],"lon":33.025,"lat":34.71667,"pop":0},{"id":146750,"name":"Agía Marína","alt":["Agia Marina","Ayia Marina","Ayia Marina Skyllouras","Aymarina","Gurpinar","Gürpınar","Skylloura","Αγία Μαρίνα"],"lon":33.12985,"lat":35.22645,"pop":0},{"id":146751,"name":"Agía Marína","alt":["Agia Marina","Agia Marina Chrysochous","Ayia Marina","Ayia Marina Chrysochous","Ayia Marina Khrysokhou","Aymarina","Saint Marina","Αγία Μαρίνα","Αγία Μαρίνα Χρυσοχούς"],"lon":32.51371,"lat":35.12038,"pop":0},{"id":146752,"name":"Agía Marína","alt":["Agia Marina","Ayia Marina","Ayia Marina Xyliatos","Ayia Marina Xyliatou","Αγία Μαρίνα"],"lon":33.05706,"lat":35.0503,"pop":0},{"id":146753,"name":"Agía Marína","alt":["Agia Marina","Ayia Marina","Ayia Marina Kelokedhara","Aymarina","Αγία Μαρίνα"],"lon":32.61405,"lat":34.8288,"pop":0},{"id":146749,"name":"Agía Marinoúda","alt":["Agia Marinouda","Ayia Marinoudha","Ayia Marinuda","Aymarinuda","Marinoudha","Αγία Μαρινούδα"],"lon":32.47592,"lat":34.7598,"pop":230},{"id":11902913,"name":"Agia Napa","alt":["Αγία Νάπα"],"lon":33.04602,"lat":34.67568,"pop":0},{"id":11952712,"name":"Agia Paraskevi","alt":["Αγία Παρασκευή"],"lon":33.16847,"lat":35.33483,"pop":0},{"id":11978878,"name":"Agia Paraskevi","alt":["Αγία Παρασκευή"],"lon":33.31445,"lat":35.11727,"pop":0},{"id":11902911,"name":"Agia Trias","alt":["Αγία Τριάς"],"lon":33.05045,"lat":34.68114,"pop":0},{"id":146746,"name":"Agía Triás","alt":["Agia Trias","Ay Trias","Ayia Tria","Ayia Trias","Ayria Trias","Aytriada","Sipahi","Αγία Τριάς"],"lon":34.21601,"lat":35.5387,"pop":0},{"id":146745,"name":"Agia Varvara","alt":["Agía Varvára","Engindere or Ayvarvara","Αγία Βαρβάρα"],"lon":32.51159,"lat":34.75073,"pop":172},{"id":146744,"name":"Agía Varvára","alt":["Agia Varvara","Ayia Varvara","Ayvarvara","Ayvaryara","Αγία Βαρβάρα"],"lon":33.36946,"lat":34.99686,"pop":0},{"id":11902910,"name":"Agia Zoni","alt":["Αγία Ζώνη"],"lon":33.04414,"lat":34.68521,"pop":0},{"id":11951809,"name":"Agia Zoni","alt":["Αγία Ζώνη"],"lon":33.95018,"lat":35.10693,"pop":0},{"id":146740,"name":"Ágio Georgoúdi","alt":["Agio Georgoudi","Agion Georgoudi","Ayion Yeorgoudhi","Ayion Yeorgoudi","Ayyorguyi","Kucuk Solcuklu","Küçük Solçuklu","Άγιο Γεωργούδι"],"lon":32.62273,"lat":35.16073,"pop":0},{"id":12110856,"name":"Agioi Anargyroi I","alt":["Άγιοι Ανάργυροι Ι"],"lon":33.62453,"lat":34.93916,"pop":0},{"id":12110857,"name":"Agioi Anargyroi II","alt":["Άγιοι Ανάργυροι ΙΙ"],"lon":33.62385,"lat":34.93483,"pop":0},{"id":146641,"name":"Ágioi Iliófotoi","alt":["Agioi Iliofotoi","Alifodes","Alifodez","Alifotes","Alihodes","Ayii Eliophoti","Eliophotes","Zeytinlik","Άγιοι Ηλιόφωτοι"],"lon":33.09284,"lat":35.05804,"pop":0},{"id":11978231,"name":"Agioi Konstantinos kai Eleni","alt":["Άγιοι Κωνσταντίνος και Ελένη"],"lon":33.38864,"lat":35.0701,"pop":0},{"id":11983551,"name":"Agioi Konstantinos kai Eleni","alt":["Άγιοι Κωνσταντίνος και Ελένη"],"lon":33.37781,"lat":35.16367,"pop":0},{"id":146742,"name":"Ágioi Trimithiás","alt":["Agioi Trimithias","Ayii Trimidyes","Ayii Trimithias","Ayious","Aytrimitya","Aytrimityas","Saint Trimithias","Άγιοι Τριμιθιάς"],"lon":33.21044,"lat":35.11463,"pop":0},{"id":146741,"name":"Ágioi Vavatsiniás","alt":["Agio Vavatsinias","Agioi Vavatsinias","Ay Vavatsinya","Ayias Vavatsinias","Ayii Vavatsinia","Ayii Vavatsinias","Ayios Vavatsinia","Ayvavacinya","Ayvavaçinya","Saint Vavatsinia","Άγιοι Βαβατσινιάς"],"lon":33.19125,"lat":34.87961,"pop":0},{"id":146738,"name":"Ágios Amvrósios","alt":["Agios Amvrosios","Ayia Grosh","Ayios Amvrosios","Aykurus","Aykuruş","Esentepe","Saint Amvrosios","Άγιος Αμβρόσιος"],"lon":33.58262,"lat":35.33903,"pop":0},{"id":146739,"name":"Ágios Amvrósios","alt":["Agios Amvrosios","Ayamvrasiyo","Ayamvrosio","Ayios Amvrosios","Ayios Evrosis","Άγιος Αμβρόσιος"],"lon":32.82611,"lat":34.78111,"pop":304},{"id":11548419,"name":"Agios Andreas","alt":["Ayios Andreas","Άγιος Ανδρέας"],"lon":33.3463,"lat":35.17479,"pop":0},{"id":11952711,"name":"Agios Andreas","alt":["Άγιος Ανδρέας"],"lon":33.23315,"lat":35.33883,"pop":0},{"id":146736,"name":"Ágios Andrónikos","alt":["Agios Andronikos","Ayantronigo","Ayantroniko","Ayios Andronikos","Saint Andronikos","Yesilkoy","Yeşilköy","Άγιος Ανδρόνικος"],"lon":34.16173,"lat":35.50242,"pop":0},{"id":146737,"name":"Ágios Andrónikos","alt":["Agios Andronikos","Ayandronikas","Ayandroniko","Ayantroniko","Ayios Andronikos","Saint Andronikos","Topcukoy","Topsiou Keuy","Topçuköy","Άγιος Ανδρόνικος"],"lon":33.87366,"lat":35.33985,"pop":0},{"id":11902916,"name":"Agios Antonios","alt":["Άγιος Αντώνιος"],"lon":33.03981,"lat":34.67043,"pop":0},{"id":11993246,"name":"Agios Antonios","alt":["Άγιος Αντώνιος"],"lon":32.95514,"lat":34.96672,"pop":0},{"id":146735,"name":"Ágios Athanásios","alt":["Agios Athanasios","Ayatanas","Ayatanasiyo","Ayios Atanasios","Ayios Athanasios","Saint Athanasios","St. Athanasios","Άγιος Αθανάσιος"],"lon":33.04997,"lat":34.70935,"pop":0},{"id":146720,"name":"Ágios Charíton","alt":["Agios Chariton","Ayharida","Ayharita","Ayios Khariton","Aykarida","Ergenekon","Saint Khariton","Άγιος Χαρίτων"],"lon":33.6046,"lat":35.30528,"pop":0},{"id":146734,"name":"Ágios Dimitrianós","alt":["Agios Dimitrianos","Aydimitrino","Aydimitriyano","Ayios Dhimitrianos","Saint Dhimitrianos","Άγιος Δημητριανός"],"lon":32.55051,"lat":34.9068,"pop":91},{"id":11979292,"name":"Agios Dimitrios","alt":["Άγιος Δημήτριος"],"lon":33.36326,"lat":35.15232,"pop":0},{"id":146733,"name":"Ágios Dimítrios","alt":["Agios Dimitrios","Aydimitri","Ayios Dhimitrios","Ayios Dimitrios","Άγιος Δημήτριος"],"lon":32.80917,"lat":34.92556,"pop":57},{"id":146732,"name":"Ágios Dométios","alt":["Agios Dometios","Ayios Dhometios","Dimos Agiou Dometiou","Άγιος Δομέτιος","Δήμος Αγίου Δομετίου"],"lon":33.34045,"lat":35.17346,"pop":0},{"id":146726,"name":"Ágios Efstáthios","alt":["Agios Efstathios","Ayastad","Ayevstatios","Ayios Efstathios","Ayios Evstathios","Ayistat","Zeybekkoy","Zeybekköy","Άγιος Ευστάθιος"],"lon":34.01473,"lat":35.38929,"pop":0},{"id":11979262,"name":"Agios Eleftherios","alt":["Άγιος Ελευθέριος"],"lon":33.38621,"lat":35.11236,"pop":0},{"id":146728,"name":"Ágios Epifánios","alt":["Agios Epifanios","Agios Epiphanios","Aybifan","Ayepifani","Ayios Epiphanios","Ayios Epiphanios Soleas","Esendag","Esendağ","Saint Epiphanios","Άγιος Επιφάνιος"],"lon":32.88611,"lat":35.06378,"pop":0},{"id":146729,"name":"Ágios Epifánios","alt":["Agios Epifanios","Aybifan","Ayepifani","Ayios Epiphanios","Ayios Epiphanios Orinis","Saint Epiphanios","Άγιος Επιφάνιος"],"lon":33.11967,"lat":34.99513,"pop":0},{"id":146730,"name":"Ágios Epíktitos","alt":["Agios Epiktitos","Ayepiktitos","Ayios Epiktitos","Aypihtito","Catalkoy","Chatal Keuy","Saint Epiktitos","Çatalköy","Άγιος Επίκτητος"],"lon":33.39034,"lat":35.32071,"pop":0},{"id":146727,"name":"Ágios Ermólaos","alt":["Agios Ermolaos","Avios Ermolaos","Ayios Ermolaos","Ayirmola","Saint Ermilaos","Sirimevler","Sirinevler","Şirinevler","Άγιος Ερμόλαος"],"lon":33.17255,"lat":35.27808,"pop":0},{"id":12110859,"name":"Agios Fanourios","alt":["Άγιος Φανούριος"],"lon":33.59029,"lat":34.94432,"pop":0},{"id":146705,"name":"Ágios Fótios","alt":["Agios Fotios","Ayfodi","Ayfoti","Ayios Fotios","Ayios Photios","Saint Photios","Άγιος Φώτιος"],"lon":32.61262,"lat":34.87392,"pop":0},{"id":11902758,"name":"Agios Georgios","alt":["Άγιος Γεώργιος"],"lon":33.02231,"lat":34.68872,"pop":0},{"id":11951807,"name":"Agios Georgios","alt":["Άγιος Γεώργιος"],"lon":33.93569,"lat":35.09483,"pop":0},{"id":11962213,"name":"Agios Georgios","alt":["Άγιος Γεώργιος"],"lon":33.32413,"lat":35.17441,"pop":0},{"id":11979260,"name":"Agios Georgios","alt":["Άγιος Γεώργιος"],"lon":33.37938,"lat":35.0953,"pop":0},{"id":20194,"name":"Ágios Geórgios","alt":["Agios Georgios","Ayios Yeoryios","Ayyorgi","Karaoglanoglu","Karaoğlanoğlu","Άγιος Γεώργιος"],"lon":33.27531,"lat":35.34225,"pop":0},{"id":146685,"name":"Ágios Geórgios","alt":["Agios Georgios","Argun","Aygun","Aygün","Ayios Yeorgios","Ayios Yeoryios","Ayios Yeoryios Spatharikou","Ayorgi","Ayyorgi","Saint Yeorgios","Áyios Yeórgios","Άγιος Γεώργιος"],"lon":33.86285,"lat":35.25591,"pop":0},{"id":146686,"name":"Ágios Geórgios","alt":["Agion Georgoudi","Agios Georgios","Ayios Yeoryios","Ayios Yeoryios Lefkas","Ayyorgi","Madenlikoy","Madenliköy","Saint Yeorgios","Άγιος Γεώργιος"],"lon":32.88746,"lat":35.10685,"pop":0},{"id":146689,"name":"Ágios Geórgios","alt":["Agios Georgios","Agios Georgios (Sylikou)","Agios Georgios Ankathiotis","Ay Yorgi","Ayios Yeoryios","Άγιος Γεώργιος","Άγιος Γεώργιος (Συλίκου)","Άγιος Γεώργιος Αγκαθιώτης"],"lon":32.89861,"lat":34.815,"pop":0},{"id":146690,"name":"Ágios Geórgios","alt":["Agios Georgios","Ayios Yeoryios","Ayorgi","Ayyorgi","Kavakli","Kavaklı","Άγιος Γεώργιος"],"lon":32.65218,"lat":34.77866,"pop":0},{"id":146687,"name":"Ágios Geórgios Kafkállou","alt":["Agios Georgios Kafkallou","Agios Georgios tou Kafkallou","Ayios Yeoryios","Ayios Yeoryios Kafkalou","Ayyorgi","Ayyorgi Kefkalu","Kafkallou","Kafkalou","Kafkalu","Άγιος Γεώργιος Καυκάλλου"],"lon":33.01298,"lat":35.03754,"pop":0},{"id":146725,"name":"Ágios Iákovos","alt":["Agios Iakovos","Ainakofo","Altinova","Altınova","Ayios Iakovos","Aynakofo","Kopuzlu","Saint Igkovos","Άγιος Ιάκωβος"],"lon":33.81509,"lat":35.32704,"pop":0},{"id":146731,"name":"Ágios IIías","alt":["Agios IIias","Agios Ilias","Ay Ilia","Ayilia","Ayilya","Ayios Elias","Beykoy","Beyköy","Saint Elias","Yarkoy","Yarköy","Άγιος Ηλίας"],"lon":33.92823,"lat":35.32884,"pop":0},{"id":11888208,"name":"Agios Ioannis","alt":["Άγιος Ιωάννης"],"lon":33.02591,"lat":34.67429,"pop":0},{"id":11952696,"name":"Agios Ioannis","alt":["Άγιος Ιωάννης"],"lon":33.94764,"lat":35.11894,"pop":0},{"id":11983553,"name":"Agios Ioannis","alt":["Άγιος Ιωάννης"],"lon":33.36908,"lat":35.17315,"pop":0},{"id":146722,"name":"Ágios Ioánnis","alt":["Agios Ioannis","Ayios Ioannis","Ayios Ioannis Maloundas","Ayyanni","Saint Ioannis","Άγιος Ιωάννης"],"lon":33.18396,"lat":35.06531,"pop":0},{"id":146723,"name":"Ágios Ioánnis","alt":["Agios Ioannis","Aydin","Aydın","Ayios Ioannis","Ayyanni","Άγιος Ιωάννης"],"lon":33.02206,"lat":34.89575,"pop":0},{"id":146724,"name":"Ágios Ioánnis","alt":["Agios Ioannis","Ayanni","Aydin","Aydın","Ayios Ioannis","Ayyanni","Άγιος Ιωάννης"],"lon":32.6912,"lat":34.86953,"pop":0},{"id":146089,"name":"Ágios Ioánnis Selémani","alt":["Agios Ioannis","Agios Ioannis Selemani","Ayios Ioannis","Ayyanni","Selemani","Suleymaniye","Süleymaniye","Άγιος Ιωάννης Σελέμανη"],"lon":32.70723,"lat":35.14917,"pop":0},{"id":146721,"name":"Ágios Isídoros","alt":["Agios Isidoros","Ayios Isidhoros","Aysederos","Aysidero","Demirci","Άγιος Ισίδωρος"],"lon":32.4714,"lat":35.00521,"pop":10},{"id":11983554,"name":"Agios Kassianos","alt":["Άγιος Κασσιανός"],"lon":33.36881,"lat":35.17757,"pop":0},{"id":146719,"name":"Ágios Konstantínos","alt":["Agios Konstantinos","Ay Kostantino","Ayios Konstantinos","Aykonstandino","Saint Konstantinos","Άγιος Κωνσταντίνος"],"lon":33.0665,"lat":34.86705,"pop":169},{"id":11952698,"name":"Agios Loukas","alt":["Άγιος Λουκάς"],"lon":33.91663,"lat":35.12109,"pop":0},{"id":11952716,"name":"Agios Loukas","alt":["Άγιος Λουκάς"],"lon":33.16875,"lat":35.33263,"pop":0},{"id":11978880,"name":"Agios Mamas","alt":["Άγιος Μάμας"],"lon":33.31843,"lat":35.12861,"pop":0},{"id":146717,"name":"Ágios Mámas","alt":["Agios Mamas","Ayios Mamas","Aymama","Saint Mamos","Άγιος Μάμας"],"lon":32.94886,"lat":34.85117,"pop":110},{"id":146716,"name":"Agios Memnon","alt":["Ayios Memnon","Άγιος Μέμνων"],"lon":33.96667,"lat":35.08688,"pop":0},{"id":11952715,"name":"Agios Minas","alt":["Άγιος Μηνάς"],"lon":33.18444,"lat":35.33882,"pop":0},{"id":11902773,"name":"Agios Nektarios","alt":["Άγιος Νεκτάριος"],"lon":33.04567,"lat":34.68978,"pop":0},{"id":11902875,"name":"Agios Nikolaos","alt":["Άγιος Νικόλαος"],"lon":33.0577,"lat":34.69335,"pop":0},{"id":11952697,"name":"Agios Nikolaos","alt":["Άγιος Νικόλαος"],"lon":33.95288,"lat":35.11325,"pop":0},{"id":11978879,"name":"Agios Nikolaos","alt":["Άγιος Νικόλαος"],"lon":33.30703,"lat":35.10133,"pop":0},{"id":12110858,"name":"Agios Nikolaos","alt":["Άγιος Νικόλαος"],"lon":33.61071,"lat":34.9127,"pop":0},{"id":19889,"name":"Ágios Nikólaos","alt":["Agios Nikolaos","Ayios Nikolaos","Aynikola","Kuecuek Erenkoey","Kuecuekerenkoey","Küçük Erenköy","Küçükerenköy","Άγιος Νικόλαος"],"lon":33.70574,"lat":35.37511,"pop":0},{"id":146708,"name":"Ágios Nikólaos","alt":["Agios Nikolaos","Ayios Nikolaos","Aynikola","Saint Nikolaos","Yamackoy","Yamaçköy","Άγιος Νικόλαος"],"lon":33.67797,"lat":35.32885,"pop":0},{"id":146710,"name":"Ágios Nikólaos","alt":["Agios Nikolaos","Ayios Nikolaos","Ayios Nikolaos Lefkas","Aynikola","Madenkoy","Madenköy","Saint Nicholaos","Yamac","Άγιος Νικόλαος"],"lon":32.8803,"lat":35.10238,"pop":0},{"id":146712,"name":"Ágios Nikólaos","alt":["Agios Nikolaos","Ayios Nikolaos","Aynikola","Esentepe","Άγιος Νικόλαος"],"lon":32.75355,"lat":34.86201,"pop":0},{"id":11962214,"name":"Agios Pavlos","alt":["Άγιος Παύλος"],"lon":33.32175,"lat":35.18845,"pop":0},{"id":146707,"name":"Ágios Pávlos","alt":["Agios Pavlos","Ay Pavlo","Ayios Pavlos","Άγιος Παύλος"],"lon":33.04597,"lat":34.86387,"pop":157},{"id":11983555,"name":"Agios Savvas","alt":["Άγιος Σάββας"],"lon":33.36417,"lat":35.17096,"pop":0},{"id":146703,"name":"Ágios Sérgios","alt":["Agios Sergios","Ayasergi","Ayios Sergios","Ayios Seryios","Ayios Seryos","Aysergi","Saint Sergios","Yenibogazici","Yenibosazici","Yeniboğaziçi","Áyios Sergios","Άγιος Σέργιος"],"lon":33.87416,"lat":35.19639,"pop":0},{"id":146702,"name":"Ágios Sozómenos","alt":["Agios Sozomenos","Arpalik","Arpalık","Ayios Sozomenos","Aysezomeno","Aysozomeno","Saint Sozomenos","Άγιος Σωζόμενος"],"lon":33.4385,"lat":35.06566,"pop":4},{"id":146701,"name":"Ágios Symeón","alt":["Agios Symeon","Avtepe","Ayios Symeon","Aysimyo","Saint Symeon","Άγιος Συμεών"],"lon":34.21853,"lat":35.49095,"pop":0},{"id":146692,"name":"Ágios Týchon","alt":["Agios Tychon","Ayandihona","Ayios Tihonos","Ayios Tykhonas","Ayithona","Άγιος Τύχων"],"lon":33.13872,"lat":34.72606,"pop":2204},{"id":11952713,"name":"Agios Theodoros","alt":["Άγιος Θεόδωρος"],"lon":33.15375,"lat":35.34734,"pop":0},{"id":146696,"name":"Ágios Theódoros","alt":["Agios Theodoros","Ayios Teodoros","Ayios Theodhoros","Ayios Theodoros","Aytotoro","Aytotro","Bozdag","Bozdağ","Cayirova","Otluk","Saint Theodoros","Çayırova","Άγιος Θεόδωρος"],"lon":34.02877,"lat":35.36603,"pop":0},{"id":146697,"name":"Ágios Theódoros","alt":["Agios Theodoros","Ayios Theodhoros","Ayios Theodhoros Tillirias","Ayios Theodoros","Aytotoro","Aytotro","Saint Theodoros","Taslidere","Taşlidere","Áyios Theódoros","Άγιος Θεόδωρος"],"lon":32.64174,"lat":35.17629,"pop":0},{"id":146698,"name":"Ágios Theódoros","alt":["Agios Theodoros","Ayios Theodhoros","Ayios Theodhoros Soleas","Aytotro","Άγιος Θεόδωρος"],"lon":32.92785,"lat":35.04226,"pop":0},{"id":146699,"name":"Ágios Theódoros","alt":["Agios Theodoros","Ayios Theodhoros","Ayios Theodoros","Bogazici","Boğaziçi","Άγιος Θεόδωρος"],"lon":33.0325,"lat":34.89389,"pop":0},{"id":146700,"name":"Ágios Theódoros","alt":["Agios Theodoros","Agios Theodoros  Larnaca","Ayios Teodoros","Ayios Theodhoros","Ayios Theodoros","Aytotoro","Bogazici","Boğaziçi","Saint Theodoros","Áyios Theódoros","Άγιος Θεόδωρος"],"lon":33.38475,"lat":34.79995,"pop":0},{"id":146695,"name":"Ágios Therápon","alt":["Agios Therapon","Ayios Therapon","Ayterap","Ayterapon","Saint Therapon","Άγιος Θεράπων"],"lon":32.83975,"lat":34.79763,"pop":159},{"id":146694,"name":"Ágios Thomás","alt":["Agios Thomas","Ayios Thomas","Aytuma","Mersinli","Yaliktas","Yalıktaş","Άγιος Θωμάς"],"lon":32.72546,"lat":34.71618,"pop":30},{"id":11979291,"name":"Agios Vasileios","alt":["Άγιος Βασίλειος"],"lon":33.33327,"lat":35.1289,"pop":0},{"id":146856,"name":"Agírda","alt":["Aghirda","Agirda","Agirdag","Agirta","Agridhi","Ağirda","Ağırdağ","Αγίρδα"],"lon":33.26805,"lat":35.29742,"pop":0},{"id":146619,"name":"Aglantziá","alt":["Aglantzia","Αγλαντζιά"],"lon":33.39643,"lat":35.15422,"pop":0},{"id":146855,"name":"Agridáki","alt":["Agirdaki","Agridagi","Agridaki","Agridhaki","Agrıdağı","Alemdag","Alemdağ","Ağirdaki","Ağridaki","Αγριδάκι"],"lon":33.15106,"lat":35.30722,"pop":0},{"id":146854,"name":"Agrídia","alt":["Agridhia","Agridia","Agridya","Agritya","Ağridya","Ağritya","Αγρίδια"],"lon":32.99473,"lat":34.92828,"pop":126},{"id":146853,"name":"Agrokipiá","alt":["Agrocipya","Agrokipia","Ağrocipya","Αγροκηπιά"],"lon":33.15788,"lat":35.0436,"pop":450},{"id":146852,"name":"Agroládou","alt":["Agraladu","Agroladhou","Agroladou","Agroladu","Ağraladu","Ağroladu","Αγρολάδου"],"lon":32.89699,"lat":35.04859,"pop":0},{"id":146851,"name":"Agrós","alt":["Agro","Agros","Ağro","Αγρός"],"lon":33.01811,"lat":34.91784,"pop":874},{"id":146813,"name":"Angastína","alt":["Angastina","Arslankoy","Arslanköy","Aslankoy","Aslanköy","Αγγαστίνα"],"lon":33.58779,"lat":35.2033,"pop":0},{"id":146812,"name":"Anglisídes","alt":["Agkleisides","Aglisides","Aksu","Anglisides","Anglisidhes","Anglisiya","Anklisides","Αγγλισίδες"],"lon":33.45635,"lat":34.85495,"pop":0},{"id":146811,"name":"Angolémi","alt":["Angolaemi","Angolem","Angolemi","Angoloemi","Angolæmi","Angolœmi","Taspinar","Taşpınar","Αγγολέμι"],"lon":32.94835,"lat":35.1181,"pop":0},{"id":145955,"name":"Aigialoúsa","alt":["Aigialousa","Gialousa","Maltepe","Yalousa","Yalusa","Yenierenkoy","Yenierenköy","Yialousa","Yialoussa","Αιγιαλούσα"],"lon":34.18944,"lat":35.53513,"pop":0},{"id":146850,"name":"Akáki","alt":["Akaca","Akacha","Akaki","Akácha","Ακάκι"],"lon":33.12873,"lat":35.13341,"pop":2769},{"id":146846,"name":"Akanthoú","alt":["Akanthou","Akatu","Tatlisu","Tatlısu","Ακανθού"],"lon":33.75302,"lat":35.37394,"pop":0},{"id":146845,"name":"Akapnoú","alt":["Akapnou","Akapnu","Ακαπνού"],"lon":33.1865,"lat":34.83884,"pop":27},{"id":146840,"name":"Akoursós","alt":["Akarsu","Akourso","Akoursos","Akurso","Ακουρσός"],"lon":32.4215,"lat":34.8868,"pop":157},{"id":11951812,"name":"Akropolis","alt":["Ακρόπολις"],"lon":33.949,"lat":35.09947,"pop":0},{"id":146835,"name":"Akroúnta","alt":["Akrounda","Akrounta","Akrunda","Akrunta","Ακρούντα"],"lon":33.08162,"lat":34.7652,"pop":360},{"id":20017,"name":"Alakati","lon":33.5,"lat":35.33333,"pop":0},{"id":146833,"name":"Alaminós","alt":["Alamino","Alaminos","Alaminya","Alaminyo","Αλαμινός"],"lon":33.43475,"lat":34.8073,"pop":292},{"id":146834,"name":"Alámpra","alt":["Alambra","Alampra","Αλάμπρα"],"lon":33.39887,"lat":34.98898,"pop":1192},{"id":146501,"name":"Álassa","alt":["Alasa","Alassa","Halasa","Halassa","Kalassa","Khalassa","Άλασσα"],"lon":32.92689,"lat":34.76309,"pop":210},{"id":146832,"name":"Aléktora","alt":["Alehtora","Alekhtora","Alektora","Gokagac","Gökağaç","Αλέκτορα"],"lon":32.68347,"lat":34.70934,"pop":80},{"id":146831,"name":"Alethrikó","alt":["Alethriko","Alethrikon","Aletirke","Aletrike","Aletriko","Αλεθρικό"],"lon":33.4943,"lat":34.86099,"pop":827},{"id":146830,"name":"Alévga","alt":["Alevga","Alevka","Alevkaya","Αλεύγα"],"lon":32.60633,"lat":35.15436,"pop":0},{"id":146828,"name":"Alithinoú","alt":["Alithinou","Alitinu","Αληθινού"],"lon":33.03308,"lat":34.94608,"pop":9},{"id":146827,"name":"Alóda","alt":["Aloa","Aloda","Alodha","Altilar","Atlilar","Atlılar","Αλόδα"],"lon":33.82661,"lat":35.21068,"pop":0},{"id":146826,"name":"Álona","alt":["Alona","Άλωνα"],"lon":33.04026,"lat":34.93369,"pop":134},{"id":146823,"name":"Amargéti","alt":["Amarget","Amargeti","Amargheti","Amargot","Amarketi","Αμαργέτη"],"lon":32.58385,"lat":34.82428,"pop":209},{"id":146824,"name":"Ammadiés","alt":["Amadhaes","Amadhiaes","Amadhies","Amadhiæs","Amadyez","Ammadhies","Ammadies","Gunebakan","Gunecakar","Günebakan","Günecakar","Αμμαδιές"],"lon":32.7165,"lat":35.1568,"pop":0},{"id":146821,"name":"Ampelikoú","alt":["Ambelikou","Ambeliku","Ampelikou","Baglikoy","Bağlıköy","Αμπελικού"],"lon":32.80396,"lat":35.1203,"pop":0},{"id":146820,"name":"Anadioú","alt":["Anadhiou","Anadhiu","Anadiou","Anadyu","Anatyu","Gormeli","Görmeli","Αναδιού"],"lon":32.5662,"lat":34.94436,"pop":17},{"id":146818,"name":"Anafotída","alt":["Akkor","Anafodiya","Anafotia","Anafotida","Anaphotia","Αναφωτίδα"],"lon":33.46357,"lat":34.82435,"pop":683},{"id":146815,"name":"Anágeia","alt":["Anageia","Anagyia","Anaya","Anayia","Ανάγεια"],"lon":33.25427,"lat":35.07557,"pop":0},{"id":146819,"name":"Analióntas","alt":["Analionda","Analiondas","Analiontas","Analjondas","Analyonda","Αναλιόντας"],"lon":33.28998,"lat":35.00673,"pop":313},{"id":146817,"name":"Anaríta","alt":["Anarida","Anarita","Anaryta","Αναρίτα"],"lon":32.53375,"lat":34.74057,"pop":876},{"id":146816,"name":"Anavargos","alt":["Anavargo","Αναβαργός"],"lon":32.4507,"lat":34.79571,"pop":0},{"id":146814,"name":"Androlíkou","alt":["Androhkou","Androlikon","Androlikou","Androlykou","Antroliku","Gundogdu","Gündoğdu","Ανδρολίκου"],"lon":32.38174,"lat":34.99862,"pop":0},{"id":146810,"name":"Anógyra","alt":["Anogyra","Anoyira","Anoyra","Taslica","Taşlica","Ανώγυρα"],"lon":32.73453,"lat":34.73969,"pop":255},{"id":10178208,"name":"Anthopolis","alt":["Anthoupolis"],"lon":33.28911,"lat":35.10473,"pop":0},{"id":11903078,"name":"Anthoupolis","alt":["Ανθούπολις"],"lon":32.98593,"lat":34.68543,"pop":0},{"id":146808,"name":"Apesiá","alt":["Abesa","Abeşa","Abosha","Apaisia","Apesa","Apesha","Apesia","Apeşa","Apoesia","Apœsia","Απεσιά"],"lon":32.97756,"lat":34.78939,"pop":342},{"id":146804,"name":"Aplánta","alt":["Aplanda","Aplanda Chiftlik","Aplanta","Aplánda Chiftlík","Απλάντα"],"lon":33.4755,"lat":34.82963,"pop":0},{"id":146802,"name":"Aplíki","alt":["Aliclar","Aliçlar","Aplic","Apliki","Apliç","Aplıç","Απλίκι"],"lon":32.84907,"lat":35.10041,"pop":0},{"id":146803,"name":"Aplíki","alt":["Alicler","Alıçler","Apliki","Απλίκι"],"lon":33.11748,"lat":34.93064,"pop":83},{"id":11903079,"name":"Apostle Barnabas","alt":["Apostolos Varnavas","Απόστολος Βαρνάβας"],"lon":33.00397,"lat":34.68088,"pop":0},{"id":11902770,"name":"Apostoloi Petros kai Pavlos","alt":["Απόστολοι Πέτρος και Παύλος"],"lon":33.02816,"lat":34.69446,"pop":0},{"id":11902757,"name":"Apostolos Andreas","alt":["Απόστολος Ανδρέας"],"lon":33.02031,"lat":34.68035,"pop":0},{"id":12110860,"name":"Apostolos Loukas","alt":["Απόστολος Λουκάς"],"lon":33.59269,"lat":34.95374,"pop":0},{"id":11979293,"name":"Apostolos Varnavas kai Agios Makarios","alt":["Απόστολος Βαρνάβας και Άγιος Μακάριος"],"lon":33.36435,"lat":35.13953,"pop":0},{"id":146798,"name":"Apsioú","alt":["Apsiou","Apsiu","Apsou","Apsu","Apşu","Kato Aspiou","Pano Aspiou","Αψιού"],"lon":33.01675,"lat":34.79728,"pop":198},{"id":146796,"name":"Aradíppou","alt":["Aradhippou","Aradip","Aradippou","Aradippu","Αραδίππου"],"lon":33.58813,"lat":34.94779,"pop":13349},{"id":146795,"name":"Arakapás","alt":["Arakaba","Arakapa","Arakapas","Αρακαπάς"],"lon":33.11212,"lat":34.84379,"pop":304},{"id":11903080,"name":"Archangel Michael","alt":["Archangelos Michail","Αρχάγγελος Μιχαήλ"],"lon":32.99347,"lat":34.67732,"pop":0},{"id":11978881,"name":"Archangelos - Anthoupoli","alt":["Archangelos-Anthoupoli","Αρχάγγελος-Ανθούπολη"],"lon":33.28901,"lat":35.13129,"pop":0},{"id":11979264,"name":"Archangelos Michail","alt":["Αρχάγγελος Μιχαήλ"],"lon":33.39055,"lat":35.10367,"pop":0},{"id":12110861,"name":"Archiepiskopos Makarios III","alt":["Αρχιεπίσκοπος Μακάριος ΙΙΙ"],"lon":33.59393,"lat":34.90644,"pop":0},{"id":146794,"name":"Árdana","alt":["Ardahan","Ardana","Ardhana","Άρδανα"],"lon":33.88593,"lat":35.35664,"pop":0},{"id":146797,"name":"Aredioú","alt":["Aradhiou","Aradiou","Aradyu","Aratyu","Aredhiou","Arediou","Arediu","Aredyu","Αρεδιού"],"lon":33.1961,"lat":35.04844,"pop":1129},{"id":146793,"name":"Argáka","alt":["Argaca","Argaka","Arkaka","Αργάκα"],"lon":32.49226,"lat":35.06586,"pop":1078},{"id":146792,"name":"Argáki","alt":["Akcay","Akçay","Argaci","Argaki","Arkaca","Αργάκι"],"lon":33.03515,"lat":35.17988,"pop":0},{"id":146788,"name":"Armenokhori","alt":["Armenehor","Armenochori","Armenohor","Armenohori","Bulgurlu","Esenkoy","Esenköy"],"lon":33.12917,"lat":34.74583,"pop":174},{"id":146787,"name":"Armínou","alt":["Arminou","Arminu","Αρμίνου"],"lon":32.71987,"lat":34.86229,"pop":27},{"id":146786,"name":"Ármou","alt":["Armou","Armu","Άρμου"],"lon":32.47851,"lat":34.79939,"pop":357},{"id":146785,"name":"Arnadí","alt":["Arnadhi","Arnadi","Arnathi","Arnayi","Kuzucuk","Αρναδί"],"lon":33.86048,"lat":35.23663,"pop":0},{"id":11902925,"name":"Arnaoutogeitonia","alt":["Αρναουτογειτονιά"],"lon":33.03387,"lat":34.6743,"pop":0},{"id":12110850,"name":"Arsos","alt":["Άρσος"],"lon":33.62813,"lat":35.09007,"pop":0},{"id":146783,"name":"Ársos","alt":["Arcoz","Arsos","Arçoz","Yigitler","Άρσος"],"lon":32.76938,"lat":34.84123,"pop":0},{"id":146781,"name":"Artémi","alt":["Aridami","Artemi","Artimi","Arıdamı","Αρτέμι"],"lon":33.71054,"lat":35.32056,"pop":0},{"id":146780,"name":"Asgáta","alt":["Asgata","Azgata","Ασγάτα"],"lon":33.25531,"lat":34.77931,"pop":406},{"id":146778,"name":"Asínou","alt":["Asinou","Asinu","Ασίνου"],"lon":32.97233,"lat":35.04416,"pop":0},{"id":146776,"name":"Askás","alt":["Aska","Askas","Ασκάς"],"lon":33.07778,"lat":34.92966,"pop":195},{"id":146779,"name":"Áskeia","alt":["Asa","Asha","Askeia","Assa","Aşa","Aşşa","Pasakoy","Pasha Keuy","Paşaköy","Rasa Koy","Άσκεια"],"lon":33.60926,"lat":35.15404,"pop":0},{"id":146774,"name":"Asómatos","alt":["Asomados","Asomato","Asomatos","Ozhan","Özhan","Ασώματος"],"lon":33.10755,"lat":35.27549,"pop":0},{"id":146775,"name":"Asómatos","alt":["Asomados","Asomalos","Asomato","Asomatos","Gozuguzel","Gözügüzel","Ασώματος"],"lon":32.95963,"lat":34.63774,"pop":403},{"id":146771,"name":"Asprogiá","alt":["Aktepe","Asprogia","Asproya","Asproyia","Ασπρογιά"],"lon":32.61468,"lat":34.92228,"pop":55},{"id":146770,"name":"Astromerítis","alt":["Astromerit","Astromeriti","Astromeritia","Astromeritis","Αστρομερίτης"],"lon":33.03793,"lat":35.14096,"pop":2463},{"id":146768,"name":"Athíenou","alt":["Athiaenou","Athienou","Athiænou","Atienu","Atiyenu","Kiracikoy","Kiracıköy","Αθίενου","Αθηένου"],"lon":33.54166,"lat":35.06183,"pop":4444},{"id":146766,"name":"Athrakós","alt":["Adrakos","Athrakos","Atrako","Atrakos","Αθρακός"],"lon":33.04908,"lat":34.85141,"pop":0},{"id":146764,"name":"Avdelleró","alt":["Avdeler","Avdelero","Avdeleró","Avdellero","Avdhellero","Avdhelleron","Αβδελλερό"],"lon":33.57053,"lat":35.00796,"pop":136},{"id":146627,"name":"Avdímou","alt":["Avdimou","Duzkaya","Düzkaya","Evdhimou","Evdhimu","Evdim","Αυδήμου"],"lon":32.76263,"lat":34.69406,"pop":641},{"id":146763,"name":"Avgolída","alt":["Avgalida","Avgalidha","Avgolida","Avgolidha","Kurtulug","Kurtulus","Kurtuluş","Αυγολίδα"],"lon":33.96267,"lat":35.3548,"pop":0},{"id":146761,"name":"Avgórou","alt":["Avghorou","Avgora","Avgoro","Avgorou","Avgoru","Αυγόρου"],"lon":33.83918,"lat":35.03615,"pop":4177},{"id":146760,"name":"Avlóna","alt":["Avlona","Gayretkoy","Gayretköy","Αυλώνα"],"lon":33.10689,"lat":35.1613,"pop":0},{"id":146759,"name":"Axýlou","alt":["Aksilou","Aksilu","Aksu","Aksulu","Axylou","Αξύλου"],"lon":32.56436,"lat":34.80634,"pop":61},{"id":414298,"name":"Ayia","alt":["Dilekkaya"],"lon":34.15,"lat":35.44167,"pop":0},{"id":11995135,"name":"Ayia Marina Kelokedharon","alt":["Agia Marina Kelokedaron","Αγία Μαρίνα Κελοκεδάρων"],"lon":32.61437,"lat":34.82871,"pop":0},{"id":146748,"name":"Ayia Napa","alt":["Agia Napa","Agija Napa","Agía Nápa","Aja-Napa","Ajia Napa","Ajja-Napa","Aya Napa","Aynapa","Aĝia Napa","QNP","a yi na pa","aya napa","ayya napa","Αγία Νάπα","Агия Напа","Айя-Напа","Ая-Напа","Այիա Նապա","איה נאפה","آئیا ناپا","ایا ناپا","აია-ნაპა","阿依納帕"],"lon":34.00183,"lat":34.98213,"pop":2798},{"id":6692485,"name":"Ayia Thekla","lon":33.90844,"lat":34.97572,"pop":0},{"id":11983549,"name":"Ayioi Omoloyites","alt":["Agioi Omologites","Άγιοι Ομολογητές"],"lon":33.35801,"lat":35.15919,"pop":0},{"id":11983552,"name":"Ayios Antonios","alt":["Agios Antonios","Άγιος Αντώνιος"],"lon":33.37053,"lat":35.16506,"pop":0},{"id":11903068,"name":"Ayios Athanasios (quarter)","alt":["Agios Athanasios","Ayios Athanasios","Άγιος Αθανάσιος"],"lon":33.05675,"lat":34.7129,"pop":0},{"id":11903069,"name":"Ayios Georgios Fragkoudi","alt":["Agios Georgios Frankoudi","Άγιος Γεώργιος Φραγκούδη"],"lon":33.07194,"lat":34.69358,"pop":0},{"id":16599,"name":"Ayios Ioannis","alt":["Agios Ioannis","Ágios Ioánnis","Άγιος Ιωάννης"],"lon":32.76667,"lat":35.1375,"pop":0},{"id":12110833,"name":"Ayios Pavlos","alt":["Agios Pavlos","Άγιος Παύλος"],"lon":32.43147,"lat":34.78725,"pop":0},{"id":11903070,"name":"Ayios Stylianos","alt":["Agios Stylianos","Άγιος Στυλιανός"],"lon":33.06746,"lat":34.70221,"pop":0},{"id":12110830,"name":"Ayios Theodoros","alt":["Agios Theodoros","Άγιος Θεόδωρος"],"lon":32.42932,"lat":34.77329,"pop":0},{"id":146691,"name":"Ayios Vasilios","alt":["Agios Vasileios","Ayvasil","Ayvasıl","Saint Vasilios","Tuerkeli","Türkeli"],"lon":33.18377,"lat":35.21842,"pop":0},{"id":414479,"name":"Baykal","lon":33.92917,"lat":35.12083,"pop":0},{"id":146679,"name":"Béïkioï","alt":["Beikioi","Beikioï","Bey Keuy","Beykoy","Beyköy","Μπέϊκιοϊ"],"lon":33.50198,"lat":35.23685,"pop":0},{"id":146680,"name":"Bélapaïs","alt":["Balabayis","Belapais","Bellabayis","Bellapais","Bellapaise","Beylerbeyi","Μπέλαπαϊς"],"lon":33.35556,"lat":35.30583,"pop":0},{"id":146677,"name":"Bogázi","alt":["Bogaz","Bogaz Trading Station","Bogazi","Boghaz","Boğaz","Μπογάζι"],"lon":33.95254,"lat":35.31364,"pop":0},{"id":414422,"name":"Çağlayan","lon":33.37083,"lat":35.18333,"pop":0},{"id":414481,"name":"Canbulat","lon":33.9375,"lat":35.1125,"pop":0},{"id":414549,"name":"Cedar Valley","alt":["Koilas ton Kedron","Koilás tón Kédron","Sedirler Vadisi"],"lon":32.68333,"lat":34.98333,"pop":0},{"id":146590,"name":"Chalévga","alt":["Alevkaya","Chalevga","Halevga","Χαλεύγα"],"lon":33.53363,"lat":35.28538,"pop":0},{"id":11903075,"name":"Chalkoutsa","alt":["Χαλκούτσα"],"lon":33.05479,"lat":34.69738,"pop":0},{"id":146500,"name":"Challéri","alt":["Challeri","Halleri","Kaleri","Khalari","Khaleri","Χαλλέρι"],"lon":32.66119,"lat":35.16988,"pop":0},{"id":146498,"name":"Chandriá","alt":["Chandria","Handri","Handriya","Kandriya","Khandria","Χανδριά"],"lon":32.99387,"lat":34.94389,"pop":214},{"id":146495,"name":"Chárkeia","alt":["Charkeia","Harca","Harcha","Harça","Karaagac","Karaağaç","Kharcha","Khartja","Χάρκεια"],"lon":33.5566,"lat":35.31874,"pop":0},{"id":19887,"name":"Cheromylos","alt":["Karaoglanoglu","Karaoğlanoğlu","Sheromylos"],"lon":33.70832,"lat":35.37213,"pop":0},{"id":146490,"name":"Chlórakas","alt":["Chloraka","Chlorakas","Hiloraka","Hloraka","Khlorakas","Klorakas","Χλώρακας"],"lon":32.40653,"lat":34.79836,"pop":3619},{"id":146491,"name":"Choirokoitía","alt":["Choirokoitia","Hirokitiya","Khirokitia","Sirokitkya","Skoritya","Şirokitkya","Χοιροκοιτία"],"lon":33.33519,"lat":34.79747,"pop":531},{"id":146489,"name":"Choletria","alt":["Holetria","Kholetria","Χολέτρια"],"lon":32.5988,"lat":34.76323,"pop":252},{"id":16617,"name":"Cholétria","alt":["Choletria","New Site of Kholetria","Χολέτρια"],"lon":32.59905,"lat":34.7635,"pop":0},{"id":146488,"name":"Chóli","alt":["Choli","Holi","Kholi","Χόλη"],"lon":32.44329,"lat":34.97978,"pop":0},{"id":146485,"name":"Choúlou","alt":["Choulou","Hulu","Khoulou","Χούλου"],"lon":32.55822,"lat":34.87257,"pop":147},{"id":11983643,"name":"Chrysaliniotissa","alt":["Χρυσαλινιώτισσα"],"lon":33.37041,"lat":35.17695,"pop":0},{"id":11979323,"name":"Chryseleousa","alt":["Χρυσελεούσα"],"lon":33.33457,"lat":35.14941,"pop":0},{"id":11951810,"name":"Chrysi Akti","alt":["Χρυσή Ακτή"],"lon":33.96039,"lat":35.10355,"pop":0},{"id":146484,"name":"Chrysída","alt":["Bahcelivler","Bahçelivler","Beykoy","Beyköy","Chrysida","Hirisida","Hrisidha","Khrysida","Khrysidha","Krisida","Χρυσίδα"],"lon":33.48398,"lat":35.239,"pop":0},{"id":146483,"name":"Chrysilioú","alt":["Chrysiiou","Chrysiliou","Hirilliya","Hirisilla","Hrisilyu","Khrysiliou","Yuvacik","Yuvacık","Χρυσηλιού"],"lon":33.02177,"lat":35.21216,"pop":0},{"id":146482,"name":"Chrysochou","alt":["Χρυσοχού"],"lon":32.43977,"lat":35.00384,"pop":132},{"id":12110867,"name":"Chrysopolitissa","alt":["Χρυσοπολίτισσα"],"lon":33.63711,"lat":34.92966,"pop":0},{"id":11951813,"name":"Chrysospiliotissa","alt":["Χρυσοσπηλιώτισσα"],"lon":33.92848,"lat":35.10762,"pop":0},{"id":146666,"name":"Dáli","alt":["Dali","Dalı","Dhali","Idalion","Δάλι"],"lon":33.42195,"lat":35.02294,"pop":6085},{"id":146665,"name":"Davlós","alt":["Davlos","Dhavlos","Kaplica","Kaplıca","Δαυλός"],"lon":33.90521,"lat":35.42154,"pop":0},{"id":146668,"name":"Delíkipos","alt":["Delicipo","Delikipo","Delikipos","Dilicibo","Δελίκηπος"],"lon":33.36179,"lat":34.91773,"pop":0},{"id":146662,"name":"Déneia","alt":["Deneia","Denya","Dhenia","Δένεια"],"lon":33.14599,"lat":35.16675,"pop":317},{"id":146661,"name":"Derýneia","alt":["Derinia","Derinkoy","Derinköy","Derinya","Deryneia","Derynia","Dherinia","Yukari Derinya","Yukarı Derinya","Δερύνεια"],"lon":33.96083,"lat":35.06484,"pop":5161},{"id":12196125,"name":"Dhekelia","lon":33.73379,"lat":34.98431,"pop":0},{"id":146654,"name":"Dhromolaxia","alt":["Dromolaksia","Dromolaxia","Mor Menekshe","Mormenekse","Mormenekşe","Δρομολαξιά"],"lon":33.58684,"lat":34.87551,"pop":5240},{"id":146653,"name":"Dhrousha","alt":["Drousia","Δρούσια"],"lon":32.39765,"lat":34.96111,"pop":403},{"id":146652,"name":"Dhrymou","alt":["Drymou","Δρύμου"],"lon":32.51344,"lat":34.92545,"pop":110},{"id":146659,"name":"Dieróna","alt":["Dhierona","Dierona","Diyerona","Διερώνα"],"lon":33.11109,"lat":34.8299,"pop":279},{"id":146658,"name":"Diórios","alt":["Dhiorios","Diorios","Diyoriyos","Tepebasi","Tepebaşı","Yorgoz","Διόριος"],"lon":33.05477,"lat":35.30575,"pop":0},{"id":146657,"name":"Dorá","alt":["Dhor","Dhora","Dora","Δωρά"],"lon":32.73825,"lat":34.78072,"pop":192},{"id":146656,"name":"Dorós","alt":["Dhoros","Doros","Δωρός"],"lon":32.90894,"lat":34.81533,"pop":104},{"id":146648,"name":"Drápeia","alt":["Dhrapia","Drabiya","Drapeia","Drapia","Drapya","Δράπεια"],"lon":33.27961,"lat":34.80231,"pop":0},{"id":146655,"name":"Drinia","alt":["Drynia","Δρυνιά"],"lon":32.52948,"lat":34.91569,"pop":0},{"id":11933617,"name":"Dromolaxia-Meneou Municipality","alt":["Dimos Dromolaxias-Meneou","Dromolaxia–Meneou Municipality","Δήμος Δρομολαξιάς-Μενεού"],"lon":33.59089,"lat":34.86541,"pop":0},{"id":414478,"name":"Dumlupınar","lon":33.93333,"lat":35.125,"pop":0},{"id":146651,"name":"Dýmes","alt":["Dhymaes","Dhymes","Dhymoes","Dhymæs","Dhymœs","Dime","Dimes","Dymes","Δύμες"],"lon":32.98392,"lat":34.91747,"pop":171},{"id":146650,"name":"Dýo Potamoí","alt":["Dhyo Potami","Diyobodamo","Diyopotamo","Dyo Potamoi","Ikedere","İkedere","Δύο Ποταμοί"],"lon":33.09583,"lat":35.24583,"pop":0},{"id":146637,"name":"Égkomi","alt":["Egkomi","Engomi","Enkomi","Enkómi","Incirli","İncirli","Έγκωμη"],"lon":33.34013,"lat":35.16322,"pop":0},{"id":146638,"name":"Égkomi","alt":["Alasia","Egkomi","Engomi","Enkomi","Tuzla","Έγκωμη"],"lon":33.88322,"lat":35.16272,"pop":0},{"id":146642,"name":"Eledio","alt":["Ελεδιώ"],"lon":32.56755,"lat":34.80948,"pop":23},{"id":146645,"name":"Eliá","alt":["Elaea","Elea","Elia","Elya","Elæá","Yesiltepe","Yeşiltepe","Ελιά"],"lon":33.21933,"lat":35.33225,"pop":0},{"id":146646,"name":"Eliá","alt":["Doganci","Doğancı","Elaea","Elea","Elia","Elya","Elye","Elæá","Ελιά"],"lon":32.9125,"lat":35.13267,"pop":0},{"id":146639,"name":"Emba","alt":["Empa","Έμπα"],"lon":32.42406,"lat":34.807,"pop":4855},{"id":146634,"name":"Epichó","alt":["Abohor","Aboukhor","Cihangir","Epicho","Epikho","Επιχό"],"lon":33.51256,"lat":35.22819,"pop":0},{"id":146629,"name":"Episkopeió","alt":["Episkopeio","Episkopeion","Episkopio","Episkopion","Episkopyo","Επισκοπειό"],"lon":33.24578,"lat":35.04259,"pop":533},{"id":146632,"name":"Episkopí","alt":["Episkopi","Επισκοπή"],"lon":32.52638,"lat":34.79585,"pop":0},{"id":146633,"name":"Episkopí","alt":["EPK","Episkopi","Piskobu","Yalova","Επισκοπή"],"lon":32.90176,"lat":34.67059,"pop":0},{"id":146636,"name":"Eptagóneia","alt":["Eftagonya","Ephtagonia","Eptagoneia","Eptagonia","Eptagonya","Επταγώνεια"],"lon":33.15779,"lat":34.8472,"pop":343},{"id":146635,"name":"Eptakómi","alt":["Eftakomi","Ephtakomi","Eptakomi","Yedikonak","Yedikonuk","Επτακώμη"],"lon":34.0318,"lat":35.44653,"pop":0},{"id":8531733,"name":"Ercan","alt":["ECN"],"lon":33.4986,"lat":35.16034,"pop":0},{"id":146791,"name":"Ergátes","alt":["Argadez","Argataes","Argates","Argatoes","Argatœs","Argátaes","Ergates","Εργάτες"],"lon":33.24292,"lat":35.05365,"pop":1656},{"id":146628,"name":"Erími","alt":["Erimi","Ερήμη"],"lon":32.91815,"lat":34.67766,"pop":1493},{"id":11979321,"name":"Ethnomartyras Kyprianos","alt":["Εθνομάρτυρας Κυπριανός"],"lon":33.34801,"lat":35.12682,"pop":0},{"id":146624,"name":"Evrétou","alt":["Evretou","Ευρέτου"],"lon":32.48814,"lat":34.95706,"pop":5},{"id":146622,"name":"Evrýchou","alt":["Evrih","Evrihu","Evrychou","Evrykhou","Ευρύχου"],"lon":32.90229,"lat":35.04136,"pop":855},{"id":11952710,"name":"Exo Geitonia","alt":["Έξω Γειτονιά"],"lon":33.19144,"lat":35.34083,"pop":0},{"id":146620,"name":"Éxo Metóchi","alt":["Duzova","Düzova","Eksomedos","Eksomedoş","Eksometos","Ekşometos","Esensehitler","Exo Metochi","Exometochi","Exometokhi","Έξω Μετόχι"],"lon":33.52732,"lat":35.21506,"pop":0},{"id":146174,"name":"Fáleia","alt":["Faleia","Falia","Falya","Gokcebel","Gökçebel","Phalia","Φάλεια","Φάλια"],"lon":32.5893,"lat":34.85984,"pop":4},{"id":146617,"name":"Famagusta","alt":["Ammochostos","Ammochostus","Ammokhostos","Ammóchostos","Ammókhostos","Amokhostos","Fama Augusta","Famagosta","Famagouste","Gazi Magosa","Gazimagusa","Gazimağusa","Magosa","Magusa","Mağusa","fa ma gu si ta","famaghwsta","famagusuta","famagwsta","pamaguseuta","pmgwsth","Αμμόχωστος","Амохостос","Фамагуста","Ֆամագուստա","פמגוסטה","فاماغوستا","فاماگوستا","ფამაგუსტა","ファマグスタ","法马古斯塔","파마구스타"],"lon":33.94135,"lat":35.12489,"pop":42526},{"id":414476,"name":"Famagusta Walled City","alt":["Kaleici","Kaleiçi"],"lon":33.94167,"lat":35.125,"pop":0},{"id":11983642,"name":"Faneromeni","alt":["Φανερωμένη"],"lon":33.36227,"lat":35.17339,"pop":0},{"id":146172,"name":"Farmakás","alt":["Farmaka","Farmakas","Parmaga","Pharmakas","Φαρμακάς"],"lon":33.13616,"lat":34.91244,"pop":0},{"id":146171,"name":"Fásli","alt":["Fasli","Fasli  Cyprus","Phasli","Φάσλι"],"lon":32.37097,"lat":34.98171,"pop":0},{"id":146169,"name":"Fasoúla","alt":["Fasoula","Fasoulla","Fasula","Fasulla","Phasoula","Phasoulla","Φασούλα"],"lon":33.02716,"lat":34.76387,"pop":0},{"id":146170,"name":"Fasoúla","alt":["Bagrikara","Bağrıkara","Fasoula","Fasoula Pafou","Fasoula  Paphos","Fasula","Fasulla","Phasoula","Φασούλα","Φασούλα Πάφου"],"lon":32.63197,"lat":34.7509,"pop":0},{"id":146167,"name":"Fikárdou","alt":["Figardu","Fikardou","Fikardu","Phikardhos","Phikardhou","Phykardou","Φικάρδου"],"lon":33.17089,"lat":34.95973,"pop":3},{"id":146157,"name":"Flamoúdi","alt":["Flamoudi","Flamuda","Flamudi","Flâmuda","Mersinlik","Phlamoudhi","Φλαμούδι"],"lon":33.85714,"lat":35.39662,"pop":0},{"id":146161,"name":"Foiní","alt":["Fini","Foini","Phini","Φοινί"],"lon":32.83783,"lat":34.89242,"pop":464},{"id":146160,"name":"Foinikária","alt":["Finikari","Finikaria","Finikarya","Foinikaria","Phinikaria","Φοινικάρια"],"lon":33.09783,"lat":34.75188,"pop":254},{"id":146159,"name":"Foínikas","alt":["Finikas","Finike","Foinikas","Phinikas","Φοίνικας"],"lon":32.5687,"lat":34.75277,"pop":0},{"id":146156,"name":"Fóta","alt":["Dagyolu","Dağyolu","Fota","Photia","Photta","Φότα"],"lon":33.22254,"lat":35.26406,"pop":0},{"id":146154,"name":"Frénaros","alt":["Frenaro","Frenaros","Frennaros","Phrenaros","Φρέναρος"],"lon":33.92242,"lat":35.04121,"pop":3450},{"id":145982,"name":"Frodísia","alt":["Frodisia","Vroisa","Vroisha","Vroisia","Vroişa","Vroyisa","Vroyişa","Vróisia","Yagmuralan","Yağmuralan","Φροδίσια"],"lon":32.66076,"lat":35.06793,"pop":0},{"id":146153,"name":"Ftéricha","alt":["Ftericha","Fteriha","Ilgaz","Phterykha","Φτέριχα"],"lon":33.22121,"lat":35.3228,"pop":0},{"id":146152,"name":"Fterikoúdi","alt":["Fterikoudi","Fterikudi","Phterikhoudhi","Phterikoudhi","Phterykoudi","Φτερικούδι"],"lon":33.06879,"lat":34.9436,"pop":148},{"id":146164,"name":"Fylliá","alt":["Filya","Fyllia","Philia","Phylia","Serhadkoy","Serhadköy","Serhatkoy","Serhatköy","Φυλλιά"],"lon":33.09191,"lat":35.18821,"pop":0},{"id":146158,"name":"Fýti","alt":["Fidi","Fiti","Fyti","Phiti","Phyti","Phýti","Φύτη"],"lon":32.5448,"lat":34.92871,"pop":101},{"id":146613,"name":"Gaïdourás","alt":["Gaidhoura","Gaidhouras","Gaidouras","Gaydura","Gayidura","Korkuteli","Γαϊδουράς"],"lon":33.78907,"lat":35.16719,"pop":0},{"id":146612,"name":"Galáta","alt":["Galata","Γαλάτα"],"lon":32.8993,"lat":34.99699,"pop":679},{"id":146611,"name":"Galatariá","alt":["Galataria","Γαλαταριά"],"lon":32.63171,"lat":34.87737,"pop":0},{"id":146610,"name":"Galáteia","alt":["Galateia","Galatia","Galatya","Mehmetcik","Mehmetçik","Γαλάτεια"],"lon":34.07132,"lat":35.42271,"pop":0},{"id":146609,"name":"Galiní","alt":["Galini","Omerli","Ömerli","Γαληνή"],"lon":32.76704,"lat":35.1358,"pop":0},{"id":146608,"name":"Galinóporni","alt":["Galinoporni","Kale Bournou","Kaleburnu","Kalepurnu","Kalé Bournou","Γαληνόπορνη"],"lon":34.3018,"lat":35.52226,"pop":0},{"id":146603,"name":"Gastriá","alt":["Gastirya","Gastria","Gastriya","Kalecik","Γαστριά"],"lon":33.99987,"lat":35.34274,"pop":0},{"id":145969,"name":"Génagra","alt":["Genagra","Nergisli","Nergizli","Yenagra","Γέναγρα"],"lon":33.6981,"lat":35.21743,"pop":0},{"id":145968,"name":"Gerakiés","alt":["Gerakies","Yeraces","Yerakiaes","Yerakies","Yerakioes","Yerakiæs","Yerakiœs","Γερακιές"],"lon":32.80507,"lat":35.00011,"pop":128},{"id":145967,"name":"Geráni","alt":["Gerani","Turnalar","Yerani","Γεράνι"],"lon":33.92227,"lat":35.35918,"pop":0},{"id":145965,"name":"Gerása","alt":["Gerasa","Yerasa","Γεράσα"],"lon":32.998,"lat":34.80253,"pop":85},{"id":145964,"name":"Géri","alt":["Geri","Yeri","Γέρι","Гери"],"lon":33.41977,"lat":35.1056,"pop":7639},{"id":145963,"name":"Germasógeia","alt":["Germasogeia","Yermasoya","Yermasoyia","Γερμασόγεια"],"lon":33.08447,"lat":34.72073,"pop":0},{"id":11903072,"name":"Germasogeia River","alt":["Potamos Germasogeias","Ποταμός Γερμασόγειας"],"lon":33.09088,"lat":34.70353,"pop":0},{"id":145961,"name":"Gerólakkos","alt":["Alaykoy","Alayköy","Eskikuyu","Gerolakkos","Yerolakko","Yerolakkos","Γερόλακκος"],"lon":33.25275,"lat":35.18138,"pop":0},{"id":20314,"name":"Gerontas","alt":["Yerondas"],"lon":33.03089,"lat":35.36449,"pop":0},{"id":11919534,"name":"Geroskipou","alt":["Dimos Geroskipou","Geroskipou Municipality","Δήμος Γεροσκήπου"],"lon":32.44844,"lat":34.76091,"pop":8313},{"id":145959,"name":"Geroskípou (quarter)","alt":["Geroskipou","Geroskipou (synoikia)","Yerosibo","Yerosibu","Yeroskipos","Yeroşibo","Yeroşibu","Γεροσκήπου","Γεροσκήπου (συνοικία)"],"lon":32.44915,"lat":34.75581,"pop":0},{"id":145958,"name":"Gerovása","alt":["Gerovasa","Yerovasa","Yerovasi","Yerovası","Γεροβάσα"],"lon":32.7393,"lat":34.81285,"pop":0},{"id":145957,"name":"Gialiá","alt":["Gialia","Yialia","Γιαλιά"],"lon":32.50283,"lat":35.10324,"pop":148},{"id":20289,"name":"Giannitsaros","alt":["Guzelyali","Güzelyalı","Yiannitsaros"],"lon":33.11886,"lat":35.36243,"pop":0},{"id":145954,"name":"Giólou","alt":["Giolou","Γιόλου"],"lon":32.47469,"lat":34.92416,"pop":764},{"id":10375629,"name":"Girne Kepuveia","lon":33.31415,"lat":35.32433,"pop":0},{"id":146596,"name":"Goudi","alt":["Γουδί"],"lon":32.44197,"lat":34.99217,"pop":163},{"id":146595,"name":"Goúfes","alt":["Camlica","Goufes","Gouphaes","Gouphes","Gouphoes","Gouphæs","Gouphœs","Grouphes","Gufes","Kepez","Kufez","Kurez","Çamlica","Γούφες"],"lon":33.6878,"lat":35.2826,"pop":0},{"id":146594,"name":"Goúrri","alt":["Gourri","Guri","Gurri","Yourri","Γούρρη"],"lon":33.15782,"lat":34.95744,"pop":235},{"id":146592,"name":"Gýpsou","alt":["Akova","Gypsos","Gypsou","Ipso","Ipsos","Yipsos","İpsos","Γύψου"],"lon":33.78627,"lat":35.25977,"pop":0},{"id":146588,"name":"Inia","alt":["Ineia","Ίνεια"],"lon":32.39339,"lat":34.95612,"pop":385},{"id":10645684,"name":"İsmet Paşa Mahallesi","alt":["Ismet Pasa Mahallesi"],"lon":32.99658,"lat":35.20131,"pop":0},{"id":146583,"name":"Kaïmaklí","alt":["Beuyuk Kaimakli","Beyuk Kaimakli","Buyuk Kaimakli","Buyuk Kaymakli","Büyük Kaymaklı","Kaimakli","Καϊμακλί"],"lon":33.3851,"lat":35.18496,"pop":0},{"id":146582,"name":"Kakopetriá","alt":["Kakopetria","Kakopetriya","Κακοπετριά"],"lon":32.90468,"lat":34.98768,"pop":1255},{"id":19856,"name":"Kalami","alt":["Yali","Yalı"],"lon":33.74396,"lat":35.39377,"pop":0},{"id":146579,"name":"Kalavasos","alt":["Kalavaso","Kalavason","Καλαβασός"],"lon":33.30798,"lat":34.7584,"pop":666},{"id":146577,"name":"Kaliána","alt":["Kaliana","Kalyana","Καλιάνα"],"lon":32.88351,"lat":35.01067,"pop":195},{"id":146571,"name":"Kaló Chorió","alt":["Camlikoy","Iyikoy","Kalo Chorio","Kalo Khoria","Kalohoryo","Kalokhorio","Kalokhorio Lefkas","Kalon Chorion","Lefkas","Çamlıköy","İyiköy","Καλό Χωριό"],"lon":32.87701,"lat":35.11539,"pop":0},{"id":146572,"name":"Kaló Chorió","alt":["Kalo Chorio","Kalohorio","Kalohoryo","Kalokhorio","Kalokhorio Orinis","Kalon Chorion","Kalón Chorión","Καλό Χωριό","Καλόν Χωριόν"],"lon":33.16296,"lat":35.00989,"pop":0},{"id":146574,"name":"Kaló Chorió","alt":["Kalo Chorio","Kalohorio","Kalohoryo","Kalokhorio","Kalon Chorion","Καλό Χωριό"],"lon":33.03108,"lat":34.85016,"pop":0},{"id":146570,"name":"Kaló Chorío","alt":["Kalkanli","Kalkanlı","Kalo Chorio","Kalohoryo","Kalokhorio","Kalokhorio Morphou","Kalon Chorion","Kapouti","Kapoúti","Kaputi","Καλό Χωρίο","Καπούτη"],"lon":33.03951,"lat":35.24429,"pop":0},{"id":146573,"name":"Kálo Chorió","alt":["Kalo Chorio","Kalo Chorio  Larnaca","Kalohorio","Kalohoryo","Kalokhoria","Kalokhorio","Kalon Chorion","Kálon Chorión","Voudo","Vuda","Κάλο Χωριό","Κάλον Χωριόν"],"lon":33.5362,"lat":34.92852,"pop":0},{"id":146575,"name":"Kalograía","alt":["Bahceli","Bahçeli","Kallurga","Kalograia","Kalogrea","Kalogria","Kalorka","Kaloğria","Καλογραία"],"lon":33.63055,"lat":35.33788,"pop":0},{"id":146569,"name":"Kalopanagiótis","alt":["Kalapanayot","Kalopanagiotis","Kalopanayiotis","Kalopanayot","Καλοπαναγιώτης"],"lon":32.82731,"lat":34.99043,"pop":300},{"id":146568,"name":"Kalopsída","alt":["Cakmali","Cayonu","Kalopsida","Kalopsidha","Kalopsyda","Çayönü","Καλοψίδα"],"lon":33.79405,"lat":35.09636,"pop":0},{"id":146567,"name":"Kalyvákia","alt":["Kalavac","Kalavas","Kalavaç","Kalyvakia","Καλυβάκια"],"lon":33.54837,"lat":35.25822,"pop":0},{"id":146576,"name":"Kallepia","alt":["Kallepeia","Καλλέπεια"],"lon":32.50009,"lat":34.84555,"pop":326},{"id":12110863,"name":"Kamares","alt":["Καμάρες"],"lon":33.59844,"lat":34.91714,"pop":0},{"id":146561,"name":"Kaminária","alt":["Kaminara","Kaminarga","Kaminaria","Kaminarka","Kaminarya","Kominarga","Καμινάρια"],"lon":32.78419,"lat":34.92831,"pop":97},{"id":146566,"name":"Kampí","alt":["Kambi","Kambi Pharmaka","Kampi","Καμπί"],"lon":33.12903,"lat":34.90855,"pop":95},{"id":146565,"name":"Kampiá","alt":["Gambya","Kambia","Kambiya","Kambya","Kampia","Kampıa","Καμπιά"],"lon":33.25629,"lat":35.00822,"pop":436},{"id":146564,"name":"Kampos","alt":["Kambo","Kambos"],"lon":32.73242,"lat":35.04026,"pop":445},{"id":146562,"name":"Kampylí","alt":["Hanbeli","Hisarkoy","Hisarköy","Kambili","Kambilli","Kambyli","Kampyli","Καμπυλή"],"lon":33.10755,"lat":35.30141,"pop":0},{"id":146559,"name":"Kanlí","alt":["Kanli","Kanli Chiftlik","Kanli Keuy","Kanlikoy","Kanlı Chiftlik","Kanlıköy","Κανλί"],"lon":33.25964,"lat":35.22167,"pop":0},{"id":146558,"name":"Kannávia","alt":["Kannavia","Kannavya","Καννάβια"],"lon":32.97688,"lat":34.98312,"pop":194},{"id":146557,"name":"Kannavioú","alt":["Kannaviou","Κανναβιού"],"lon":32.57542,"lat":34.91625,"pop":175},{"id":146555,"name":"Kantára","alt":["Kandara","Kantara","Καντάρα","Кантара"],"lon":33.89883,"lat":35.38847,"pop":0},{"id":146560,"name":"Kantoú","alt":["Canakkale","Donemec","Dönemeç","Kandou","Kandu","Kantou","Çanakkale","Καντού"],"lon":32.90674,"lat":34.69026,"pop":465},{"id":146553,"name":"Kapédes","alt":["Kabedes","Kapades","Kapedes","Kapedhes","Kappedhes","Καπέδες"],"lon":33.25371,"lat":34.97588,"pop":0},{"id":146551,"name":"Kapileió","alt":["Kapileio","Kapileion","Kapilio","Kapilion","Kapilyo","Καπηλειό"],"lon":32.95897,"lat":34.83247,"pop":31},{"id":11902772,"name":"Kapsalos","alt":["Κάψαλος"],"lon":33.03605,"lat":34.69852,"pop":0},{"id":19892,"name":"Kápsalos","alt":["Kapsalos","Kucuk Erenkoy","Küçük Erenköy","Κάψαλος"],"lon":33.67019,"lat":35.36321,"pop":0},{"id":414477,"name":"Karakol","lon":33.93333,"lat":35.12917,"pop":0},{"id":146548,"name":"Karákoumi","alt":["Karakoumi","Karakum","Karokomi Chiftlik","Karskoumi","Καράκουμι"],"lon":33.3478,"lat":35.33397,"pop":0},{"id":146547,"name":"Karamoullides","alt":["Καραμούλληδες"],"lon":32.44302,"lat":34.99945,"pop":33},{"id":146545,"name":"Karavás","alt":["Alsancak","Karava","Karavas","Καραβάς"],"lon":33.19593,"lat":35.34139,"pop":0},{"id":146543,"name":"Karavostási","alt":["Gemi Konaghi","Gemikonagi","Gemikonağı","Karavostas","Karavostasi","Karavostassi","Καραβοστάσι"],"lon":32.83015,"lat":35.13815,"pop":0},{"id":146542,"name":"Kármi","alt":["Karaman","Karmi","Karni","Κάρμι"],"lon":33.2556,"lat":35.31817,"pop":0},{"id":146541,"name":"Karpáseia","alt":["Karpasa","Karpaseia","Karpasha","Karpasia","Karpaşa","Καρπάσεια"],"lon":33.07003,"lat":35.29783,"pop":0},{"id":146535,"name":"Katalióntas","alt":["Gadalyonda","Katalionda","Kataliondas","Kataliontas","Katalyonda","Καταλιόντας"],"lon":33.2978,"lat":34.99073,"pop":0},{"id":146533,"name":"Kato Akourdhalia","alt":["Kato Akourdalia","Κάτω Ακουρδάλια"],"lon":32.45121,"lat":34.95268,"pop":65},{"id":146532,"name":"Káto Amíantos","alt":["Amiandos","Asagi Amyanto","Aşağı Amyanto","Kato Amiandos","Kato Amiantos","Kato Amiyando","Κάτω Αμίαντος"],"lon":32.93581,"lat":34.91722,"pop":229},{"id":146531,"name":"Káto Archimandríta","alt":["Asagi Arhimandrita","Aşağı Arhimandrita","Kato Archimandrita","Kato Arhimandrita","Kato Arkhimandrita","Κάτω Αρχιμανδρίτα"],"lon":32.67879,"lat":34.73535,"pop":0},{"id":146530,"name":"Kato Arodes","alt":["Κάτω Αρόδες"],"lon":32.40229,"lat":34.94067,"pop":39},{"id":146529,"name":"Káto Defterá","alt":["Asagi Deftera","Aşağı Deftera","Deftera","Dheftera","Kato Deftera","Kato Dheftera","Κάτω Δευτερά"],"lon":33.27558,"lat":35.08489,"pop":1706},{"id":146528,"name":"Káto Díkomo","alt":["Asagi Dikmen","Asagi Dikomo","Aşağı Dikmen","Aşağı Dikomo","Dhikomo","Kato Dhikomo","Kato Dikomo","Kato Dikomon","Lower Dikomo","Κάτω Δίκωμο"],"lon":33.3247,"lat":35.26745,"pop":0},{"id":146527,"name":"Kato Drys","alt":["Drys","Kato Dhrys","Katodris","Kotodori","Κάτω Δρυς"],"lon":33.30432,"lat":34.85114,"pop":119},{"id":146518,"name":"Káto Flásou","alt":["Asagiflaso","Aşağıflaso","Flasou","Flasu","Flâsu","Kato Flasou","Kato Flasu","Kato Phlasou","Kato Vlaso","Káto Vláso","Phlasou","Vlaso","Κάτω Φλάσου"],"lon":32.88769,"lat":35.06078,"pop":261},{"id":146512,"name":"Káto Gialiá","alt":["Asagiyayla","Aşağıyayla","Kato Gialia","Kato Yalya","Kato Yialia","Κάτω Γιαλιά"],"lon":32.51387,"lat":35.11825,"pop":0},{"id":11952705,"name":"Kato Keryneia","alt":["Κάτω Κερύνεια"],"lon":33.30501,"lat":35.33993,"pop":0},{"id":146526,"name":"Káto Kivídes","alt":["Asagi Alsandik","Aşağı Alsandık","Kato Civiya","Kato Kivides","Kato Kividhes","Κάτω Κιβίδες"],"lon":32.86379,"lat":34.7647,"pop":0},{"id":146524,"name":"Káto Koutrafás","alt":["Asagi Kurtbogan","Aşağı Kurtboğan","Kato Koutrafas","Kato Koutrapha","Kato Koutraphas","Kato Kutrafa","Koutrapha","Koutraphas","Κάτω Κουτραφάς"],"lon":32.9776,"lat":35.10277,"pop":0},{"id":146523,"name":"Káto Lakatámeia","alt":["Asagi Lakadamya","Asagi Lakatamya","Aşağı Lakadamya","Aşağı Lakatamya","Kato Lakatameia","Kato Lakatamia","Kato Lakatamya","Kato Lakkatamia","Káto Lakkatámia","Lakadamya","Lakatamia","Lakkatamia","Lakkatamía","Κάτω Λακατάμεια"],"lon":33.32539,"lat":35.11755,"pop":0},{"id":146522,"name":"Kato Léfkara","alt":["Asagi Lefkara","Aşağı Lefkara","Kato Lefkara","Kato-Lefkara","Κάτω Λεύκαρα","Като-Лефкара"],"lon":33.31677,"lat":34.86247,"pop":123},{"id":146521,"name":"Káto Moní","alt":["Kat Mori","Kat Morı","Kato Moni","Moni","Κάτω Μονή"],"lon":33.09407,"lat":35.06054,"pop":325},{"id":146520,"name":"Káto Mýlos","alt":["Asagi Mylos","Aşağı Mylos","Kato Milo","Kato Milos","Kato Mylos","Mylos","Κάτω Μύλος"],"lon":33.00596,"lat":34.89526,"pop":66},{"id":146272,"name":"Káto Páfos","alt":["Kato Pafos","Kato Paphos","Nea Paphos","Κάτω Πάφος"],"lon":32.41379,"lat":34.76095,"pop":0},{"id":146517,"name":"Káto Plátres","alt":["Asagi Platres","Aşağı Platres","Kato Platraes","Kato Platres","Káto Plátræs","Κάτω Πλάτρες"],"lon":32.83956,"lat":34.87819,"pop":143},{"id":146516,"name":"Káto Polemídia","alt":["Asagi Binatli","Asagi Polemitya","Aşağı Binatlı","Aşağı Polemitya","Kato Polemidhia","Kato Polemidia","Kato Polemidya","Polemidhia","Polemidia","Κάτω Πολεμίδια"],"lon":32.99324,"lat":34.69721,"pop":0},{"id":146515,"name":"Káto Pýrgos","alt":["Asagi Pirgo","Aşağı Pirgo","Kato Pirgo","Kato Pyrgos","Κάτω Πύργος"],"lon":32.686,"lat":35.17897,"pop":1170},{"id":146511,"name":"Káto Zódeia","alt":["Asagi Bostanci","Asagi Zodya","Asagi Zotya","Aşağı Bostancı","Aşağı Zodya","Aşağı Zotya","Kato Zadhia","Kato Zodeia","Kato Zodhia","Kato Zodia","Kato Zodya","Káto Zodia","Zodhia","Zodia","Κάτω Ζώδεια"],"lon":33.00788,"lat":35.16653,"pop":0},{"id":146525,"name":"Katokopiá","alt":["Kadokopya","Katakopya","Kato Kopia","Katokopia","Katokopya","Kopia","Zumrutkoy","Zümrütköy","Κατωκοπιά"],"lon":33.05114,"lat":35.17418,"pop":0},{"id":146510,"name":"Katýdata","alt":["Kadidada","Katidata","Katydata","Katydhata","Κατύδατα"],"lon":32.88788,"lat":35.08254,"pop":0},{"id":146534,"name":"Kathikas","alt":["Κάθηκας"],"lon":32.42571,"lat":34.91253,"pop":438},{"id":11902928,"name":"Katholiki","alt":["Καθολική"],"lon":33.03581,"lat":34.67994,"pop":0},{"id":146599,"name":"Kaziverá","alt":["Chaziveran","Gaziveran","Gaziveren","Gaziviran","Ghaziveran","Kazivera","Καζιβερά"],"lon":32.91636,"lat":35.17167,"pop":0},{"id":146508,"name":"Kedares","alt":["Κέδαρες"],"lon":32.73647,"lat":34.83629,"pop":80},{"id":146505,"name":"Kelokedara","alt":["Κελοκέδαρα"],"lon":32.65156,"lat":34.81242,"pop":193},{"id":146507,"name":"Kelláki","alt":["Cellaci","Kellaki","Κελλάκι"],"lon":33.15831,"lat":34.81647,"pop":282},{"id":146506,"name":"Kelliá","alt":["Agilbasi","Ağılbaşı","Celya","Kellia","Yildirim","Yıldırım","Κελλιά"],"lon":33.62325,"lat":34.97611,"pop":380},{"id":146674,"name":"Kiádos","alt":["Catkoy","Catoz","Chatos","Kiados","Serdarli","Serdarlı","Çatköy","Çatoz","Κιάδος"],"lon":33.60119,"lat":35.25472,"pop":0},{"id":146470,"name":"Kidasi","alt":["Κιδάσι"],"lon":32.71331,"lat":34.80727,"pop":11},{"id":146475,"name":"Kilinia","alt":["Koilinia","Κοιλίνια"],"lon":32.6317,"lat":34.88352,"pop":39},{"id":146474,"name":"Kinousa","alt":["Κινούσα"],"lon":32.5076,"lat":35.03226,"pop":71},{"id":146502,"name":"Kiómourtzou","alt":["Keumurja","Keumurji","Keumurju","Kiomourtzou","Kiomurtzou","Komurcu","Kömürcü","Κιόμουρτζου"],"lon":33.25637,"lat":35.29343,"pop":0},{"id":146600,"name":"Kióneli","alt":["Geunyeli","Geunyely","Gonelli","Gonyeli","Gönelli","Gönyeli","Kioneli","Κιόνελι"],"lon":33.30949,"lat":35.21082,"pop":0},{"id":12205,"name":"Kiónia","alt":["Conya","Kionia","Κιόνια"],"lon":33.19746,"lat":34.92018,"pop":0},{"id":146587,"name":"Kios","alt":["Istinjon","Istintzion","Ιστιντζιόν","Κιος"],"lon":32.52727,"lat":34.97505,"pop":0},{"id":146472,"name":"Kissonerga","alt":["Kissónerga","Κισσόνεργα"],"lon":32.40131,"lat":34.82279,"pop":2004},{"id":146471,"name":"Kissoúsa","alt":["Cissusa","Kissousa","Kissusa","Kisusa","Κισσούσα"],"lon":32.79481,"lat":34.81078,"pop":4},{"id":146469,"name":"Kíti","alt":["Cite","Kiti","Kiti  Cyprus","Kition","Çite","Κίτι"],"lon":33.57523,"lat":34.84898,"pop":3278},{"id":146466,"name":"Kivisíli","alt":["Cevizdali","Cevizli","Cevrigil","Cevriğil","Civisil","Kivisil","Kivisili","Κιβισίλι"],"lon":33.50481,"lat":34.83956,"pop":241},{"id":146465,"name":"Klavdiá","alt":["Alanici","Alaniçi","Klavdhia","Klavdia","Klavya","Klâvya","Κλαυδιά"],"lon":33.51491,"lat":34.89307,"pop":468},{"id":146463,"name":"Klepíni","alt":["Arapkoy","Arapköy","Klepini","Κλεπίνη"],"lon":33.43534,"lat":35.30646,"pop":0},{"id":146461,"name":"Klírou","alt":["Klirou","Kliru","Klırou","Κλήρου"],"lon":33.17806,"lat":35.02004,"pop":1623},{"id":146460,"name":"Klonári","alt":["Klonari","Κλωνάρι"],"lon":33.18138,"lat":34.82588,"pop":18},{"id":146459,"name":"Knódara","alt":["Conendere","Gonendere","Gönendere","Knodara","Knodhara","Konedra","Konetra","Kounetra","Κνώδαρα"],"lon":33.66041,"lat":35.26482,"pop":0},{"id":146597,"name":"Kóchi","alt":["Goshi","Gosi","Gossi","Goşi","Goşşi","Kochi","Kocyalagi","Kocyatagi","Konchi","Kosi","Kosii","Koçyalağı","Köçyatağı","Uc Sehitler","Üç Şehitler","Κόσιη","Κόχη"],"lon":33.55,"lat":34.96667,"pop":0},{"id":146445,"name":"Kofínou","alt":["Bakracli","Bakraçli","Gecitkale","Geçitkale","Kato Kophinou","Kofinou","Kofinu","Kofunye","Kophino","Kophinou","Köfünye","Pano Kophina","Pano Kophinou","Páno Kophína","Κοφίνου"],"lon":33.39133,"lat":34.82427,"pop":1372},{"id":146478,"name":"Koilánemos","alt":["Ceylani","Cilanemo","Cilanemos","Esenkoy","Esenköy","Kilamenos","Kilanemos","Kilanimos","Koilanemos","Κοιλάνεμος"],"lon":34.14199,"lat":35.49075,"pop":0},{"id":146477,"name":"Koilani","alt":["Ceylan","Cilan","Gilan","Gilani","Gilân","Kilani","Κοιλάνι"],"lon":32.86028,"lat":34.84472,"pop":280},{"id":146476,"name":"Koíli","alt":["Koili","Κοίλη"],"lon":32.45514,"lat":34.85957,"pop":466},{"id":146457,"name":"Kókkina","alt":["Erenkoy","Erenköy","Koccina","Kokkina","Koççina","Κόκκινα"],"lon":32.61197,"lat":35.17747,"pop":0},{"id":12110864,"name":"Kokkines","alt":["Κόκκινες"],"lon":33.61788,"lat":34.94078,"pop":0},{"id":146455,"name":"Kokkinotrimithiá","alt":["Koccinno-Trimitya","Koccinotrimitya","Kocinodrimitya","Kokino Trimithia","Kokkini Trimithia","Kokkinotrimithia","Kokkinotrimitya","Kokıno Trımıthıa","Koçinodrimitya","Koççinno-Trimitya","Koççinotrimitya","Κοκκινοτριμιθιά"],"lon":33.19966,"lat":35.15303,"pop":3223},{"id":146452,"name":"Koloni","alt":["Yolustu","Yolüstü","Κολώνη"],"lon":32.46565,"lat":34.74858,"pop":264},{"id":10227174,"name":"Koloni Piece of Land","lon":32.46989,"lat":34.75234,"pop":0},{"id":146451,"name":"Kolossi","alt":["Burciu","Burclu","Burçiu","Burçlu","Kolos","Yunus"],"lon":32.93375,"lat":34.66865,"pop":3846},{"id":146450,"name":"Kóma tou Gialoú","alt":["Kamyali","Koma to Yialou","Koma tou Gialou","Koma tou Yialou","Komad Tuyalu","Komatuyalu","Komialik","Komyalik","Komyalık","Kumyali","Kumyalı","Κώμα του Γιαλού"],"lon":34.13103,"lat":35.42753,"pop":0},{"id":146449,"name":"Kómi","alt":["Buyukkonuk","Büyükkonuk","Komi","Komi Kebir","Κώμη"],"lon":33.99618,"lat":35.41051,"pop":0},{"id":146446,"name":"Konia","alt":["Κονιά"],"lon":32.459,"lat":34.78516,"pop":2209},{"id":146448,"name":"Kontéa","alt":["Kondea","Kondeya","Kontea","Turkmenkoy","Türkmenköy","Κοντέα"],"lon":33.71583,"lat":35.1027,"pop":0},{"id":146447,"name":"Kontémenos","alt":["Kilicaslan","Kondemenos","Kontemenos","Kordemen","Kordumen","Kurdemen","Kördemen","Kördümen","Kılıçaslan","Κοντέμενος"],"lon":33.12473,"lat":35.26858,"pop":0},{"id":11903076,"name":"Kontovathkia","alt":["Κοντοβάθκια"],"lon":33.04284,"lat":34.69809,"pop":0},{"id":146443,"name":"Korákou","alt":["Korakou","Koraku","Koralou","Κοράκου"],"lon":32.88737,"lat":35.04108,"pop":521},{"id":146436,"name":"Korfí","alt":["Gorfi","Korfi","Korphi","Yeni Korfi","Κορφή"],"lon":32.96485,"lat":34.79592,"pop":173},{"id":146442,"name":"Kormakítis","alt":["Karamacit","Kormacit","Kormakiti","Kormakitis","Korucam","Koruçam","Κορμακίτης"],"lon":33.00996,"lat":35.34297,"pop":0},{"id":146440,"name":"Kornókipos","alt":["Gornec","Görneç","Keurnech","Kornec","Korneç","Kornokipos","Κορνόκηπος"],"lon":33.57302,"lat":35.28279,"pop":0},{"id":146438,"name":"Kórnos","alt":["Khorno","Korno","Kornos","Kόρνος","Κόρνος"],"lon":33.39587,"lat":34.92221,"pop":1943},{"id":146437,"name":"Koróveia","alt":["Karovia","Koroveia","Korovia","Korovya","Koruova","Krovya","Kuruova","Κορόβεια"],"lon":34.274,"lat":35.51135,"pop":0},{"id":414418,"name":"Köşklü Çiftlik","alt":["Kosklu Ciftlik"],"lon":33.35469,"lat":35.18352,"pop":0},{"id":146458,"name":"Kotsiatis","alt":["Koccat","Kochati","Kocyatagi","Kotchati","Koçyatağı","Koççat"],"lon":33.35005,"lat":35.01321,"pop":122},{"id":146435,"name":"Kouká","alt":["Kouka","Kuka","Κουκά"],"lon":32.88792,"lat":34.85122,"pop":4},{"id":146434,"name":"Kouklia","alt":["Palaea Paphos","Palea Paphos","Palæa Paphos","Κούκλια"],"lon":32.57331,"lat":34.70987,"pop":892},{"id":146433,"name":"Koúklia","alt":["Koklu","Kopru","Koprulu","Kouklia","Kukla","Köklü","Köprü","Köprülü","Κούκλια"],"lon":33.75068,"lat":35.10852,"pop":0},{"id":146431,"name":"Kourdali","alt":["Κούρδαλι"],"lon":32.95011,"lat":34.97513,"pop":0},{"id":146429,"name":"Kouroú Monastíri","alt":["Cukurova","Kourou Monastir","Kourou Monastiri","Kuru Manastir","Çukurova","Κουρού Μοναστήρι"],"lon":33.55572,"lat":35.22399,"pop":0},{"id":146428,"name":"Kourtaka","alt":["Κούρτακα"],"lon":32.54053,"lat":34.8585,"pop":7},{"id":146427,"name":"Koutsovéntis","alt":["Gungor","Güngör","Koutsovendis","Koutsoventis","Kutsovendis","Kutsoventi","Kutsoventis","Κουτσοβέντης"],"lon":33.42081,"lat":35.26308,"pop":0},{"id":146425,"name":"Krídeia","alt":["Kilitkaya","Krideia","Kridhia","Kritya","Κρίδεια"],"lon":33.97291,"lat":35.39532,"pop":0},{"id":146424,"name":"Kriní","alt":["Kiran","Kirni","Krini","Pinarbasi","Pınarbaşı","Κρηνί"],"lon":33.23747,"lat":35.28802,"pop":0},{"id":146423,"name":"Kritou Marottou","alt":["Κρήτου Μαρόττου"],"lon":32.56263,"lat":34.92685,"pop":85},{"id":146422,"name":"Kritou Terra","alt":["Κρήτου Τέρρα"],"lon":32.42196,"lat":34.95549,"pop":86},{"id":146420,"name":"Ktima","alt":["Kasaba"],"lon":32.43333,"lat":34.775,"pop":0},{"id":414421,"name":"Kumsal","lon":33.35,"lat":35.19167,"pop":0},{"id":146414,"name":"Kyperoúnta","alt":["Ciperunda","Kiperunda","Kyperounda","Kyperounta","Κυπερούντα"],"lon":32.97551,"lat":34.93815,"pop":1560},{"id":146413,"name":"Kyrá","alt":["Cira","Kira","Kyra","Mevlevi","Κυρά"],"lon":33.06027,"lat":35.20392,"pop":0},{"id":146412,"name":"Kyrenia","alt":["Cirenia","Cirénia","Girne","Kerineja","Kerinia","Keryneia","Kerynia","Kerínia","Kerýneia","Kirenia","Kirenija","Kirinija","Kyrinia pa Kypros","Kyrínia på Kypros","Kérynia","ghrnt","kai li ni ya","kayrnya","kilenia","kirenia","kyrynya","qyrnyh","Κερύνεια","Керинеја","Кирения","Кириния","Кіренія","Կիրենիա","קירניה","غرنة","کایرنیا","کیرینیا","کیرینیہ","კირენია","キレニア","凯里尼亚","키레니아"],"lon":33.31729,"lat":35.33634,"pop":26701},{"id":146409,"name":"Kythréa","alt":["Degirmenlik","Değirmenlik","Kitrea","Kitreya","Kythraea","Kythrea","Kythræa","Κυθρέα"],"lon":33.48059,"lat":35.25041,"pop":0},{"id":146394,"name":"Lágeia","alt":["Lageia","Lagia","Laya","Layia","Λάγεια","Λάγια"],"lon":33.24674,"lat":34.84293,"pop":22},{"id":146407,"name":"Lagouderá","alt":["Lagoudera","Lagoudhera","Lagudera","Λαγουδερά"],"lon":33.01009,"lat":34.96207,"pop":150},{"id":146408,"name":"Lakkí","alt":["Lacci","Lachi","Lakki","Latchi","Latsi","Latzi","Laççi","Λακκί"],"lon":32.39427,"lat":35.04086,"pop":0},{"id":10645683,"name":"Lala Mustafa Paşa Mahallesi","alt":["Lala Mustafa Pasa Mahallesi"],"lon":32.98962,"lat":35.20532,"pop":0},{"id":146406,"name":"Láneia","alt":["Laneia","Lania","Lanya","Λάνεια"],"lon":32.92145,"lat":34.82495,"pop":199},{"id":146405,"name":"Lápathos","alt":["Bogazici","Boğaziçi","Lapathos","Lapatos","Lapatoz","Lâpatoz","Λάπαθος"],"lon":33.82587,"lat":35.27002,"pop":0},{"id":146404,"name":"Lapithiou","alt":["Λαπηθιού"],"lon":32.59647,"lat":34.90484,"pop":0},{"id":146403,"name":"Lápithos","alt":["Gilderen","Gildirin","Lapithos","Lapitos","Lapta","Lâpta","Λάπηθος"],"lon":33.17368,"lat":35.33823,"pop":5215},{"id":146400,"name":"Larnaca","alt":["Chittim","Citium","Kition","Kitium","Kittim","Kozan","LCA","Lapithou","Larnaka","Làrnaca","Lárnaca","Lárnaka","Salina","Salines","la na ka","laleunaka","lar na ka","larnaka","larnka","lrnaka","lrnqh","rarunaka","Λάρνακα","Ларнака","Լառնակա","לרנקה","لارناکا","لارنكا","لرناکا","ลาร์นากา","ལར་ན་ཀ།","ლარნაკა","ラルナカ","拉纳卡","라르나카"],"lon":33.6233,"lat":34.92291,"pop":72000},{"id":11919554,"name":"Larnaca Municipality","alt":["Dimos Larnakas","Δήμος Λάρνακας"],"lon":33.61977,"lat":34.9155,"pop":0},{"id":146397,"name":"Larnakas tis Lapithou","alt":["Kozan","Kozen","Lapithos","Lapityu-Larnaka"],"lon":33.14167,"lat":35.3125,"pop":0},{"id":146396,"name":"Lasa","alt":["Λάσα"],"lon":32.5277,"lat":34.92468,"pop":67},{"id":146395,"name":"Latsia","alt":["Lacca","Lacha","Lakkia","Laksa","Latsi","Laxia","Laçça","Λατσιά"],"lon":33.37952,"lat":35.10168,"pop":0},{"id":146393,"name":"Lazaniás","alt":["Lazania","Lazanias","Lazanya","Λαζανιάς"],"lon":33.17465,"lat":34.94867,"pop":34},{"id":146392,"name":"Léfka","alt":["Lefka","Lefke","Lefke-Karadag","Lefke-Karadağ","Λεύκα"],"lon":32.84997,"lat":35.11199,"pop":7835},{"id":146391,"name":"Lefkónoiko","alt":["Aksaray","GEC","Gecitkale","Geçitkale","Lefkoniko","Lefkonikon","Lefkonoiko","Lefkonuk","Λευκόνοικο"],"lon":33.73189,"lat":35.2598,"pop":3187},{"id":146388,"name":"Lemíthou","alt":["Lemithou","Lemithu","Lemitu","Λεμίθου"],"lon":32.81136,"lat":34.94944,"pop":112},{"id":146387,"name":"Lemóna","alt":["Lemona","Λεμώνα"],"lon":32.55772,"lat":34.86232,"pop":51},{"id":146390,"name":"Lempa","alt":["Λέμπα"],"lon":32.4079,"lat":34.80863,"pop":506},{"id":146386,"name":"Leonárisso","alt":["Leonariso","Leonarisso","Ziamet","Ziyamet","Λεονάρισσο"],"lon":34.13886,"lat":35.46892,"pop":1593},{"id":146385,"name":"Letymvou","alt":["Letympou","Λετύμπου"],"lon":32.51361,"lat":34.85735,"pop":249},{"id":146384,"name":"Limassol","alt":["Lemesos","Lemessus","Lemesós","Leymosun","Limasol","Limasol shaary","Limasolis","Limasolo","Limisso","QLI","li ma suo er","li ma sxl","limasol","limasoli","lymaswl","lymswl","rimasoru","Λεμεσός","Лимасол","Лимасол шаары","Лімасол","Լիմասոլ","לימסול","ليماسول","لیماسول","ലിമസ്സോൾ","ลีมาซอล","ლიმასოლი","リマソール","利马索尔","리마솔"],"lon":33.03794,"lat":34.68406,"pop":154000},{"id":146381,"name":"Limnátis","alt":["Limnat","Limnatis","Linnatis","Λιμνάτης"],"lon":32.94814,"lat":34.81323,"pop":272},{"id":146380,"name":"Limniá","alt":["Limnia","Limnya","Mormenekse","Mormenekşe","Λιμνιά"],"lon":33.85863,"lat":35.19959,"pop":0},{"id":146378,"name":"Limnítis","alt":["Limnidi","Limniti","Limnitis","Yesilirmak","Yeşilırmak","Λιμνίτης"],"lon":32.73717,"lat":35.16787,"pop":0},{"id":146376,"name":"Linoú","alt":["Linou","Linu","Lınou","Ληνού"],"lon":32.89238,"lat":35.07438,"pop":216},{"id":146375,"name":"Liopétri","alt":["Leopetra","Liopetri","Liyopetri","Lıopetrı","Λιοπέτρι"],"lon":33.89256,"lat":35.00885,"pop":4005},{"id":146374,"name":"Livadi","alt":["Λιβάδι"],"lon":32.59405,"lat":35.10213,"pop":0},{"id":146370,"name":"Livádia","alt":["Leivadia","Livadhia","Livadia","Livadya","Livatya","Sazlikoy","Sazlıköy","Λιβάδια"],"lon":34.02545,"lat":35.39878,"pop":0},{"id":146371,"name":"Livádia","alt":["Leivadia","Livadhia","Livadia","Livadya","Livatia","Livatya","Sazlikoy","Sazlıköy","Λιβάδια"],"lon":33.62734,"lat":34.95515,"pop":5329},{"id":146372,"name":"Livádia","alt":["Leivadia","Livadhia","Livadia","Livadya","Livatya","Sazlikoy","Sazlıköy","Λιβάδια"],"lon":33.02219,"lat":34.94591,"pop":0},{"id":146369,"name":"Liverá","alt":["Livera","Liveras","Sadrazamkoy","Sadrazamköy","Λιβερά"],"lon":32.9526,"lat":35.38332,"pop":0},{"id":146368,"name":"Lófou","alt":["Lof","Lofos","Lofou","Lofu","Lophos","Λόφου"],"lon":32.87539,"lat":34.81598,"pop":10},{"id":146366,"name":"Loukrounou","alt":["Λουκρούνου"],"lon":32.46361,"lat":34.95144,"pop":4},{"id":146365,"name":"Louroukína","alt":["Akincilar","Akıncılar","Louroujina","Louroukina","Luricina","Lurucina","Lûricina","Λουρουκίνα"],"lon":33.46471,"lat":35.01022,"pop":0},{"id":146364,"name":"Loutrós","alt":["Bademlikoy","Bademliköy","Bagdemlikoey","Bağdemliköy","Loutros","Lutro","Λουτρός"],"lon":32.74564,"lat":35.14581,"pop":0},{"id":146363,"name":"Louvarás","alt":["Louvara","Louvaras","Luvara","Λουβαράς"],"lon":33.04024,"lat":34.83652,"pop":408},{"id":146362,"name":"Lýmpia","alt":["Limbia","Limbya","Limya","Lymbia","Lympia","Olympia","Λύμπια"],"lon":33.46175,"lat":34.99889,"pop":2262},{"id":146361,"name":"Lýsi","alt":["Akdogan","Akdoğan","Lisi","Lysi","Λύση"],"lon":33.681,"lat":35.10475,"pop":0},{"id":146360,"name":"Lysos","alt":["Liso","Lyso","Λυσός"],"lon":32.5125,"lat":34.99583,"pop":0},{"id":146359,"name":"Lythrágkomi","alt":["Boltasli","Boltaşlı","Lithrangomi","Litrangomi","Litrankomi","Litrongomi","Lythragkomi","Lythrangomi","Lythrankomi","Lythránkomi","Λυθράγκωμη"],"lon":34.17141,"lat":35.47996,"pop":0},{"id":146358,"name":"Lythrodóntas","alt":["Litrodonda","Litrodontas","Litronda","Lythrodhonda","Lythrodhondas","Lythrodonda","Lythrodontas","Λυθροδόντας"],"lon":33.29777,"lat":34.95105,"pop":2736},{"id":11903081,"name":"Makarios C","alt":["Makarios G΄","Μακάριος Γ΄"],"lon":33.01264,"lat":34.68699,"pop":0},{"id":146356,"name":"Makoúnta","alt":["Bakacak","Magounda","Magunda","Makounta","Yakacik","Yakacık","Μακούντα"],"lon":32.4856,"lat":35.05053,"pop":51},{"id":146352,"name":"Makrásyka","alt":["Incirli","Makrasiga","Makrasika","Makrasyka","Uzunkoy","Uzunköy","İncirli","Μακράσυκα"],"lon":33.76224,"lat":35.07402,"pop":0},{"id":146351,"name":"Maliá","alt":["Baglarbasi","Bağlarbaşı","Koyuniu","Koyunlu","Malia","Mallia","Malya","Μαλιά"],"lon":32.78261,"lat":34.81725,"pop":61},{"id":146349,"name":"Maloúnta","alt":["Malounda","Malounta","Malunda","Μαλούντα"],"lon":33.18306,"lat":35.03514,"pop":0},{"id":146350,"name":"Maloúnta","alt":["Malounda","Malounta","Malunda","Μαλούντα"],"lon":32.69073,"lat":34.86492,"pop":0},{"id":146347,"name":"Mámmari","alt":["Mammari","Μάμμαρη","Μάμμαρι"],"lon":33.20435,"lat":35.17604,"pop":1122},{"id":146346,"name":"Mamónia","alt":["Mamonia","Mamonya","Μαμώνια"],"lon":32.63718,"lat":34.76969,"pop":42},{"id":146345,"name":"Mamoúntali","alt":["Mamoundali","Mamountali","Mamundali","Sogucak","Soğucak","Μαμούνταλη"],"lon":32.60227,"lat":34.91403,"pop":15},{"id":146342,"name":"Mándres","alt":["Agillar","Ağıllar","Mandraes","Mandraz","Mandres","Mandrez","Μάνδρες"],"lon":33.79918,"lat":35.34709,"pop":0},{"id":146343,"name":"Mándres","alt":["Hamid Mandres","Hamidmandiralari","Hamit","Hamit Mandres","Hamitkoy","Hamitköy","Mandralar","Mandres","Mandres Hamid","Ramit Mandres","Μάνδρες"],"lon":33.37759,"lat":35.22144,"pop":0},{"id":146344,"name":"Mándres","alt":["Hamitkoy","Hamitköy","Mandraes","Mandres","Mandres Morphou","Mandræs","Μάνδρες"],"lon":32.95297,"lat":35.0766,"pop":0},{"id":146340,"name":"Mandriá","alt":["Mandirya","Mandria","Mandriya","Mandırya","Μανδριά"],"lon":32.83231,"lat":34.87011,"pop":0},{"id":146341,"name":"Mandriá","alt":["Agillar","Agıllar","Mandirya","Mandna","Mandria","Mandria  Paphos","Mandriya","Yesilova","Yeşilova","Μανδριά"],"lon":32.53173,"lat":34.71571,"pop":0},{"id":146339,"name":"Mansoúra","alt":["Mansoura","Mansur","Mansura","Μανσούρα"],"lon":32.63245,"lat":35.1881,"pop":0},{"id":146338,"name":"Marátha","alt":["Marata","Maratha","Murataga","Muratağa","Sehitler","Şehitler","Μαράθα"],"lon":33.77691,"lat":35.21182,"pop":0},{"id":146337,"name":"Marathoúnta","alt":["Marathounda","Marathounta","Maratunda","Maratunya","Μαραθούντα"],"lon":32.48813,"lat":34.79101,"pop":316},{"id":146336,"name":"Marathóvounos","alt":["Marathovouno","Marathovounos","Maratogno","Maratovno","Maratovuno","Maratoğno","Ulukisla","Ulukışla","Μαραθόβουνος"],"lon":33.61776,"lat":35.22292,"pop":0},{"id":146335,"name":"Margí","alt":["Kucukkoy","Küçükköy","Margi","Marki","Oglakli","Oğlakli","Μαργί"],"lon":33.32522,"lat":35.02389,"pop":104},{"id":146334,"name":"Margó","alt":["Kargi","Kargı","Margo","Marko","Markon","Μαργό"],"lon":33.48333,"lat":35.08333,"pop":0},{"id":146333,"name":"Marí","alt":["Mari","Tatli Sou","Tatlisu","Tatlısu","Μαρί"],"lon":33.29928,"lat":34.74056,"pop":185},{"id":414420,"name":"Marmara","lon":33.34583,"lat":35.2,"pop":0},{"id":146332,"name":"Máronas","alt":["Marona","Maronas","Maronas  Cyprus","Ulucam","Uluçam","Μάρωνας"],"lon":32.6672,"lat":34.76834,"pop":0},{"id":146331,"name":"Maróni","alt":["Maroni","Μαρώνι"],"lon":33.35657,"lat":34.75735,"pop":543},{"id":146328,"name":"Másari","alt":["Masari","Sahinler","Saninler","Şahinler","Μάσαρη"],"lon":33.0769,"lat":35.18652,"pop":0},{"id":146327,"name":"Mathiátis","alt":["Madyat","Mathiati","Mathiatis","Matiatis","Matyat","Μαθιάτης"],"lon":33.33627,"lat":34.96349,"pop":605},{"id":146326,"name":"Mathikolóni","alt":["Madikoloni","Mathikoloni","Matikoloni","Μαθικολώνη"],"lon":33.04913,"lat":34.7752,"pop":115},{"id":146324,"name":"Mavrolí","alt":["Mavioli","Mavralis","Mavroli","Μαυρολή"],"lon":32.45305,"lat":35.05208,"pop":0},{"id":146319,"name":"Mazotós","alt":["Mazoto","Mazotos","Μαζωτός"],"lon":33.48947,"lat":34.80364,"pop":818},{"id":146318,"name":"Meládeia","alt":["Malatya","Meladeia","Meladhia","Meladya","Melatya","Melâdya","Μελάδεια"],"lon":32.50665,"lat":34.98816,"pop":20},{"id":146316,"name":"Melánarga","alt":["Adacay","Adaçay","Melanarga","Melangra","Μελάναργα"],"lon":34.19685,"lat":35.5147,"pop":0},{"id":146315,"name":"Melándra","alt":["Besikte","Besiktepe","Beşikte","Beşiktepe","Melandra","Μελάνδρα"],"lon":32.525,"lat":34.98919,"pop":0},{"id":146314,"name":"Melíni","alt":["Melini","Μελίνη"],"lon":33.157,"lat":34.86746,"pop":59},{"id":146348,"name":"Meloúnta","alt":["Mallidag","Mallıdağ","Malounda","Melounda","Melounta","Melunda","Μελούντα"],"lon":33.68932,"lat":35.33263,"pop":0},{"id":146312,"name":"Meloúseia","alt":["Kirikkale","Kırıkkale","Melouseia","Melousha","Melusa","Meluşa","Pelitil","Μελούσεια"],"lon":33.58444,"lat":35.07706,"pop":0},{"id":146311,"name":"Meneou","alt":["Meneu","Menevi","Μενεού"],"lon":33.59314,"lat":34.86075,"pop":1248},{"id":414384,"name":"Méniko","alt":["Meniko","Menikon","Menıko","Μένικο"],"lon":33.14474,"lat":35.10945,"pop":1023},{"id":146310,"name":"Menógeia","alt":["Mennogeia","Mennoya","Menogeia","Menoya","Menoyia","Otuken","Ötüken","Μενόγεια"],"lon":33.44118,"lat":34.84373,"pop":51},{"id":146309,"name":"Mersinníki","alt":["Mersiniki","Mersinlik","Mersinniki","Mersinnikki","Μερσιννίκι"],"lon":33.72459,"lat":35.34148,"pop":0},{"id":146308,"name":"Mesa Chorio","alt":["Μέσα Χωριό"],"lon":32.46196,"lat":34.80888,"pop":586},{"id":146305,"name":"Mésa Geitoniá","alt":["Mesa Geitonia","Mesayitonia","Mesayitonya","Μέσα Γειτονιά"],"lon":33.04374,"lat":34.70057,"pop":0},{"id":146307,"name":"Mésana","alt":["Mesana","Μέσανα"],"lon":32.70679,"lat":34.84911,"pop":52},{"id":146303,"name":"Mesógi","alt":["Mesogi","Mesoyi","Μεσόγη"],"lon":32.45627,"lat":34.81529,"pop":1689},{"id":146301,"name":"Miá Miliá","alt":["Birincimil","Haspolat","Mia Milea","Mia Milia","Miyamilya","Μιά Μηλιά"],"lon":33.42007,"lat":35.20673,"pop":0},{"id":146299,"name":"Miliá","alt":["Milia","Milia  Paphos","Milya","Μηλιά"],"lon":32.54028,"lat":34.91998,"pop":5},{"id":146300,"name":"Miliá","alt":["Milea","Milia","Milya","Mylea","Yildirim","Yıldırım","Μηλιά"],"lon":33.78021,"lat":35.24013,"pop":0},{"id":146297,"name":"Milioú","alt":["Miliou","Milyu","Μηλιού"],"lon":32.4608,"lat":34.9393,"pop":85},{"id":146296,"name":"Mitseró","alt":["Mitsero","Mitseron","Mıtsero","Μιτσερό"],"lon":33.12401,"lat":35.04267,"pop":742},{"id":146295,"name":"Monágri","alt":["Monagri","Μονάγρι"],"lon":32.91062,"lat":34.80982,"pop":181},{"id":146294,"name":"Monagroúlli","alt":["Monagroulli","Monagrulli","Μοναγρούλλι"],"lon":33.21295,"lat":34.74902,"pop":492},{"id":146293,"name":"Monargá","alt":["Bogaztepe","Boğaztepe","Daggecit","Dağgeçit","Deregecit","Deregeçit","Monagra","Monarga","Monarka","Μοναργά"],"lon":33.94765,"lat":35.31354,"pop":0},{"id":146292,"name":"Moni","lon":33.2,"lat":34.73333,"pop":403},{"id":146291,"name":"Moniátis","alt":["Elmali","Elmalı","Moniat","Moniatis","Monyat","Μονιάτης"],"lon":32.89758,"lat":34.86797,"pop":312},{"id":146289,"name":"Móra","alt":["Meric","Meriç","Mora","Morkoy","Morköy","Μόρα"],"lon":33.55079,"lat":35.17505,"pop":0},{"id":146286,"name":"Mórfou","alt":["Guzelkoy","Guzelyurt","Güzelköy","Güzelyurt","Morfou","Morphou","Omorfo","Μόρφου"],"lon":32.99338,"lat":35.19869,"pop":24070},{"id":146288,"name":"Moró Neró","alt":["Kucuksu","Küçüksu","Moro Nero","Moron Nero","Moronero","Μωρό Νερό"],"lon":32.52589,"lat":34.81298,"pop":0},{"id":146284,"name":"Mosfilerí","alt":["Mosfileri","Mosphileri","Mosphili","Μοσφιλερή"],"lon":32.63091,"lat":35.1804,"pop":0},{"id":146283,"name":"Mosfilotí","alt":["Mosfiloti","Mosphiloti","Μοσφιλωτή"],"lon":33.42518,"lat":34.95322,"pop":1158},{"id":146282,"name":"Mótides","alt":["Incesu","Mothides","Motides","Motidhes","İncesu","Μότηδες"],"lon":33.20733,"lat":35.33485,"pop":0},{"id":146280,"name":"Moúsere","alt":["Mousere","Musere","Μούσερε"],"lon":32.71546,"lat":34.77084,"pop":0},{"id":146279,"name":"Mousoulíta","alt":["Kurudera","Kurudere","Mousoulita","Musulita","Μουσουλίτα"],"lon":33.64061,"lat":35.19302,"pop":0},{"id":146277,"name":"Moutoullás","alt":["Moutoullas","Mudulla","Mutulla","Μουτουλλάς"],"lon":32.82516,"lat":34.9843,"pop":307},{"id":146278,"name":"Mouttagiáka","alt":["Moutayaka","Moutayiaka","Mouttagiaka","Mutayaka","Muthiyaka","Mutlayaka","Mutluyaka","Muttayaka","Μουτταγιάκα"],"lon":33.10066,"lat":34.72022,"pop":2818},{"id":12110834,"name":"Mouttalos","alt":["Mouttallos","Μούτταλλος"],"lon":32.41379,"lat":34.76095,"pop":0},{"id":146298,"name":"Mylikoúri","alt":["Miligur","Milikouri","Milikuri","Mylikouri","Μυλικούρι"],"lon":32.75094,"lat":34.96192,"pop":41},{"id":146275,"name":"Mýrtou","alt":["Camlibel","Camlıbel","Mirti","Myrtou","Çamlıbel","Μύρτου"],"lon":33.07101,"lat":35.3073,"pop":0},{"id":414480,"name":"Namık Kemal","lon":33.94167,"lat":35.11667,"pop":0},{"id":146273,"name":"Natá","alt":["Nata","Taslica","Taşlıca","Νατά"],"lon":32.57121,"lat":34.77823,"pop":169},{"id":18479,"name":"Néa Dímmata","alt":["Nea Dhimmata","Nea Dimmata","Nea Dimmatya","Νέα Δήμματα"],"lon":32.52695,"lat":35.13732,"pop":6},{"id":11902905,"name":"Neapoli","alt":["Νεάπολη"],"lon":33.06354,"lat":34.68907,"pop":0},{"id":11983560,"name":"Nempetchane","alt":["Νεμπετχανέ"],"lon":33.36033,"lat":35.17406,"pop":0},{"id":146271,"name":"Neo Chorio","alt":["Neo Chorio Pafou","Neo Chorio  Paphos","Neohoryo","Neokhorio","Neokhorion","Neon Chorion","Yenije Keuy","Yenikoy","Yeniköy","Νέο Χωριό","Νέο Χωριό Πάφου"],"lon":32.36472,"lat":35.02528,"pop":0},{"id":146270,"name":"Néo Chorió","alt":["Minareli Keuy","Minarelikoy","Minareliköy","Neo Chorio","Neohoryo","Neokhoria","Neokhorio","Neon Chorion","Νέο Χωριό"],"lon":33.47573,"lat":35.23481,"pop":0},{"id":146269,"name":"Néta","alt":["Neta","Taslica","Taşlıca","Νέτα"],"lon":34.2146,"lat":35.46959,"pop":0},{"id":146268,"name":"Nicosia","alt":["An Leafcois","An Leafcóis","Lefkosa","Lefkosha","Lefkosia","Lefkosian","Lefkosía","Lefkoşa","Leucosia","NIC","Nekoseje","Nicosea","Nicosia (Lefkosia)","Nicosia - Leukosia","Nicosia - Λευκωσία","Nicosie","Nicoséa","Nicosìa","Nicusia","Nicusìa","Nicòsia","Nicósia","Nikasija","Nikosi","Nikosia","Nikosie","Nikosii","Nikosij","Nikosija","Nikosija osh","Nikosiya","Nikozi","Nikozia","Nikozija","Nikozio","Nikozja","Nikósie","Nikósía","Nikózia","Niqusya","Nėkosėjė","ni ke xi ya","ni kho seiy","nikkeasya","nikkociya","nikojya","nikoshia","nikosi'a","nikosia","nikosiya","nikozia","nykwsya","nykwzya","nyqwsya","nyqwsyh","Λευκωσία","Λευκωσίαν","Лефкоша","Никозия","Никозија","Никоси","Никосий","Никосия","Никосия ош","Нікасія","Нікосія","Նիկոսիա","ניקאסיע","ניקוסיה","نىكوسىيە","نيقوسيا","نيكوسيا","نیکوزیا","نیکوسیا","نیکۆسیا","निकोज्या","निकोसिया","নিকোসিয়া","ਨਿਕੋਸੀਆ","ନିକୋସିଆ","நிக்கோசியா","ನಿಕೋಸಿಯ","നിക്കോഷ്യ","นิโคเซีย","ནེ་ཁོ་ཤི་ཡ།","ნიქოზია","ሌፍኮዚያ","ニコシア","尼科西亚","尼科西亞","니코시아"],"lon":33.3642,"lat":35.17531,"pop":200452},{"id":146266,"name":"Nikitári","alt":["Nicidari","Nicitar","Nikitari","Nıkıtarı","Νικητάρι"],"lon":32.99326,"lat":35.07332,"pop":445},{"id":146265,"name":"Nikítas","alt":["Guneskoy","Güneşköy","Nicida","Nikita","Nikitas","Νικήτας"],"lon":32.95717,"lat":35.1763,"pop":0},{"id":146264,"name":"Nikókleia","alt":["Nikokla","Nikokleia","Nikoklia","Nikoklo","Nikolia","Νικόκλεια"],"lon":32.57744,"lat":34.72895,"pop":110},{"id":19738,"name":"Nikoloudes","alt":["Hajinikoloues"],"lon":33.88064,"lat":35.29523,"pop":0},{"id":146260,"name":"Nísou","alt":["Dizdar Keuy","Dizdarkoy","Dizdarköy","Nisou","Nisu","Nisuyu","Νήσου"],"lon":33.39346,"lat":35.02072,"pop":0},{"id":20050,"name":"Ntaoút","alt":["Daoud","Ntaout","Νταούτ"],"lon":33.47444,"lat":35.33069,"pop":0},{"id":146259,"name":"Odoú","alt":["Odhou","Odou","Odu","Οδοú"],"lon":33.1507,"lat":34.88535,"pop":163},{"id":146263,"name":"Oíkos","alt":["Ikos","Niko","Nikos","Ockos","Oikos","Οίκος"],"lon":32.82771,"lat":34.99715,"pop":195},{"id":11983586,"name":"Omerie","alt":["Ομεριέ"],"lon":33.36561,"lat":35.17383,"pop":0},{"id":146256,"name":"Ómodos","alt":["Omodhos","Omodos","Όμοδος"],"lon":32.80893,"lat":34.84828,"pop":325},{"id":11888071,"name":"Omonoia","alt":["Ομόνοια"],"lon":33.01796,"lat":34.66858,"pop":0},{"id":146255,"name":"Omorfíta","alt":["Kuchuk Kaimakli","Kucuk Kaymakli","Küçük Kaymaklı","Omorfita","Omorphita","Ομορφίτα"],"lon":33.37448,"lat":35.18946,"pop":0},{"id":146254,"name":"Orá","alt":["Ora","Ora  Cyprus","Ορά"],"lon":33.1956,"lat":34.86236,"pop":187},{"id":146253,"name":"Órga","alt":["Kayalar","Orga","Όργα"],"lon":33.03322,"lat":35.35823,"pop":0},{"id":146252,"name":"Ormidhia","alt":["Ormideia","Ormidia","Ormidya","Ormiteia","Ormitya","Ορμήδεια"],"lon":33.77721,"lat":34.99176,"pop":0},{"id":146251,"name":"Orníthi","alt":["Ekmekciler","Ekmekciler Damlari","Ekmekçiler Damlari","Ornita","Ornithi","Orniti","Ornuta","Orunta","Tatli Sou","Tavukcu","Tavukçu","Ορνίθι"],"lon":33.57208,"lat":35.15586,"pop":0},{"id":146250,"name":"Oroúnta","alt":["Kato Mom","Orounda","Orounta","Orunda","Ορούντα"],"lon":33.09357,"lat":35.10123,"pop":687},{"id":146249,"name":"Ortákioi","alt":["Minzelli","Orta Keuy","Ortakioi","Ortakoi","Ortakoy","Ortaköy","Ορτάκιοι"],"lon":33.33857,"lat":35.20221,"pop":0},{"id":146248,"name":"Óvgoros","alt":["Ergazi","Ovgoros","Όβγορος"],"lon":33.93836,"lat":35.36594,"pop":0},{"id":146509,"name":"Ozanköy","alt":["Kazabifan","Kazafana","Kazafani","Ozankoy"],"lon":33.35,"lat":35.31667,"pop":0},{"id":146245,"name":"Páchna","alt":["Pachna","Pahna","Pakhna","Πάχνα"],"lon":32.79355,"lat":34.77874,"pop":1008},{"id":146244,"name":"Pachýammos","alt":["Pachyammos","Paciammo","Pahiammos","Pakhy Amjnos","Pakhyammos","Pakky Ammos","Pakký Ammos","Pasiammo","Paçiammo","Paşiammo","Παχύαμμος"],"lon":32.58475,"lat":35.17157,"pop":101},{"id":11952700,"name":"Palaia Ammochostos","alt":["Παλαιά Αμμόχωστος"],"lon":33.94178,"lat":35.12635,"pop":0},{"id":146241,"name":"Palaichóri","alt":["Palaichori","Palehor","Palekhori","Palekhori Orinis","Paleokhorio","Paloeokhorio","Palœokhorio","Palœókhorio","Παλαιχώρι"],"lon":33.09188,"lat":34.92274,"pop":0},{"id":146240,"name":"Palaíkythro","alt":["Balikesir","Balikitre","Balıkesır","Palaekythro","Palaikythro","Palekythro","Palikitre","Παλαίκυθρο"],"lon":33.49299,"lat":35.20754,"pop":0},{"id":146239,"name":"Palaiométocho","alt":["Balyametos","Balyametoş","Eskimetos","Eskimetoş","Palaeo Metokhi","Palaiometocho","Palaiometochon","Palaiometokho","Palaıometokho","Paleometokhi","Paleometokho","Paleomotoho","Palyometoho","Palæó Metókhi","Παλαιομέτοχο"],"lon":33.19099,"lat":35.12489,"pop":0},{"id":146238,"name":"Palaiómylos","alt":["Eskielma","Palaeomylos","Palaiomylos","Paleomilo","Paleomylos","Palyomilo","Palæomylos","Παλαιόμυλος"],"lon":32.82208,"lat":34.93522,"pop":32},{"id":146237,"name":"Palaiósofos","alt":["Balyosofa","Balyosofo","Malatya","Palaeosophos","Palaiosofos","Paleosophos","Palyosofo","Palæosophos","Παλαιόσοφος"],"lon":33.20711,"lat":35.32561,"pop":0},{"id":146235,"name":"Palodeia","alt":["Palodhia","Palodiya","Palodya","Παλόδεια"],"lon":33.00578,"lat":34.74504,"pop":762},{"id":146233,"name":"Pallouriótissa","alt":["Paliouriotissa","Pallouriotissa","Palouriotissa","Panagia","Παλλουριώτισσα","Παναγία"],"lon":33.39073,"lat":35.17592,"pop":0},{"id":5730,"name":"Pampoula","alt":["Pamboula"],"lon":32.9125,"lat":34.675,"pop":0},{"id":11902762,"name":"Panagia Evangelistria","alt":["Παναγία Ευαγγελίστρια"],"lon":33.00601,"lat":34.71291,"pop":0},{"id":11978232,"name":"Panagia Evangelistria","alt":["Παναγία Ευαγγελίστρια"],"lon":33.42299,"lat":35.02379,"pop":0},{"id":11903082,"name":"Panagia Evangelístria (Polemidhia)","alt":["Panagia Evangelistria","Panagia Evangelístria","Παναγία Ευαγγελίστρια"],"lon":33.00083,"lat":34.69368,"pop":0},{"id":146231,"name":"Pánagra","alt":["Gecitkoy","Geçitköy","Panagra","Πάναγρα"],"lon":33.06849,"lat":35.334,"pop":0},{"id":146229,"name":"Páno Akourdáleia","alt":["Pano Akourdaleia","Pano Akourdalia","Pano Akourdhalia","Pano Akourdália","Pano Akurdalya","Πάνω Ακουρδάλεια","Πάνω Ακουρδάλια"],"lon":32.44446,"lat":34.94186,"pop":27},{"id":146228,"name":"Páno Amíantos","alt":["Pano Amiandos","Pano Amiantos","Pano Amiyando","Yukari Amyanto","Yukarı Amyanto","Πάνω Αμίαντος"],"lon":32.91728,"lat":34.92781,"pop":3},{"id":146227,"name":"Páno Archimandríta","alt":["Arkhimandrita","Pano Archimandrita","Pano Arhimandrita","Pano Arkhimandrita","Yukari Arhimandrita","Yukarı Arhimandrita","Πάνω Αρχιμανδρίτα"],"lon":32.67812,"lat":34.75094,"pop":44},{"id":146226,"name":"Páno Aródes","alt":["Pano Arodes","Pano Arodhes","Yukari Arodez","Yukari Kalkanli","Yukarı Arodez","Yukarı Kalkanlı","Πάνω Αρόδες"],"lon":32.40716,"lat":34.93613,"pop":113},{"id":146225,"name":"Páno Defterá","alt":["Deftera Pano","Defterá Pano","Pano Deftera","Pano Dheftera","Yukari Deftera","Yukarı Deftera","Πάνω Δευτερά"],"lon":33.26584,"lat":35.07778,"pop":1983},{"id":146224,"name":"Páno Díkomo","alt":["Pano Dhikomo","Pano Dikomo","Pano Dikomon","Upper Dikomo","Yukari Dikmen","Yukari Dikomo","Yukarı Dikmen","Yukarı Dikomo","Πάνω Δίκωμο"],"lon":33.32179,"lat":35.27771,"pop":0},{"id":146218,"name":"Páno Flásou","alt":["Flasou","Flasu","Flâsu","Pano Flasou","Pano Flasu","Pano Phlasou","Pano Vlaso","Phlasou","Páno Vláso","Vlaso","Yukari Flasa","Yukarı Flasa","Πάνω Φλάσου","Φλάσου"],"lon":32.88869,"lat":35.06886,"pop":265},{"id":11952708,"name":"Pano Geitonia","alt":["Πάνω Γειτονιά"],"lon":33.19666,"lat":35.33584,"pop":0},{"id":146223,"name":"Páno Kivídes","alt":["Alsandik","Alsandık","Kividhes","Pano Civiya","Pano Kivides","Pano Kividhes","Yukari Alsandik","Yukarı Alsandık","Πάνω Κιβίδες"],"lon":32.85725,"lat":34.75743,"pop":703},{"id":146222,"name":"Páno Koutrafás","alt":["Pano Koutrafas","Pano Koutrapha","Pano Koutraphas","Pano Kutrafa","Yukari Kurtbogan","Yukari Kutrafas","Yukarı Kurtboğan","Yukarı Kutrafas","Πάνω Κουτραφάς"],"lon":32.9894,"lat":35.09602,"pop":0},{"id":11952703,"name":"Pano Kyrenia","alt":["Pano Keryneia","Πάνω Κερύνεια"],"lon":33.31464,"lat":35.33269,"pop":0},{"id":146221,"name":"Páno Lakatámeia","alt":["Lakadamya","Lâkadamya","Pano Lakatameia","Pano Lakatamia","Pano Lakkatamia","Páno Lakkatámia","Yukari Lakadamya","Yukari Lakatamya","Yukarı Lakadamya","Yukarı Lakatamya","Πάνω Λακατάμεια"],"lon":33.30299,"lat":35.10295,"pop":0},{"id":146220,"name":"Páno Léfkara","alt":["Lefkara","Pano Lefkara","Pano-Lefkara","Yukari Lefkara","Yukarı Lefkara","Πάνω Λεύκαρα","Пано-Лефкара"],"lon":33.28333,"lat":34.81667,"pop":957},{"id":146219,"name":"Pano Panagia","alt":["Πάνω Παναγία"],"lon":32.63155,"lat":34.91954,"pop":564},{"id":146217,"name":"Páno Plátres","alt":["Pano Platraes","Pano Platres","Platres","Páno Plátræs","Yukari Platres","Yukarı Platres","Πάνω Πλάτρες"],"lon":32.85967,"lat":34.88664,"pop":201},{"id":146216,"name":"Páno Polemídia","alt":["Pano Polemidhia","Pano Polemidia","Pano Polemidya","Polemidia","Yukari Binatli","Yukari Polemitya","Yukarı Binatlı","Yukarı Polemitya","Πάνω Πολεμίδια"],"lon":32.99269,"lat":34.70559,"pop":3781},{"id":18252,"name":"Páno Pýrgos","alt":["Pano Pyrgos","Πάνω Πύργος"],"lon":32.68235,"lat":35.15491,"pop":31},{"id":146215,"name":"Páno Zódeia","alt":["Pano Zodeia","Pano Zodhia","Pano Zodia","Páno Zodia","Yukari Bostanci","Yukari Zodya","Yukari Zotya","Yukarı Bostancı","Yukarı Zodya","Yukarı Zotya","Πάνω Ζώδεια"],"lon":33.01504,"lat":35.16362,"pop":0},{"id":11903073,"name":"Panthea","alt":["Πάνθεα"],"lon":33.04117,"lat":34.71166,"pop":0},{"id":146214,"name":"Paphos","alt":["Baf","Gazibaf","Nea Pafos","Nea Paphos","Néa Páfos","PFO","Pafo","Pafos","Páfos","Πάφος","Παφος","Пафос"],"lon":32.42451,"lat":34.77679,"pop":35961},{"id":12110827,"name":"Paphos Municipality","alt":["Dimos Pafou","Δήμος Πάφου"],"lon":32.42291,"lat":34.77441,"pop":0},{"id":146209,"name":"Paralímni","alt":["Paralim","Paralimni","Paralımnı","Παραλίμνι"],"lon":33.98181,"lat":35.03945,"pop":11836},{"id":146207,"name":"Paramáli","alt":["Cayonu","Paramal","Paramali","Çayönü","Παραμάλι"],"lon":32.79921,"lat":34.69406,"pop":153},{"id":146205,"name":"Paramýtha","alt":["Paramiha","Paramita","Paramitha","Paramytha","Παραμύθα"],"lon":32.99464,"lat":34.76075,"pop":343},{"id":146204,"name":"Parekklisha","alt":["Parekklisia","Pareklisa","Pareklisha","Pareklişa"],"lon":33.15833,"lat":34.74583,"pop":1382},{"id":146203,"name":"Parsáta","alt":["Barsata","Parsa","Parsada","Parsata","Παρσάτα"],"lon":33.26621,"lat":34.8265,"pop":0},{"id":146202,"name":"Patríki","alt":["Batric","Batriç","Patric","Patriki","Patriç","Tuzluca","Πατρίκι"],"lon":33.99652,"lat":35.36315,"pop":0},{"id":146200,"name":"Pedoulás","alt":["Pedhoulas","Pedoulas","Pedula","Πεδουλάς"],"lon":32.82901,"lat":34.96804,"pop":199},{"id":146175,"name":"Pégeia","alt":["Dimos Pegeias","Pegeia","Peya","Peyia","Δήμος Πέγειας","Πέγεια"],"lon":32.38188,"lat":34.88385,"pop":2462},{"id":146199,"name":"Pelathoúsa","alt":["Karaagac","Karaağaç","Pelathousa","Pelathusa","Pelatusa","Πελαθούσα"],"lon":32.47601,"lat":35.02757,"pop":51},{"id":146198,"name":"Peléndri","alt":["Belendri","Pelendri","Pelendria","Πελένδρι"],"lon":32.96817,"lat":34.89597,"pop":1237},{"id":146194,"name":"Pentágeia","alt":["Bendaya","Pendaya","Pendayia","Pentageia","Yesilyurt","Yeşilyurt","Πεντάγεια"],"lon":32.88478,"lat":35.15331,"pop":0},{"id":146197,"name":"Pentákomo","alt":["Besevler","Beşevler","Pendakoma","Pendakomo","Pentakomo","Pentakomon","Πεντάκωμο"],"lon":33.24085,"lat":34.73785,"pop":0},{"id":146196,"name":"Pentaliá","alt":["Pendalia","Pendalya","Pendelya","Pentalia","Πενταλιά"],"lon":32.62068,"lat":34.85599,"pop":71},{"id":146192,"name":"Péra","alt":["Pera","Πέρα"],"lon":33.25413,"lat":35.0335,"pop":1060},{"id":146191,"name":"Péra Chorió","alt":["Pera Chorio","Pera Chorion","Pera Horio","Pera Horıo","Perachorio","Perahorio","Perahorya","Perahoryo","Perakhorio","Πέρα Χωριό"],"lon":33.39386,"lat":35.01202,"pop":0},{"id":146190,"name":"Péra Pedí","alt":["Pera Pedi","Perapedhi","Πέρα Πεδί"],"lon":32.87572,"lat":34.85981,"pop":0},{"id":146189,"name":"Pérgamos","alt":["Beyarmudu","Pergama","Pergamos","Πέργαμος","Пергамос"],"lon":33.70833,"lat":35.04167,"pop":15000},{"id":146186,"name":"Peristeróna","alt":["Alanici","Alaniçi","Peristerona","Piyi Peristerona","Περιστερώνα"],"lon":33.76099,"lat":35.21784,"pop":0},{"id":146187,"name":"Peristeróna","alt":["Peristerona","Perısterona","Περιστερώνα"],"lon":33.07858,"lat":35.12928,"pop":2190},{"id":146188,"name":"Peristeróna","alt":["Peristerona","Peristerona Chrysochous","Περιστερώνα","Περιστερώνα Χρυσοχούς"],"lon":32.49007,"lat":34.99048,"pop":0},{"id":146184,"name":"Peristeronári","alt":["Cavuslari","Cengizkoy","Cengizköy","Gengizkoy","Gengizköy","Narlikoy","Narliköy","Peristerona","Peristeronar","Peristeronari","Περιστερωνάρι"],"lon":32.8651,"lat":35.13262,"pop":0},{"id":146182,"name":"Perivólia","alt":["Bahcalar","Bahceler","Bahçalar","Bahçeler","Perivolia","Perivolia tou Tricomou","Perivolia tou Trikomou","Perivolya","Pervolya Trikomu","Tricomo Bahceler","Περιβόλια"],"lon":33.91007,"lat":35.28624,"pop":0},{"id":146183,"name":"Perivólia","alt":["Bahcalar","Bahceler","Bahçalar","Bahçeler","Bervolya","Perivolia","Perivolya","Περιβόλια"],"lon":33.58272,"lat":34.82894,"pop":1876},{"id":414483,"name":"Pertevpaşa","lon":33.94167,"lat":35.10833,"pop":0},{"id":146180,"name":"Pétra","alt":["Dereli","Petra","Petre","Taskoy","Taşköy","Πέτρα"],"lon":32.90845,"lat":35.10928,"pop":0},{"id":146179,"name":"Pétra tou Digení","alt":["Petra tou Dhiyeni","Petra tou Digeni","Petraduyeni","Yenicekoy","Yeniceköy","Yenije Keuy","Πέτρα του Διγενή"],"lon":33.54641,"lat":35.23804,"pop":0},{"id":146176,"name":"Petrofáni","alt":["Boduragac","Bodurağaç","Esendag","Esendağ","Petrofan","Petrofani","Petrophani","Πετροφάνι"],"lon":33.50903,"lat":35.03125,"pop":0},{"id":11952709,"name":"Petrogeitonia","alt":["Πετρογειτονιά"],"lon":33.2012,"lat":35.34745,"pop":0},{"id":146147,"name":"Pigénia","alt":["Pienia","Pigaenia","Pigenia","Pigenya","Pigænia","Piyenia","Piğenya","Πηγένια"],"lon":32.65432,"lat":35.1676,"pop":129},{"id":146146,"name":"Pigí","alt":["Alanici","Alaniçi","Pigi","Piyi","Πηγή"],"lon":33.75963,"lat":35.22674,"pop":0},{"id":146151,"name":"Piléri","alt":["Goceri","Göçeri","Pileri","Πιλέρι"],"lon":33.21786,"lat":35.29099,"pop":0},{"id":146150,"name":"Pissoúri","alt":["Pissouri","Pissuri","Πισσούρι"],"lon":32.70132,"lat":34.66942,"pop":1078},{"id":146148,"name":"Pitargoú","alt":["Akkargi","Akkargı","Pitargou","Pitargu","Pitarkou","Πιταργού","Πιταρκού"],"lon":32.5337,"lat":34.83737,"pop":0},{"id":414482,"name":"Piyalepaşa","alt":["Kamilpasa","Kamilpaşa","Piyalepasa"],"lon":33.92917,"lat":35.1125,"pop":0},{"id":146144,"name":"Platáni","alt":["Bladan","Cinarli","Platani","Çinarlı","Çınarlı","Πλατάνι"],"lon":33.75179,"lat":35.33305,"pop":0},{"id":146143,"name":"Platánia","alt":["Platania","Platanya","Πλατάνια"],"lon":32.92649,"lat":34.94824,"pop":0},{"id":146141,"name":"Platanissós","alt":["Balalan","Balalau","Bladanisyo","Blâdanisyo","Platanisso","Platanissos","Πλατανισσός"],"lon":34.10682,"lat":35.47866,"pop":0},{"id":146140,"name":"Platanistása","alt":["Pladanistasa","Platanistasa","Platanistassa","Πλατανιστάσα"],"lon":33.0461,"lat":34.94714,"pop":180},{"id":146142,"name":"Platanísteia","alt":["Camlica","Pladanisya","Plataniskia","Platanisteia","Platanisya","Plâdanisya","Çamlıca","Πλατανίστεια"],"lon":32.71091,"lat":34.71242,"pop":45},{"id":146139,"name":"Platymátis","alt":["Bladimat","Gozubuyuk","Gözübüyük","Platimati","Platymatis","Πλατυμάτης"],"lon":33.50277,"lat":35.32335,"pop":0},{"id":146138,"name":"Polémi","alt":["Polem","Polemi","Πολέμι"],"lon":32.50712,"lat":34.88613,"pop":848},{"id":12110832,"name":"Polis","alt":["Dimos Poleos Chrysochous","Poli Chrysochous","Polis  Cyprus","Δήμος Πόλεως Χρυσοχούς","Πόλη Χρυσοχούς"],"lon":32.4255,"lat":35.03403,"pop":0},{"id":146137,"name":"Pólis","alt":["Poli","Polis","Polis Chrysochous","Πόλις"],"lon":32.4255,"lat":35.03403,"pop":1975},{"id":146136,"name":"Politikó","alt":["Politikio","Politiko","Politikon","Politikón","Polıtıko","Πολιτικό","Πολιτικόν"],"lon":33.24333,"lat":35.0274,"pop":384},{"id":146135,"name":"Polýstypos","alt":["Polistipos","Polystipos","Polystypos","Πολύστυπος"],"lon":33.01832,"lat":34.93949,"pop":181},{"id":146134,"name":"Pomós","alt":["Pomo","Pomos","Πομός","Πωμός"],"lon":32.54574,"lat":35.16037,"pop":593},{"id":146132,"name":"Potámi","alt":["Dereler","Potami","Potamı","Ποτάμι"],"lon":33.02982,"lat":35.10439,"pop":581},{"id":146131,"name":"Potamiá","alt":["Bodamya","Derelikoy","Dereliköy","Potamia","Potamya","Ποταμιά"],"lon":33.44532,"lat":35.04216,"pop":433},{"id":146130,"name":"Potamioú","alt":["Bodamyu","Potamiou","Potamyu","Ποταμιού"],"lon":32.80672,"lat":34.82408,"pop":34},{"id":146129,"name":"Potamítissa","alt":["Potamitissa","Ποταμίτισσα"],"lon":32.98973,"lat":34.90734,"pop":73},{"id":16561,"name":"Potamós tou Kámpou","alt":["Potamo tu Kambu","Potamos tou Kambou","Potamos tou Kampou","Yedidalga","Ποταμός του Κάμπου"],"lon":32.80789,"lat":35.14373,"pop":0},{"id":146121,"name":"Praitóri","alt":["Praetori","Praitori","Pretori","Prætori","Πραιτώρι"],"lon":32.74579,"lat":34.84902,"pop":55},{"id":146122,"name":"Prastió","alt":["Dortyol","Dörtyol","Prastio","Prastion","Prastyo","Πραστιό"],"lon":33.75773,"lat":35.17538,"pop":0},{"id":146123,"name":"Prastió","alt":["Aydinkoy","Aydinli","Aydınköy","Prasdyo","Prastio","Prastio Morphou","Prastion","Prastyo","Πραστιό"],"lon":32.93962,"lat":35.17582,"pop":0},{"id":146124,"name":"Prastió","alt":["Prastio","Prastion","Prastyo","Πραστιό"],"lon":33.14292,"lat":34.81144,"pop":0},{"id":146125,"name":"Prastió","alt":["Prasteio","Prasteio Kelokedaron","Prastio","Prastio  Paphos","Prastion","Prastyo","Yuvali","Yuvalı","Πραστειό","Πραστειό Κελοκεδάρων","Πραστιό"],"lon":32.69377,"lat":34.79145,"pop":0},{"id":146126,"name":"Prastió","alt":["Celiktas","Prastio","Prastio Evdhimou","Prastion","Prastyo","Prasyo","Çeliktaş","Πραστιό"],"lon":32.77882,"lat":34.7305,"pop":0},{"id":146120,"name":"Prodromi","alt":["Karsiyaka","Karşıyaka","Prodhomi","Prodhromi","Prodhromos","Prodromos"],"lon":32.41764,"lat":35.02731,"pop":0},{"id":11952718,"name":"Prodromos","alt":["Πρόδρομος"],"lon":33.17236,"lat":35.33776,"pop":102},{"id":146119,"name":"Pródromos","alt":["Prodhromos","Prodromo","Prodromos","Πρόδρομος"],"lon":32.83097,"lat":34.94875,"pop":0},{"id":18918,"name":"Protaras","alt":["Πρωταράς","Протарас"],"lon":34.05833,"lat":35.0125,"pop":20230},{"id":146116,"name":"Psathi","alt":["Ψάθι"],"lon":32.53306,"lat":34.89778,"pop":110},{"id":146115,"name":"Psematisménos","alt":["Psematismeno","Psematismenos","Psematizmeno","Yalanci koy","Yalancı köy","Ψεματισμένος"],"lon":33.3504,"lat":34.74952,"pop":187},{"id":146114,"name":"Psevdás","alt":["Pseftas","Psevda","Psevdas","Psevdhas","Ψευδάς"],"lon":33.46072,"lat":34.94478,"pop":1070},{"id":146112,"name":"Psimolofou","alt":["Psomolafa","Psomolof","Psomolopho","Psomolophou","Somolof","Ψιμολόφου"],"lon":33.2625,"lat":35.0625,"pop":1686},{"id":146113,"name":"Psyllátos","alt":["Ipsillat","Psilatos","Psillatos","Psyllatos","Sutluce","Sütlüce","İpsillât","Ψυλλάτος"],"lon":33.68727,"lat":35.25383,"pop":0},{"id":146110,"name":"Pýla","alt":["Pila","Pile","Pyla","Πύλα"],"lon":33.68907,"lat":35.00469,"pop":1434},{"id":146108,"name":"Pyrgá","alt":["Camlibel","Pirga","Pyrga","Çamlıbel","Πυργά"],"lon":33.4338,"lat":34.92585,"pop":0},{"id":146514,"name":"Pyrgá","alt":["Asagi Pyrgo","Aşağı Pyrgo","Camlibel","Kato Pyrgos","Pirga","Pirhan","Pyrga","Çamlıbel","Πυργά"],"lon":33.72671,"lat":35.18268,"pop":0},{"id":146107,"name":"Pyrgos","alt":["Pyrga"],"lon":33.18333,"lat":34.74167,"pop":1407},{"id":146106,"name":"Pyrógi","alt":["Gasiler","Gaziler","Piroi","Piroyi","Pyrogi","Pyroi","Πυρόγι"],"lon":33.49034,"lat":35.07642,"pop":0},