[{"id":3079843,"name":"Abertamy","alt":["Abertham"],"lon":12.81826,"lat":50.36874,"pop":1315},{"id":3079838,"name":"Adamov","alt":["Adamsthal"],"lon":17.02317,"lat":50.19615,"pop":0},{"id":3079839,"name":"Adamov","alt":["Adamsthal"],"lon":17.44457,"lat":50.13158,"pop":0},{"id":3079840,"name":"Adamov","lon":15.40891,"lat":49.85782,"pop":112},{"id":3079841,"name":"Adamov","alt":["Adamov u Brna","Adamova","Adamsthal","a da mo fu","adamovi","Адамов","ადამოვი","阿達莫夫"],"lon":16.65253,"lat":49.30162,"pop":4871},{"id":3079842,"name":"Adamov","lon":14.5395,"lat":49.00052,"pop":509},{"id":3079836,"name":"Adolfov","alt":["Adolfsgrun","Adolfsgrün"],"lon":13.90379,"lat":50.73543,"pop":0},{"id":3079835,"name":"Adolfovice","alt":["Adelsdorf"],"lon":17.19275,"lat":50.19932,"pop":0},{"id":3079834,"name":"Adršpach","alt":["Adersbach"],"lon":16.10857,"lat":50.61866,"pop":527},{"id":3079832,"name":"Ahníkov","alt":["Ahnikov","Hagensdorf"],"lon":13.32115,"lat":50.44024,"pop":0},{"id":3079831,"name":"Aichelburk","lon":14.96729,"lat":50.13279,"pop":0},{"id":3079830,"name":"Albeř","alt":["Alber","Albern"],"lon":15.13502,"lat":49.02752,"pop":0},{"id":3079829,"name":"Albeřice","lon":13.16629,"lat":50.16524,"pop":0},{"id":3079828,"name":"Alberov","alt":["Albernhof"],"lon":12.7,"lat":50.21667,"pop":0},{"id":3079827,"name":"Alberovice","lon":15.10603,"lat":49.64603,"pop":0},{"id":3079818,"name":"Albrechtice","alt":["Albertice","Olbersdorf"],"lon":15.03373,"lat":50.85795,"pop":0},{"id":3079819,"name":"Albrechtice","alt":["Albrechtsdorf"],"lon":15.28618,"lat":50.76008,"pop":0},{"id":3079820,"name":"Albrechtice","lon":15.06976,"lat":50.60471,"pop":0},{"id":3079821,"name":"Albrechtice","alt":["Ulbersdorf"],"lon":13.52012,"lat":50.55237,"pop":0},{"id":3079822,"name":"Albrechtice","alt":["Olbersdorf"],"lon":16.6447,"lat":49.92754,"pop":516},{"id":3079823,"name":"Albrechtice","lon":15.17027,"lat":49.89581,"pop":0},{"id":3079824,"name":"Albrechtice","lon":18.52444,"lat":49.78645,"pop":4019},{"id":3079825,"name":"Albrechtice","lon":16.18561,"lat":49.5212,"pop":0},{"id":3079826,"name":"Albrechtice","lon":14.09976,"lat":49.19751,"pop":0},{"id":3079817,"name":"Albrechtice nad Orlicí","lon":16.06437,"lat":50.13979,"pop":1063},{"id":3079816,"name":"Albrechtice nad Vltavou","alt":["Albrechtice","Albrechtitz"],"lon":14.30283,"lat":49.25323,"pop":822},{"id":3079815,"name":"Albrechtice u Rýmařova","alt":["Albrechtice","Olbersdorf"],"lon":17.32492,"lat":49.90934,"pop":0},{"id":3079814,"name":"Albrechtice u Sušice","alt":["Albrechtice u Susice","Albrechtsried"],"lon":13.56605,"lat":49.203,"pop":0},{"id":3079813,"name":"Albrechtičky","alt":["Klein Olbersdorf"],"lon":18.09552,"lat":49.70169,"pop":674},{"id":3079812,"name":"Albrechtovice","alt":["Albrechtschlag"],"lon":13.96667,"lat":48.96667,"pop":0},{"id":3079811,"name":"Alenina Lhota","lon":14.5229,"lat":49.52599,"pop":0},{"id":3079810,"name":"Alexovice","lon":16.3559,"lat":49.09101,"pop":0},{"id":3079809,"name":"Alfrédov","lon":13.03333,"lat":49.68333,"pop":0},{"id":3079807,"name":"Aloisov","lon":14.54616,"lat":50.10098,"pop":0},{"id":3079805,"name":"Alojzov","lon":16.89277,"lat":49.99213,"pop":0},{"id":3079806,"name":"Alojzov","lon":17.04148,"lat":49.42344,"pop":222},{"id":3079804,"name":"Alšovice","lon":15.23233,"lat":50.677,"pop":0},{"id":3079802,"name":"Alžbětin","alt":["Alzbetin","Elisenthal"],"lon":13.21032,"lat":49.12668,"pop":0},{"id":3079800,"name":"Amalie","lon":13.84572,"lat":50.10592,"pop":0},{"id":3079798,"name":"Amerika","alt":["Novy York","Nový York"],"lon":14.9,"lat":48.9,"pop":0},{"id":6285771,"name":"Anděl","lon":14.40405,"lat":50.072,"pop":0},{"id":3079797,"name":"Andělka","alt":["Andelka","Engelsdorf"],"lon":14.99357,"lat":51.00232,"pop":0},{"id":3079793,"name":"Andělská Hora","alt":["Andelska Hora","Engelsberg"],"lon":14.95782,"lat":50.80263,"pop":0},{"id":3079794,"name":"Andělská Hora","alt":["Engelhaus","Englhaus"],"lon":12.9628,"lat":50.20438,"pop":203},{"id":3079795,"name":"Andělská Hora","alt":["Engelsberg"],"lon":17.38909,"lat":50.06081,"pop":362},{"id":3079792,"name":"Andělské Žleby","alt":["Andelske Zleby","Engelsthal"],"lon":17.10822,"lat":50.10202,"pop":0},{"id":3079791,"name":"Andlerka","lon":17.1,"lat":49.55,"pop":0},{"id":3079790,"name":"Anenská Huť","lon":16.4,"lat":50.28333,"pop":0},{"id":3079789,"name":"Anenská Studánka","alt":["Konigsfeld","Kralovec","Kunzvald","Kunžvald","Königsfeld"],"lon":16.54022,"lat":49.84976,"pop":188},{"id":3079788,"name":"Anenská Ves","alt":["Anenska Ves","Annadorf"],"lon":12.54935,"lat":50.20323,"pop":0},{"id":3079780,"name":"Annín","alt":["Annaberk","Annin"],"lon":17.09908,"lat":50.34825,"pop":0},{"id":3079781,"name":"Annín","alt":["Annaberk","Annin"],"lon":17.10739,"lat":50.10797,"pop":0},{"id":3079782,"name":"Annín","lon":17.2844,"lat":49.41988,"pop":0},{"id":3079783,"name":"Annín","alt":["Annath","Annin"],"lon":13.51241,"lat":49.17402,"pop":0},{"id":3079779,"name":"Annovice","lon":14.93716,"lat":49.30044,"pop":0},{"id":3079777,"name":"Antigel","lon":13.51162,"lat":49.05764,"pop":0},{"id":3079775,"name":"Antonínov","alt":["Antoninov","Antonsthal"],"lon":14.01311,"lat":50.78471,"pop":0},{"id":3079776,"name":"Antonínov","alt":["Antoninov","Antoniwald"],"lon":15.23124,"lat":50.78243,"pop":0},{"id":3079774,"name":"Antonínovo Údolí","alt":["Antoninovo Udoli","Dolni Sejfy","Dolní Sejfy","Thalseifen"],"lon":15.83568,"lat":50.62232,"pop":0},{"id":3079773,"name":"Antonka","lon":15.10294,"lat":49.30887,"pop":0},{"id":3079772,"name":"Antošovice","alt":["Antosovice"],"lon":18.31453,"lat":49.90369,"pop":0},{"id":3079771,"name":"Archlebov","alt":["Archlebau"],"lon":17.0048,"lat":49.04359,"pop":894},{"id":3079770,"name":"Arneštovice","lon":15.1178,"lat":49.53249,"pop":76},{"id":3079769,"name":"Arnoldov","alt":["Arletzgruen","Arletzgrun","Arletzgrün"],"lon":12.95036,"lat":50.34953,"pop":0},{"id":3079767,"name":"Arnolec","lon":15.82202,"lat":49.43614,"pop":181},{"id":3079768,"name":"Arnolec","alt":["Arnolzhof","Dvur Arnolec","Dvŭr Arnolec"],"lon":15.21667,"lat":48.98333,"pop":0},{"id":3079764,"name":"Arnoltice","alt":["Arnsdorf"],"lon":15.0963,"lat":50.95799,"pop":0},{"id":3079765,"name":"Arnoltice","alt":["Arnsdorf"],"lon":14.26394,"lat":50.83702,"pop":302},{"id":3079766,"name":"Arnoltice","alt":["Arnsdorf"],"lon":17.35394,"lat":49.8454,"pop":0},{"id":3079763,"name":"Arnoltícký Bor","lon":14.25,"lat":50.85,"pop":0},{"id":3079762,"name":"Arnoltov","alt":["Arnitzgrun","Arnitzgrün"],"lon":12.59272,"lat":50.11697,"pop":0},{"id":3079761,"name":"Arnoštka","alt":["Arnostka","Ernstberg"],"lon":13.776,"lat":49.00405,"pop":0},{"id":3079759,"name":"Arnoštov","lon":15.60272,"lat":50.46262,"pop":0},{"id":3079760,"name":"Arnoštov","alt":["Arnostov","Ernstbrunn"],"lon":13.99175,"lat":48.89213,"pop":0},{"id":3079758,"name":"Arnoštovice","lon":14.60404,"lat":49.61461,"pop":0},{"id":3079754,"name":"Arnultovice","alt":["Arnsdorf"],"lon":14.56667,"lat":50.76667,"pop":0},{"id":3079755,"name":"Arnultovice","alt":["Arnsdorf"],"lon":14.04606,"lat":50.71336,"pop":0},{"id":3079756,"name":"Arnultovice","alt":["Arnsdorf"],"lon":15.72332,"lat":50.55669,"pop":0},{"id":3079757,"name":"Arnultovice","alt":["Arnsdorf"],"lon":17.55761,"lat":50.25067,"pop":0},{"id":3079753,"name":"Artmanov","alt":["Erdmannsgrund"],"lon":17.53628,"lat":50.21343,"pop":0},{"id":3079752,"name":"Artolec","alt":["Artholz"],"lon":15.12951,"lat":49.00721,"pop":0},{"id":3079751,"name":"Aš","alt":["Asch","Ash","a shen","ashu","asi","Аш","アシュ","阿什","아시"],"lon":12.19499,"lat":50.22387,"pop":13210},{"id":3079750,"name":"Ascherwinkel","lon":17.56667,"lat":49.66667,"pop":0},{"id":3079745,"name":"Ava","alt":["Au"],"lon":12.45,"lat":50.1,"pop":0},{"id":3079739,"name":"Babčice","lon":14.89523,"lat":49.46868,"pop":0},{"id":3079738,"name":"Babětín","lon":14.22146,"lat":50.70581,"pop":0},{"id":3079736,"name":"Babí","alt":["Babi","Trautenbach"],"lon":15.90267,"lat":50.61794,"pop":0},{"id":3079737,"name":"Babí","alt":["Baby","Babý"],"lon":16.17385,"lat":50.42968,"pop":0},{"id":3079723,"name":"Babice","lon":15.58551,"lat":50.1921,"pop":204},{"id":3079724,"name":"Babice","lon":14.7158,"lat":50.00799,"pop":299},{"id":3079725,"name":"Babice","alt":["Pobitz"],"lon":12.808,"lat":50.00498,"pop":0},{"id":3079726,"name":"Babice","alt":["Babitz"],"lon":14.6248,"lat":49.87863,"pop":0},{"id":3079727,"name":"Babice","lon":17.26086,"lat":49.73783,"pop":405},{"id":3079728,"name":"Babice","lon":15.47511,"lat":49.63416,"pop":0},{"id":3079729,"name":"Babice","lon":15.05608,"lat":49.54047,"pop":0},{"id":3079730,"name":"Babice","lon":17.78787,"lat":49.45798,"pop":0},{"id":3079732,"name":"Babice","lon":17.48075,"lat":49.12167,"pop":1754},{"id":3079733,"name":"Babice","lon":15.76885,"lat":49.12423,"pop":211},{"id":3079734,"name":"Babice","alt":["Bowitz"],"lon":14.23758,"lat":49.02476,"pop":71},{"id":3079735,"name":"Babice","lon":16.4,"lat":48.98333,"pop":0},{"id":3079721,"name":"Babice nad Svitavou","alt":["Babice","Babitz"],"lon":16.69613,"lat":49.2833,"pop":861},{"id":3079731,"name":"Babice u Rosic","lon":16.35864,"lat":49.17317,"pop":0},{"id":3079720,"name":"Babičky","alt":["Babicky"],"lon":14.72583,"lat":50.00917,"pop":980},{"id":3079713,"name":"Babin","lon":15.08069,"lat":49.34132,"pop":0},{"id":3079714,"name":"Babín","lon":13.72682,"lat":49.34783,"pop":0},{"id":3079711,"name":"Babina","lon":13.42907,"lat":49.93741,"pop":0},{"id":3079709,"name":"Babiny Druhé","alt":["Babiny Druhe","Babiny II"],"lon":14.18135,"lat":50.64186,"pop":0},{"id":3079708,"name":"Babiny Přední","alt":["Babiny I.","Babiny Predni"],"lon":14.13135,"lat":50.60157,"pop":0},{"id":3079707,"name":"Babolky","lon":16.57991,"lat":49.5894,"pop":0},{"id":3079704,"name":"Babylon","lon":12.86278,"lat":49.39865,"pop":275},{"id":3079703,"name":"Bačalky","lon":15.15342,"lat":50.38495,"pop":165},{"id":3079701,"name":"Bačetín","alt":["Batschetin"],"lon":16.23522,"lat":50.30014,"pop":364},{"id":3079700,"name":"Bačice","lon":16.02748,"lat":49.08388,"pop":192},{"id":3079699,"name":"Bačkov","lon":15.45906,"lat":49.73291,"pop":147},{"id":3079698,"name":"Bačkovice","lon":15.58916,"lat":48.96755,"pop":127},{"id":3079695,"name":"Bacov","lon":15.21667,"lat":50.48333,"pop":0},{"id":3079696,"name":"Bačov","lon":16.64231,"lat":49.52616,"pop":0},{"id":3079697,"name":"Bácov","lon":18.2519,"lat":49.45285,"pop":0},{"id":3079694,"name":"Bácovice","lon":15.16732,"lat":49.47672,"pop":47},{"id":3079692,"name":"Bahenec","lon":18.82488,"lat":49.58244,"pop":0},{"id":3079691,"name":"Bahna","lon":16.56643,"lat":49.59631,"pop":0},{"id":3079689,"name":"Bahno","lon":15.23301,"lat":49.87013,"pop":0},{"id":3079690,"name":"Bahno","lon":18.35309,"lat":49.65667,"pop":0},{"id":3079688,"name":"Bajervek","lon":15.10912,"lat":50.06726,"pop":0},{"id":3079686,"name":"Bakov","lon":16.08639,"lat":50.43482,"pop":0},{"id":3079687,"name":"Bakov","lon":14.09602,"lat":50.26618,"pop":0},{"id":3079685,"name":"Bakov nad Jizerou","alt":["Bakow"],"lon":14.94149,"lat":50.4823,"pop":4417},{"id":3079682,"name":"Balda","alt":["Goldbrunn","Stasov-Balda","Stašov-Balda"],"lon":16.33583,"lat":49.67702,"pop":0},{"id":3079681,"name":"Baldovec","lon":16.82155,"lat":49.4106,"pop":0},{"id":3079678,"name":"Baliny","lon":15.95663,"lat":49.33547,"pop":116},{"id":3079677,"name":"Balková","alt":["Balkova","Walkowa"],"lon":13.29969,"lat":50.08435,"pop":0},{"id":3079676,"name":"Balkova Lhota","lon":14.60822,"lat":49.45202,"pop":122},{"id":3079674,"name":"Balkovy","lon":13.21767,"lat":49.44441,"pop":0},{"id":3079673,"name":"Bambousek","lon":13.45053,"lat":49.67996,"pop":0},{"id":3079672,"name":"Banín","alt":["Bohnau"],"lon":16.46192,"lat":49.66561,"pop":312},{"id":3079671,"name":"Bánov","lon":17.71752,"lat":48.98801,"pop":2095},{"id":3079670,"name":"Báňovice","lon":15.49024,"lat":49.01175,"pop":111},{"id":3079669,"name":"Bantice","alt":["Panditz"],"lon":16.18239,"lat":48.88309,"pop":216},{"id":3079666,"name":"Barbora","lon":13.73333,"lat":50.65,"pop":0},{"id":3079665,"name":"Barborka","lon":15.19386,"lat":49.3257,"pop":0},{"id":3079663,"name":"Barchov","lon":15.56763,"lat":50.1976,"pop":233},{"id":3079664,"name":"Barchov","lon":15.68081,"lat":49.99931,"pop":156},{"id":3079662,"name":"Barchovice","lon":14.9691,"lat":49.94425,"pop":206},{"id":3079661,"name":"Barchůvek","lon":15.55,"lat":50.21667,"pop":0},{"id":3079660,"name":"Barčov","alt":["Barcov"],"lon":14.70846,"lat":49.595,"pop":0},{"id":3079659,"name":"Bařice","lon":17.42692,"lat":49.24418,"pop":0},{"id":3079658,"name":"Bařiny","lon":18.11726,"lat":49.3106,"pop":0},{"id":3079657,"name":"Barochov","alt":["Barochow"],"lon":14.62951,"lat":49.86159,"pop":0},{"id":3079656,"name":"Barovice","lon":15.75082,"lat":49.76041,"pop":0},{"id":3079655,"name":"Barrandov","lon":14.39183,"lat":50.03774,"pop":0},{"id":3079654,"name":"Bartoňov","lon":16.87706,"lat":49.96668,"pop":0},{"id":3079652,"name":"Bartošovice","alt":["Batzdorf im Adlergebirge"],"lon":16.54816,"lat":50.16442,"pop":0},{"id":3079653,"name":"Bartošovice","alt":["Partschendorf"],"lon":18.05461,"lat":49.66884,"pop":1596},{"id":3079650,"name":"Bartoušov","lon":15.30884,"lat":50.35652,"pop":0},{"id":3079651,"name":"Bartoušov","alt":["Pattersdorf"],"lon":15.64686,"lat":49.58108,"pop":155},{"id":3079649,"name":"Bartovice","alt":["Bartelsdorf"],"lon":18.34536,"lat":49.79797,"pop":0},{"id":3079648,"name":"Bartultovice","alt":["Bartelsdorf"],"lon":17.58839,"lat":50.27419,"pop":0},{"id":3103786,"name":"Bartultovice","lon":17.58782,"lat":50.27464,"pop":0},{"id":3079647,"name":"Bärwinkel","lon":17.53333,"lat":49.86667,"pop":0},{"id":3079645,"name":"Baška","lon":18.37233,"lat":49.64584,"pop":3222},{"id":3079644,"name":"Bašnice","lon":15.60502,"lat":50.33448,"pop":205},{"id":3079643,"name":"Bašť","lon":14.4773,"lat":50.20514,"pop":503},{"id":3079641,"name":"Baštěk","lon":14.46281,"lat":50.20492,"pop":0},{"id":3079638,"name":"Bašty","lon":15.29598,"lat":50.00974,"pop":0},{"id":3079637,"name":"Batelov","alt":["Batelau","Battelau"],"lon":15.39465,"lat":49.31425,"pop":2388},{"id":3079636,"name":"Batín","lon":15.23002,"lat":50.41998,"pop":0},{"id":3079635,"name":"Batňovice","lon":16.05137,"lat":50.51261,"pop":687},{"id":3079634,"name":"Batouchovice","lon":15.90335,"lat":49.31183,"pop":0},{"id":3079632,"name":"Bavorov","alt":["Barau","ba wo luo fu","Баворов","巴沃羅夫"],"lon":14.07893,"lat":49.12184,"pop":1401},{"id":3079631,"name":"Bavorovice","alt":["Baurowitz","Bayorovice","Bevorovice"],"lon":14.44127,"lat":49.0241,"pop":0},{"id":3079630,"name":"Bavory","alt":["Pardorf"],"lon":16.62225,"lat":48.83469,"pop":398},{"id":3079629,"name":"Bavoryně","lon":13.96102,"lat":49.8958,"pop":180},{"id":3079627,"name":"Bažantnice","alt":["Bazantnice","Dvur Bazantnice","Dvŭr Bažantnice"],"lon":15.87201,"lat":48.91494,"pop":0},{"id":3079626,"name":"Bažantov","alt":["Bazantov","Wosant"],"lon":12.57071,"lat":49.74436,"pop":0},{"id":3079625,"name":"Bdeněves","alt":["Wenussen"],"lon":13.23518,"lat":49.76953,"pop":424},{"id":3079624,"name":"Bdín","lon":13.85874,"lat":50.21414,"pop":62},{"id":3079623,"name":"Běchárky","lon":15.3,"lat":50.3,"pop":0},{"id":3079622,"name":"Běchary","alt":["Gross Bechar","Gross Běchar"],"lon":15.29251,"lat":50.31403,"pop":219},{"id":3079621,"name":"Bechlejovice","alt":["Bachelsdorf"],"lon":14.24013,"lat":50.75306,"pop":0},{"id":3079620,"name":"Bechlín","lon":14.34092,"lat":50.41615,"pop":1150},{"id":3079618,"name":"Bechov","lon":15.08804,"lat":50.44,"pop":0},{"id":3079619,"name":"Bechov","lon":18.13333,"lat":49.21667,"pop":0},{"id":3079617,"name":"Běchovice","alt":["Bechowitz","Běchowitz"],"lon":14.61782,"lat":50.08105,"pop":0},{"id":3079616,"name":"Bechyně","alt":["Bechyn","Bechyne","Bekhine","bei xi nie","Бехине","Бехиње","貝希涅"],"lon":14.4681,"lat":49.29523,"pop":5755},{"id":3079615,"name":"Bechyňská Smoleč","alt":["Bechynska Smolec","Smolec","Smoleč"],"lon":14.5472,"lat":49.30946,"pop":0},{"id":3079613,"name":"Bečice","lon":14.55319,"lat":49.38267,"pop":75},{"id":3079614,"name":"Bečice","alt":["Becitz","Bečitz"],"lon":14.50122,"lat":49.21568,"pop":104},{"id":3079612,"name":"Bečkov","alt":["Beckov","Potschendorf"],"lon":16.00132,"lat":50.63181,"pop":0},{"id":3079610,"name":"Bečov","alt":["Petsch"],"lon":13.34496,"lat":50.50917,"pop":0},{"id":3079611,"name":"Bečov","alt":["Hochpetsch"],"lon":13.71784,"lat":50.44972,"pop":2072},{"id":3079609,"name":"Bečov nad Teplou","alt":["Bechov na Tepli","Bechov-nad-Teplou","Becov nad Teplou","Petschau","tai pu la he pan bei qiao fu","Бечов на Тепли","Бечов-над-Теплоу","泰普拉河畔貝喬夫"],"lon":12.83831,"lat":50.08345,"pop":976},{"id":3079607,"name":"Bečváry","alt":["Becwar","Bečwar"],"lon":15.07981,"lat":49.95671,"pop":982},{"id":3079606,"name":"Bečvice","lon":18.3588,"lat":49.41786,"pop":0},{"id":3079605,"name":"Bedihošť","alt":["Bedihoscht"],"lon":17.16643,"lat":49.44826,"pop":1002},{"id":3079604,"name":"Bedlno","lon":13.50649,"lat":50.12234,"pop":0},{"id":3079603,"name":"Bednáře","alt":["Bednare","Emry"],"lon":14.1627,"lat":48.73845,"pop":0},{"id":3079602,"name":"Bednárec","lon":15.09319,"lat":49.19524,"pop":98},{"id":3079601,"name":"Bednáreček","lon":15.14393,"lat":49.21008,"pop":199},{"id":3079600,"name":"Bědovice","lon":16.0189,"lat":50.19944,"pop":0},{"id":3079599,"name":"Bedrč","alt":["Bedertsch","Bedrc"],"lon":14.71836,"lat":49.80858,"pop":0},{"id":3079588,"name":"Bedřichov","alt":["Friedrichswald"],"lon":15.14246,"lat":50.79109,"pop":271},{"id":3079589,"name":"Bedřichov","alt":["Bedrichov"],"lon":15.60006,"lat":50.72802,"pop":0},{"id":3079590,"name":"Bedřichov","alt":["Bedrichov","Friedrichsdorf"],"lon":17.15946,"lat":49.93788,"pop":0},{"id":3079591,"name":"Bedřichov","alt":["Bedrichov"],"lon":15.17086,"lat":49.88282,"pop":0},{"id":3079592,"name":"Bedřichov","alt":["Bedrichov","Friedrichshof"],"lon":12.67926,"lat":49.50901,"pop":0},{"id":3079593,"name":"Bedřichov","lon":14.96175,"lat":49.47459,"pop":0},{"id":3079594,"name":"Bedřichov","alt":["Bedrichau","Bedřichau"],"lon":16.46532,"lat":49.46118,"pop":248},{"id":3079595,"name":"Bedřichov","alt":["Bedrichov","Friedrichsdorf"],"lon":15.60095,"lat":49.4302,"pop":0},{"id":3079596,"name":"Bedřichov","lon":15.45,"lat":49.1,"pop":0},{"id":3079597,"name":"Bedřichov","alt":["Bedrichov","Friedrichschlag"],"lon":14.72432,"lat":48.75924,"pop":0},{"id":3079598,"name":"Bedřichov","alt":["Bedrichov","Friedrichsau"],"lon":14.2,"lat":48.71667,"pop":0},{"id":3079585,"name":"Bedřichovice","alt":["Bedrichowitz","Bedřichowitz"],"lon":13.8802,"lat":50.30381,"pop":0},{"id":3079586,"name":"Bedřichovice","lon":14.7749,"lat":49.67686,"pop":0},{"id":3079587,"name":"Bedřichovice","lon":16.72025,"lat":49.18019,"pop":0},{"id":3079583,"name":"Bedřichovka","alt":["Bedrichovka","Friedrichshain"],"lon":15,"lat":50.8,"pop":0},{"id":3079584,"name":"Bedřichovka","alt":["Bedrichovka","Friedrichswald"],"lon":16.4409,"lat":50.2991,"pop":0},{"id":3079582,"name":"Bedřichův Světec","alt":["Schmetz"],"lon":13.75,"lat":50.45,"pop":0},{"id":3079581,"name":"Beerhof","lon":16.78333,"lat":49.81667,"pop":0},{"id":3079580,"name":"Běhánky","alt":["Pihanken"],"lon":13.80707,"lat":50.67971,"pop":0},{"id":3079579,"name":"Běhařov","lon":13.16018,"lat":49.34477,"pop":156},{"id":3079578,"name":"Běharovice","alt":["Biharzowitz"],"lon":16.07862,"lat":49.00394,"pop":419},{"id":3079561,"name":"Bělá","lon":14.16775,"lat":50.79026,"pop":0},{"id":3079562,"name":"Bělá","lon":15.18302,"lat":50.59185,"pop":0},{"id":3079563,"name":"Bělá","lon":15.44488,"lat":50.53388,"pop":254},{"id":3079564,"name":"Bělá","alt":["Bielai","Bielei"],"lon":16.3783,"lat":50.18498,"pop":0},{"id":3079565,"name":"Bělá","alt":["Bela","Valdenburk"],"lon":17.20905,"lat":50.13702,"pop":0},{"id":3079566,"name":"Bělá","lon":18.14489,"lat":49.97233,"pop":705},{"id":3079567,"name":"Bělá","lon":15.99895,"lat":49.89214,"pop":0},{"id":3079568,"name":"Bělá","lon":15.2373,"lat":49.75221,"pop":194},{"id":3079569,"name":"Bělá","alt":["Bela","Seibersdorf"],"lon":17.46631,"lat":49.72976,"pop":0},{"id":3079570,"name":"Bělá","alt":["Bela","Deutsch Biela","Nemecka Bela","Německá Bělá"],"lon":16.48571,"lat":49.64001,"pop":0},{"id":3079571,"name":"Bělá","lon":16.64549,"lat":49.63857,"pop":0},{"id":3079572,"name":"Bělá","lon":15.26061,"lat":49.31251,"pop":49},{"id":3079573,"name":"Bělá","alt":["Bela","Parkfried"],"lon":13.96191,"lat":48.79635,"pop":0},{"id":3079557,"name":"Bělá nad Radbuzou","alt":["Bjela na Radbuzi","Weissensulz","la de bu zha he pan bie la","Бјела на Радбузи","拉德布扎河畔別拉"],"lon":12.71761,"lat":49.59115,"pop":1812},{"id":3079556,"name":"Bělá pod Bezdězem","alt":["Bela pri Bedez","Bela-pod-Bezdezem","Weisswasser in Bohmen","Weisswasser in Böhmen","Бела-под-Бездезем"],"lon":14.80418,"lat":50.50121,"pop":4855},{"id":9881598,"name":"Bělá pod Pradědem","alt":["Bjela pod Pradjedom","Бјела под Прадједом"],"lon":17.19653,"lat":50.16396,"pop":0},{"id":3079554,"name":"Bělá u Pecky","lon":15.58309,"lat":50.47415,"pop":0},{"id":3079553,"name":"Bělbožice","lon":13.5997,"lat":50.01866,"pop":0},{"id":3079551,"name":"Bělčice","alt":["Belcice","Bieltschitz"],"lon":14.80836,"lat":49.84353,"pop":0},{"id":3079552,"name":"Bělčice","alt":["Belcitz","Belčitz"],"lon":13.87575,"lat":49.50241,"pop":991},{"id":3079550,"name":"Bělčovice","alt":["Belcovice","Wispitz"],"lon":15.50927,"lat":48.9855,"pop":0},{"id":3079545,"name":"Běleč","lon":13.99297,"lat":50.05616,"pop":317},{"id":3079546,"name":"Běleč","lon":14.83725,"lat":49.54368,"pop":183},{"id":3079547,"name":"Běleč","lon":16.38313,"lat":49.43394,"pop":186},{"id":3079548,"name":"Běleč","lon":14.03665,"lat":49.04882,"pop":0},{"id":3079543,"name":"Běleč nad Orlicí","lon":15.9427,"lat":50.19798,"pop":226},{"id":3079544,"name":"Bělečko","lon":15.95356,"lat":50.15368,"pop":0},{"id":3079542,"name":"Bělečská Lhota","lon":14.03215,"lat":49.03771,"pop":0},{"id":3079540,"name":"Běleň","alt":["Belen","Wieles"],"lon":14.32859,"lat":48.68795,"pop":0},{"id":3079539,"name":"Bělešovice","lon":15.95463,"lat":49.98388,"pop":0},{"id":3079538,"name":"Bělice","alt":["Belice","Bielitz"],"lon":14.47176,"lat":49.76619,"pop":0},{"id":12514634,"name":"Bělidla","lon":17.28323,"lat":49.59917,"pop":0},{"id":3079537,"name":"Bělidlo","lon":15.28496,"lat":49.9481,"pop":0},{"id":3079536,"name":"Bělkovice","lon":17.3175,"lat":49.67059,"pop":0},{"id":3079535,"name":"Bělohrad","alt":["Belohrad","Kurzbach","Kurzbach I"],"lon":14.20142,"lat":49.70651,"pop":0},{"id":3079534,"name":"Bělokozly","lon":14.9,"lat":49.85,"pop":0},{"id":3079533,"name":"Běloky","lon":14.22075,"lat":50.13143,"pop":120},{"id":3079532,"name":"Bělotín","alt":["Bjelotin","Boelten","Bölten","Бјелотин"],"lon":17.80654,"lat":49.5912,"pop":1630},{"id":3079531,"name":"Bělov","lon":17.48477,"lat":49.21599,"pop":258},{"id":3079530,"name":"Běloves","alt":["Beloves","Belowes","Bělowes"],"lon":16.18293,"lat":50.42325,"pop":0},{"id":3079527,"name":"Běluň","alt":["Belaun","Belun","Bělaun"],"lon":15.93638,"lat":50.4551,"pop":0},{"id":3079528,"name":"Běluň","lon":15.93117,"lat":50.38766,"pop":0},{"id":3079525,"name":"Bělušice","lon":13.76282,"lat":50.44916,"pop":181},{"id":3079526,"name":"Bělušice","lon":15.3219,"lat":50.06907,"pop":240},{"id":3079524,"name":"Belvedere","lon":16.76667,"lat":48.75,"pop":0},{"id":3079523,"name":"Bělý","lon":16.27397,"lat":50.51414,"pop":0},{"id":3079521,"name":"Benátecká Vrutice","lon":14.83727,"lat":50.22993,"pop":0},{"id":3079515,"name":"Benátky","lon":15.73599,"lat":50.31019,"pop":96},{"id":3079516,"name":"Benátky","alt":["Benatek","Benatky"],"lon":16.33197,"lat":50.22107,"pop":0},{"id":3079517,"name":"Benátky","alt":["Benatky","Dvur Benatky","Dvŭr Benátky"],"lon":14.93385,"lat":49.90353,"pop":0},{"id":3079518,"name":"Benátky","lon":16.32674,"lat":49.85419,"pop":316},{"id":3079519,"name":"Benátky","lon":15.84505,"lat":49.70896,"pop":0},{"id":3079520,"name":"Benátky","lon":15.24889,"lat":49.34501,"pop":0},{"id":3079514,"name":"Benátky nad Jizerou","alt":["Benatki na Jizeri","Benatki-nad-Jizerou","Benatky","Benátky","Neu Benatek","Nove Benatky","Nové Benátky","benateukinateu-ijelou","yi ze la he pan bei na te ji","Бенатки на Јизери","Бенатки-над-Йизероу","伊澤拉河畔貝納特基","베나트키나트이제로우"],"lon":14.82343,"lat":50.29085,"pop":6818},{"id":3079513,"name":"Benčice","alt":["Bencice","Wentschitz"],"lon":14.49659,"lat":48.70442,"pop":0},{"id":3079512,"name":"Bendovo Záhoří","lon":14.8,"lat":49.5,"pop":0},{"id":3079511,"name":"Benecko","lon":15.54816,"lat":50.66633,"pop":1142},{"id":3079507,"name":"Benešov","alt":["Benesov","Strassenau"],"lon":16.34744,"lat":50.61386,"pop":0},{"id":3079508,"name":"Benešov","alt":["Beneschau","Beneshov","Benesov","Benesovas","Benešovas","bei nei shao fu","beneshofu","benesyopeu","bnshwf","bynyshwf","Бенешов","بنشوف","بينيشوف","ベネショフ","貝內紹夫","베네쇼프"],"lon":14.68697,"lat":49.78162,"pop":16257},{"id":3079509,"name":"Benešov","alt":["Beneschau"],"lon":16.77059,"lat":49.50943,"pop":609},{"id":3079510,"name":"Benešov","alt":["Benesov"],"lon":15.00431,"lat":49.33819,"pop":0},{"id":3079501,"name":"Benešov nad Černou","alt":["Deutsch Beneschau","Nemecky Benesov","Německý Benešov"],"lon":14.62737,"lat":48.7294,"pop":1259},{"id":3079500,"name":"Benešov nad Ploučnicí","alt":["Beneshov na Plouchnici","Bensen","bnswb ʻl hplwʼwznyzh","pu luo wu qi ni cai he pan bei nei shao fu","Бенешов на Плоучњици","בנשוב על הפלואוצניצה","普洛烏奇尼采河畔貝內紹夫"],"lon":14.31239,"lat":50.74159,"pop":4043},{"id":3079499,"name":"Benešov u Semil","lon":15.36837,"lat":50.60316,"pop":834},{"id":3079505,"name":"Benešova Hora","lon":13.69816,"lat":49.125,"pop":0},{"id":3079502,"name":"Benešovice","lon":14.96481,"lat":50.6091,"pop":0},{"id":3079503,"name":"Benešovice","lon":15.55802,"lat":50.01751,"pop":0},{"id":3079504,"name":"Benešovice","alt":["Beneschau"],"lon":12.90169,"lat":49.72685,"pop":173},{"id":3079497,"name":"Benetice","alt":["Benetica","Benetice ved Svetla nad Sazavou","Benetice ved Světlá nad Sázavou","Beneticė","Benetise","Benetitse","Bénéticé","Vjoska Beneciceh","be neti t se","bei nei di cai","benetiche","benetitsue","bntytsh","Μπενέτιτσε","Бенетице","Бенетіце","Бєнєтица","Вёска Бенеціцэ","בענעטיץ","بنتيتسه","بنتیتسه","เบเนตีตเซ","ბენეტიცე","ベネティツェ","贝内蒂采","베네티체"],"lon":15.35527,"lat":49.68284,"pop":0},{"id":3079498,"name":"Benetice","lon":15.86733,"lat":49.29764,"pop":191},{"id":3079495,"name":"Benice","lon":14.60495,"lat":50.01292,"pop":0},{"id":3079496,"name":"Benice","alt":["Benitz"],"lon":14.55838,"lat":49.79412,"pop":0},{"id":3079494,"name":"Benikovice","alt":["Penketitz"],"lon":14.18843,"lat":48.82978,"pop":0},{"id":3079492,"name":"Benkov","lon":17.0216,"lat":49.89298,"pop":0},{"id":3079493,"name":"Benkov","alt":["Pinke"],"lon":17.07346,"lat":49.76786,"pop":0},{"id":3079491,"name":"Benkovice","lon":17.83739,"lat":49.86857,"pop":0},{"id":3079490,"name":"Beňov","lon":17.50134,"lat":49.41736,"pop":650},{"id":3079489,"name":"Beňovy","lon":13.26256,"lat":49.39047,"pop":0},{"id":3079487,"name":"Beraní Dvůr","alt":["Hammelhof"],"lon":13.03333,"lat":49.7,"pop":0},{"id":3079486,"name":"Beranov","alt":["Bohmisch Borau","Böhmisch Borau","Cesky Beranov","Český Beranov"],"lon":12.89857,"lat":50.00071,"pop":0},{"id":3079485,"name":"Beranova Lhota","lon":14.71667,"lat":49.35,"pop":0},{"id":3079484,"name":"Beranovec","alt":["Porenz"],"lon":15.5714,"lat":49.31805,"pop":0},{"id":3079483,"name":"Beranovka","alt":["Deutsch Borau","Nemecky Beranov","Německý Beranov"],"lon":12.84422,"lat":49.94194,"pop":0},{"id":3079481,"name":"Bergov","alt":["Bergau"],"lon":17.05267,"lat":50.33725,"pop":0},{"id":3079480,"name":"Běřín","lon":13.99254,"lat":49.7889,"pop":0},{"id":3079478,"name":"Bernardov","lon":15.39856,"lat":50.01413,"pop":165},{"id":3079472,"name":"Bernartice","alt":["Bernsdorf"],"lon":15.96582,"lat":50.64468,"pop":902},{"id":3079473,"name":"Bernartice","alt":["Barzdorf"],"lon":17.07827,"lat":50.38981,"pop":913},{"id":3079474,"name":"Bernartice","lon":15.12914,"lat":49.67556,"pop":227},{"id":3079475,"name":"Bernartice","alt":["Pernartitz"],"lon":12.79873,"lat":49.62717,"pop":0},{"id":3079476,"name":"Bernartice","alt":["Bernaditz"],"lon":14.38101,"lat":49.36889,"pop":1260},{"id":3079477,"name":"Bernartice","lon":13.38427,"lat":49.31947,"pop":0},{"id":3079471,"name":"Bernartice nad Odrou","alt":["Barnsdorf"],"lon":17.94778,"lat":49.61011,"pop":794},{"id":12122710,"name":"Bernartice u Milevska","lon":14.38093,"lat":49.36877,"pop":0},{"id":3079469,"name":"Bernov","alt":["Bernau"],"lon":12.70552,"lat":50.31818,"pop":0},{"id":3079470,"name":"Bernov","alt":["Hammelhof"],"lon":12.51008,"lat":50.23382,"pop":0},{"id":3079467,"name":"Beroun","alt":["Beraun","Verona","bei long","byrwn","Бероун","بيرون","貝龍"],"lon":14.072,"lat":49.96382,"pop":17550},{"id":3079468,"name":"Beroun","alt":["Pern"],"lon":12.92405,"lat":49.95082,"pop":0},{"id":3079464,"name":"Beřovice","lon":14.12355,"lat":50.26901,"pop":300},{"id":3079463,"name":"Běrunice","lon":15.33359,"lat":50.18574,"pop":876},{"id":3079462,"name":"Běruničky","lon":15.33132,"lat":50.19614,"pop":0},{"id":3079461,"name":"Besedice","lon":15.21018,"lat":50.62723,"pop":0},{"id":3079460,"name":"Besednice","lon":14.55689,"lat":48.78999,"pop":838},{"id":3079458,"name":"Bešetín","lon":13.62691,"lat":49.23974,"pop":0},{"id":3079457,"name":"Besídka","lon":14.26251,"lat":49.76591,"pop":0},{"id":3079455,"name":"Běšiny","alt":["Beschin","Běschin"],"lon":13.31257,"lat":49.3016,"pop":810},{"id":3079454,"name":"Beškov","alt":["Beschkaben","Beskov"],"lon":14.57956,"lat":50.51632,"pop":0},{"id":3079453,"name":"Běsno","alt":["Wiessen"],"lon":13.50924,"lat":50.1802,"pop":0},{"id":3079452,"name":"Běštín","lon":14.01623,"lat":49.8073,"pop":291},{"id":3079451,"name":"Běstovice","lon":16.21092,"lat":50.02014,"pop":402},{"id":3079450,"name":"Běstvina","alt":["Bestwin"],"lon":15.59576,"lat":49.83703,"pop":508},{"id":3079449,"name":"Běstviny","lon":16.14664,"lat":50.31955,"pop":0},{"id":3079448,"name":"Betlem","lon":16.05,"lat":49.71667,"pop":0},{"id":3079441,"name":"Bezděčí u Trnávky","lon":16.76343,"lat":49.6924,"pop":231},{"id":3079440,"name":"Bezděčí u Velkých Opatovic","lon":16.62094,"lat":49.61655,"pop":0},{"id":3079442,"name":"Bezděčín","alt":["Bezdecin","Bosching","Bösching"],"lon":15.12911,"lat":50.66035,"pop":0},{"id":3079443,"name":"Bezděčín","lon":15.31609,"lat":50.55487,"pop":0},{"id":3079444,"name":"Bezděčín","lon":14.89848,"lat":50.38589,"pop":0},{"id":3079445,"name":"Bezděčín","alt":["Bezdecin"],"lon":14.91593,"lat":49.40843,"pop":0},{"id":3079446,"name":"Bezděčín","alt":["Bezdecin"],"lon":14.61689,"lat":49.3326,"pop":0},{"id":3079447,"name":"Bezděčín","alt":["Bezdecin"],"lon":15.37491,"lat":49.32075,"pop":0},{"id":3079438,"name":"Bezdědice","alt":["Bezdedice","Klein-Bosig","Klein-Bösig"],"lon":14.69729,"lat":50.48312,"pop":0},{"id":3079439,"name":"Bezdědice","lon":14.03091,"lat":49.83267,"pop":0},{"id":3079437,"name":"Bezdědičky","lon":14.01014,"lat":49.81041,"pop":0},{"id":3079436,"name":"Bezdědovice","lon":13.87996,"lat":49.44419,"pop":307},{"id":3079414,"name":"Bezděkov","lon":14.28416,"lat":50.42783,"pop":0},{"id":3079415,"name":"Bezděkov","alt":["Bezdekov","Bosig","Bösig"],"lon":16.00205,"lat":50.58448,"pop":0},{"id":3079416,"name":"Bezděkov","alt":["Bezdek","Bezdekov","Bezděk"],"lon":13.58388,"lat":50.32617,"pop":0},{"id":3079417,"name":"Bezděkov","lon":15.64466,"lat":50.00877,"pop":247},{"id":3079418,"name":"Bezděkov","alt":["Besikau","Bezdekov"],"lon":12.9764,"lat":50.00653,"pop":0},{"id":3079419,"name":"Bezděkov","lon":15.88251,"lat":49.95989,"pop":0},{"id":3079420,"name":"Bezděkov","alt":["Besdiekow","Bezdekov"],"lon":14.75225,"lat":49.86439,"pop":0},{"id":3079421,"name":"Bezděkov","lon":15.69674,"lat":49.83673,"pop":0},{"id":3079422,"name":"Bezděkov","lon":13.59654,"lat":49.82428,"pop":95},{"id":3079423,"name":"Bezděkov","alt":["Bezdekov","Wesigau"],"lon":12.7767,"lat":49.77976,"pop":0},{"id":3079424,"name":"Bezděkov","lon":15.7304,"lat":49.73283,"pop":242},{"id":3079425,"name":"Bezděkov","lon":15.16314,"lat":49.68267,"pop":0},{"id":3079426,"name":"Bezděkov","alt":["Bezdekov","Possigkau","Pössigkau"],"lon":12.69137,"lat":49.62185,"pop":0},{"id":3079427,"name":"Bezděkov","lon":15.48537,"lat":49.58293,"pop":0},{"id":3079428,"name":"Bezděkov","lon":14.96801,"lat":49.57304,"pop":0},{"id":3079429,"name":"Bezděkov","lon":14.47972,"lat":49.52928,"pop":0},{"id":3079430,"name":"Bezděkov","lon":13.74027,"lat":49.41504,"pop":0},{"id":3079431,"name":"Bezděkov","lon":13.22746,"lat":49.38079,"pop":871},{"id":3079432,"name":"Bezděkov","alt":["Bezdekov"],"lon":16.17367,"lat":49.30148,"pop":0},{"id":3079433,"name":"Bezděkov","alt":["Bezdekov"],"lon":15.52978,"lat":49.2501,"pop":0},{"id":3079434,"name":"Bezděkov","alt":["Bezdekov","Posigl","Pösigl"],"lon":14.15,"lat":48.83333,"pop":0},{"id":3079412,"name":"Bezděkov nad Metují","lon":16.22924,"lat":50.50974,"pop":503},{"id":3079411,"name":"Bezděkov nad Třebůvkou","lon":16.87062,"lat":49.71199,"pop":0},{"id":3079410,"name":"Bezděkov pod Třemšínem","alt":["Bezdekov","Bezděkov"],"lon":13.87846,"lat":49.5771,"pop":154},{"id":3079409,"name":"Bezděkov u Úsova","lon":16.99722,"lat":49.83544,"pop":0},{"id":3079413,"name":"Bezděkovec","alt":["Bezdekovec"],"lon":13.6419,"lat":49.46106,"pop":0},{"id":3079407,"name":"Bezděz","alt":["Bezdez","Bosig","Bosig Schloss","Bösig","Bösig Schloss","Hrad Bezdez","Hrad Bezděz","Schloss Bosig","Schloss Bösig","Бездез"],"lon":14.72198,"lat":50.53364,"pop":275},{"id":3079403,"name":"Bezdružice","alt":["Weseritz"],"lon":12.9711,"lat":49.90724,"pop":1004},{"id":3079402,"name":"Bezemín","alt":["Bezemin","Wesamin"],"lon":12.99623,"lat":49.84231,"pop":0},{"id":3079401,"name":"Bežerovice","alt":["Bezerovice"],"lon":14.51667,"lat":49.29809,"pop":0},{"id":3079400,"name":"Bezkov","lon":15.95125,"lat":48.87122,"pop":211},{"id":3079399,"name":"Bezkyd","lon":18.45,"lat":49.4,"pop":0},{"id":3079398,"name":"Bezměrov","lon":17.33479,"lat":49.3298,"pop":561},{"id":3079397,"name":"Bezmíř","lon":14.5387,"lat":49.65228,"pop":0},{"id":3079396,"name":"Bezník","lon":15.64559,"lat":50.44674,"pop":0},{"id":3079395,"name":"Bezno","lon":14.79562,"lat":50.36729,"pop":842},{"id":3079394,"name":"Bezpráví","lon":16.33333,"lat":50,"pop":0},{"id":3079393,"name":"Bezpravovice","lon":13.14377,"lat":49.44715,"pop":0},{"id":3079392,"name":"Beztahov","lon":14.61093,"lat":49.6401,"pop":0},{"id":3079391,"name":"Bezuchov","alt":["Bezukhov","Безухов"],"lon":17.60877,"lat":49.46273,"pop":174},{"id":3079387,"name":"Bezvěrov","alt":["Bernklau"],"lon":13.059,"lat":49.99501,"pop":659},{"id":3079388,"name":"Bezvěrov","alt":["Weserau"],"lon":12.82499,"lat":49.94636,"pop":0},{"id":3079389,"name":"Bezvěrov","alt":["Bezverov","Wasserau"],"lon":12.71667,"lat":49.55,"pop":0},{"id":3079385,"name":"Bierbruck","lon":13.93333,"lat":48.95,"pop":0},{"id":3079382,"name":"Bílá","lon":15.03541,"lat":50.66483,"pop":812},{"id":3079383,"name":"Bílá","lon":18.45293,"lat":49.44207,"pop":324},{"id":3079379,"name":"Bílá Hlína","lon":14.92525,"lat":50.5325,"pop":97},{"id":3079376,"name":"Bílá Hora","lon":13.4101,"lat":49.77237,"pop":0},{"id":3079375,"name":"Bílá Hůrka","lon":14.3,"lat":49.15,"pop":0},{"id":3079374,"name":"Bílá Lhota","alt":["Lhota"],"lon":16.97507,"lat":49.70953,"pop":1091},{"id":3079370,"name":"Bílá Skála","alt":["Salcperk"],"lon":13.67729,"lat":49.88557,"pop":0},{"id":3079369,"name":"Bílá Studně","alt":["Bila Studne","Lichtenbrunn"],"lon":16.6884,"lat":49.78351,"pop":0},{"id":3079368,"name":"Bílá Třemešná","alt":["Weiss Tremeschna"],"lon":15.74101,"lat":50.44465,"pop":1345},{"id":3079367,"name":"Bílá Voda","alt":["Weisswasser"],"lon":16.74651,"lat":50.01656,"pop":298},{"id":3079373,"name":"Bilantova Lhota","lon":15.32735,"lat":49.65973,"pop":0},{"id":3079372,"name":"Bílany","lon":17.42643,"lat":49.31094,"pop":0},{"id":3079363,"name":"Bílavsko","lon":17.64465,"lat":49.38464,"pop":0},{"id":3079362,"name":"Bílčice","alt":["Heidenpiltsch","Heidenviltsch"],"lon":17.5655,"lat":49.86962,"pop":251},{"id":3079356,"name":"Bílé Podolí","alt":["Weiss Podol"],"lon":15.49102,"lat":49.95649,"pop":584},{"id":3079355,"name":"Bílé Poličany","lon":15.73188,"lat":50.3908,"pop":154},{"id":3079353,"name":"Bílé Vchynice","lon":15.43619,"lat":50.09781,"pop":0},{"id":3079361,"name":"Bílek","lon":15.73188,"lat":49.70289,"pop":0},{"id":3079359,"name":"Bílence","lon":13.5059,"lat":50.42455,"pop":206},{"id":3079358,"name":"Bílenec","lon":13.46357,"lat":50.13675,"pop":0},{"id":3079357,"name":"Bílenice","lon":13.6427,"lat":49.23856,"pop":0},{"id":3079354,"name":"Bíletín","alt":["Biletin","Buleding"],"lon":12.67886,"lat":49.81179,"pop":0},{"id":3079352,"name":"Bílichov","lon":13.91635,"lat":50.26205,"pop":138},{"id":3079348,"name":"Bílina","alt":["Bilin","Bilina","bi li na","Билина","比利纳"],"lon":13.77535,"lat":50.54854,"pop":15738},{"id":3079349,"name":"Bílina","alt":["Bilin","Bilina"],"lon":14.36565,"lat":49.38176,"pop":0},{"id":3079346,"name":"Bílina Kyselka","alt":["Bilina Kyselka","Sauerbrunn"],"lon":13.76667,"lat":50.55,"pop":0},{"id":3079344,"name":"Bílinka","lon":14.00314,"lat":50.52134,"pop":0},{"id":3079345,"name":"Bílinka","lon":14.37724,"lat":49.35767,"pop":0},{"id":3079342,"name":"Bílka","alt":["Bilka"],"lon":13.9343,"lat":50.5684,"pop":0},{"id":3079341,"name":"Bílkov","alt":["Bilkau","Bilkov"],"lon":15.47886,"lat":49.08487,"pop":0},{"id":3079340,"name":"Bílkovice","lon":14.86095,"lat":49.75972,"pop":198},{"id":3079338,"name":"Bílov","lon":13.42484,"lat":50.01786,"pop":84},{"id":3079339,"name":"Bílov","alt":["Bielau"],"lon":18.0016,"lat":49.73407,"pop":534},{"id":3079337,"name":"Bílová","lon":17.84691,"lat":49.41024,"pop":0},{"id":3079336,"name":"Bílovec","alt":["Bielowiec","Bilovec","Biloveca","Bīloveca","Wagstadt","bi luo wei ci","Биловец","比洛韋茨"],"lon":18.01581,"lat":49.75639,"pop":7486},{"id":3079333,"name":"Bílovice","alt":["Bilovice"],"lon":17.04001,"lat":49.51119,"pop":0},{"id":3079334,"name":"Bílovice","alt":["Bilovice u Uherskeho Hradiste","Bilowitz","Bílovice u Uherského Hradiště"],"lon":17.54961,"lat":49.09965,"pop":1634},{"id":3079335,"name":"Bílovice","alt":["Biletitz","Bilovice"],"lon":14.18333,"lat":48.83404,"pop":0},{"id":3079332,"name":"Bílovice nad Svitavou","alt":["Bilowitz"],"lon":16.67247,"lat":49.24708,"pop":2600},{"id":3079329,"name":"Bílsko","lon":15.27,"lat":50.34997,"pop":0},{"id":3079330,"name":"Bílsko","lon":17.01967,"lat":49.64456,"pop":210},{"id":3079331,"name":"Bílsko","lon":14.05901,"lat":49.15904,"pop":207},{"id":3079328,"name":"Bíluky","lon":13.42248,"lat":49.46922,"pop":0},{"id":3079327,"name":"Bílý Dvůr","lon":15.3,"lat":49.05,"pop":0},{"id":3079324,"name":"Bílý Kámen","lon":15.5519,"lat":49.93102,"pop":0},{"id":3079325,"name":"Bílý Kámen","alt":["Weissenstein"],"lon":15.50883,"lat":49.43624,"pop":193},{"id":3079322,"name":"Bílý Kostel nad Nisou","alt":["Bily Kostel","Bílý Kostel","Weisskirchen","Weisskirchen an der Neisse"],"lon":14.9244,"lat":50.82314,"pop":811},{"id":3079323,"name":"Bílý Kostelec","alt":["Weisskirchen"],"lon":14.33458,"lat":50.63857,"pop":0},{"id":3079321,"name":"Bílý Kůň","lon":16.06725,"lat":49.88147,"pop":0},{"id":3079319,"name":"Bílý Potok","alt":["Weissbach"],"lon":15.22209,"lat":50.87374,"pop":639},{"id":3079320,"name":"Bílý Potok","alt":["Bily Potok","Weissbach"],"lon":16.99449,"lat":50.41175,"pop":0},{"id":3079316,"name":"Bílý Újezd","lon":13.97626,"lat":50.54722,"pop":0},{"id":3079317,"name":"Bílý Újezd","lon":16.22527,"lat":50.23844,"pop":615},{"id":3079315,"name":"Biřkov","lon":13.23015,"lat":49.51805,"pop":140},{"id":3079313,"name":"Biskoupky","lon":13.68038,"lat":49.87473,"pop":0},{"id":3079314,"name":"Biskoupky","lon":16.28128,"lat":49.09769,"pop":174},{"id":3079307,"name":"Biskupice","alt":["Bischofswalde"],"lon":17.61096,"lat":50.176,"pop":0},{"id":3079308,"name":"Biskupice","lon":15.5128,"lat":49.87276,"pop":47},{"id":3079309,"name":"Biskupice","alt":["Biskupitz"],"lon":16.75804,"lat":49.64747,"pop":446},{"id":3079310,"name":"Biskupice","alt":["Biskupice na Hane","Biskupice na Hané"],"lon":17.23659,"lat":49.45967,"pop":239},{"id":3079311,"name":"Biskupice","lon":17.71042,"lat":49.08311,"pop":741},{"id":3079312,"name":"Biskupice","alt":["Biskupitz"],"lon":16.01006,"lat":49.03748,"pop":0},{"id":3079305,"name":"Bitětice","lon":15.14826,"lat":49.46578,"pop":0},{"id":3079301,"name":"Bítouchov","alt":["Bitouchov"],"lon":15.31565,"lat":50.61673,"pop":0},{"id":3079302,"name":"Bítouchov","lon":15.30301,"lat":50.53235,"pop":0},{"id":3079303,"name":"Bítouchov","alt":["Velky Bitouchov","Velký Bítouchov"],"lon":14.88941,"lat":50.47578,"pop":289},{"id":3079296,"name":"Bítov","lon":14.06542,"lat":49.92868,"pop":0},{"id":3079297,"name":"Bítov","lon":18.04748,"lat":49.80032,"pop":400},{"id":3079298,"name":"Bítov","alt":["Bitov","Witowa"],"lon":13.09674,"lat":49.695,"pop":0},{"id":3079299,"name":"Bítov","alt":["Bitov"],"lon":14.81902,"lat":49.37899,"pop":0},{"id":3079300,"name":"Bítov","lon":15.72897,"lat":48.93629,"pop":152},{"id":3079294,"name":"Bítovánky","alt":["Bitovanky"],"lon":15.87491,"lat":49.89318,"pop":0},{"id":3079295,"name":"Bítovánky","lon":15.69096,"lat":49.14513,"pop":0},{"id":3079293,"name":"Bítovany","alt":["Bytowan"],"lon":15.86462,"lat":49.89721,"pop":408},{"id":3079292,"name":"Bitozeves","alt":["Vitozoves","Witoses","Wittosess"],"lon":13.64068,"lat":50.37315,"pop":363},{"id":3079290,"name":"Blahoňov","lon":16.31361,"lat":49.3358,"pop":0},{"id":3079289,"name":"Blahotice","lon":14.12072,"lat":50.23695,"pop":0},{"id":3079288,"name":"Blahousty","alt":["Blahussen"],"lon":13.08333,"lat":49.8,"pop":0},{"id":3079287,"name":"Bláhov","lon":14.20189,"lat":50.63357,"pop":0},{"id":3079286,"name":"Bláhova Lhota","lon":14.34042,"lat":49.6101,"pop":0},{"id":3079285,"name":"Blahuňov","alt":["Plassdorf"],"lon":13.2914,"lat":50.44789,"pop":0},{"id":3079284,"name":"Blahutovice","alt":["Blattendorf"],"lon":17.87235,"lat":49.58612,"pop":0},{"id":3079282,"name":"Blanice","lon":14.8,"lat":49.5,"pop":0},{"id":3079283,"name":"Blanice","lon":14.07288,"lat":49.10091,"pop":0},{"id":3079278,"name":"Blanička","alt":["Blanicka"],"lon":14.84081,"lat":49.47804,"pop":0},{"id":3079279,"name":"Blanička","lon":14.07499,"lat":49.09447,"pop":0},{"id":3079276,"name":"Blankartice","alt":["Blankersdorf"],"lon":14.29287,"lat":50.69385,"pop":0},{"id":3079275,"name":"Blanné","lon":15.88324,"lat":48.99194,"pop":94},{"id":3079271,"name":"Blansko","alt":["Plankenstein"],"lon":14.09855,"lat":50.70236,"pop":0},{"id":3079272,"name":"Blansko","lon":15.93891,"lat":49.94762,"pop":0},{"id":3079273,"name":"Blansko","alt":["Бланско"],"lon":16.64446,"lat":49.36304,"pop":20384},{"id":3079274,"name":"Blansko","alt":["Pflanzen"],"lon":14.517,"lat":48.7412,"pop":0},{"id":3079266,"name":"Blata","lon":15.2625,"lat":50.47067,"pop":0},{"id":3079267,"name":"Blata","lon":14.49842,"lat":50.35304,"pop":0},{"id":3079268,"name":"Blata","alt":["Hoslau"],"lon":13.19763,"lat":49.30161,"pop":0},{"id":3079264,"name":"Blatce","alt":["Gross Blatzen"],"lon":14.60314,"lat":50.50288,"pop":65},{"id":3079260,"name":"Blatec","lon":15.24629,"lat":50.54925,"pop":0},{"id":3079261,"name":"Blatec","lon":17.23857,"lat":49.52834,"pop":579},{"id":3079262,"name":"Blatec","lon":14.534,"lat":49.26137,"pop":0},{"id":3079259,"name":"Blatečky","alt":["Blatecky","Klein Blatzen"],"lon":14.5897,"lat":50.49528,"pop":0},{"id":3079258,"name":"Blatenka","lon":13.85445,"lat":49.40047,"pop":0},{"id":3079255,"name":"Blatiny","lon":16.09939,"lat":49.65204,"pop":0},{"id":3079256,"name":"Blatiny","lon":14.91998,"lat":49.45515,"pop":0},{"id":3079254,"name":"Blatky","lon":16.04973,"lat":49.65014,"pop":0},{"id":3079252,"name":"Blatná","alt":["Blatna","bu la te na","Блатна","布拉特納"],"lon":13.88176,"lat":49.42489,"pop":6735},{"id":3079253,"name":"Blatná","alt":["Blatna","Platten"],"lon":14.19622,"lat":48.69552,"pop":0},{"id":3079247,"name":"Blatnice","lon":15.69864,"lat":49.76354,"pop":0},{"id":3079248,"name":"Blatnice","lon":13.15599,"lat":49.71971,"pop":688},{"id":3079249,"name":"Blatnice","alt":["Novy Blatnice","Nový Blatnice"],"lon":14.89883,"lat":49.51289,"pop":0},{"id":3079250,"name":"Blatnice","lon":15.87133,"lat":49.07013,"pop":365},{"id":3079251,"name":"Blatnice","alt":["Blatnice pod Svatym Antoninkem","Blatnice pod Svatým Antonínkem"],"lon":17.46401,"lat":48.94714,"pop":0},{"id":3079245,"name":"Blatnička","lon":17.53004,"lat":48.93551,"pop":449},{"id":3079244,"name":"Blatníkovská Lhotka","lon":15.71184,"lat":50.05558,"pop":0},{"id":3079241,"name":"Blatno","alt":["Platten","Блатно"],"lon":13.35806,"lat":50.51169,"pop":342},{"id":3079242,"name":"Blatno","alt":["Pladen"],"lon":13.3897,"lat":50.09692,"pop":533},{"id":3079243,"name":"Blatno","lon":15.92303,"lat":49.75993,"pop":0},{"id":3079238,"name":"Blato","lon":15.76413,"lat":49.98925,"pop":0},{"id":3079239,"name":"Bláto","lon":15.03019,"lat":49.8909,"pop":0},{"id":3079240,"name":"Bláto","alt":["Benetschlag","Blato"],"lon":14.13333,"lat":48.81667,"pop":0},{"id":3079237,"name":"Blažejov","alt":["Blauenschlag"],"lon":15.09645,"lat":49.14219,"pop":301},{"id":3079235,"name":"Blažejovice","lon":15.19993,"lat":49.61979,"pop":97},{"id":3079236,"name":"Blažejovice","alt":["Blazejovice","Plahetschlag"],"lon":13.95,"lat":48.95284,"pop":0},{"id":3079233,"name":"Blaženice","alt":["Blaschenitz","Blazenice"],"lon":14.4689,"lat":49.78957,"pop":0},{"id":3079232,"name":"Blazice","lon":17.64529,"lat":49.44247,"pop":204},{"id":3079228,"name":"Blažim","alt":["Ploscha"],"lon":13.62857,"lat":50.40684,"pop":232},{"id":3079229,"name":"Blažim","lon":13.04761,"lat":49.91591,"pop":76},{"id":3079230,"name":"Blažim","alt":["Blaschim","Blazim"],"lon":14.45332,"lat":49.76217,"pop":0},{"id":3079223,"name":"Blažkov","alt":["Blaschkow","Blazkov"],"lon":16.18945,"lat":50.34592,"pop":0},{"id":3079224,"name":"Blažkov","lon":15.55875,"lat":50.30308,"pop":0},{"id":3079225,"name":"Blažkov","lon":16.18516,"lat":49.47307,"pop":307},{"id":3079226,"name":"Blažkov","alt":["Blazkov","Laschkles"],"lon":14.45087,"lat":48.74148,"pop":0},{"id":3079222,"name":"Bláznov","lon":15.05281,"lat":49.57699,"pop":0},{"id":3079221,"name":"Blažov","lon":16.88333,"lat":49.68333,"pop":0},{"id":3079220,"name":"Blažovice","lon":16.78611,"lat":49.16569,"pop":1076},{"id":3079219,"name":"Blehov","lon":14.39893,"lat":49.49325,"pop":0},{"id":3079217,"name":"Blešno","lon":13.90382,"lat":50.48054,"pop":0},{"id":3079218,"name":"Blešno","lon":15.93064,"lat":50.21391,"pop":315},{"id":3079216,"name":"Blevice","lon":14.23616,"lat":50.20972,"pop":282},{"id":3079215,"name":"Blinka","lon":15.06064,"lat":50.03958,"pop":0},{"id":3079214,"name":"Blišice","lon":17.16483,"lat":49.12259,"pop":0},{"id":3079213,"name":"Bližanovy","lon":13.50755,"lat":49.42493,"pop":0},{"id":3079212,"name":"Blížejov","alt":["Blisowa"],"lon":12.98926,"lat":49.5,"pop":1029},{"id":3079211,"name":"Blíževedly","alt":["Bleiswedel"],"lon":14.39649,"lat":50.6084,"pop":638},{"id":3079210,"name":"Blízkov","lon":15.90871,"lat":49.40048,"pop":326},{"id":3079209,"name":"Blížkovice","lon":15.83482,"lat":48.99976,"pop":1235},{"id":3079208,"name":"Bližná","alt":["Blizna","Eggetschlag"],"lon":14.09565,"lat":48.72261,"pop":0},{"id":3079207,"name":"Bližňaky","lon":17.83333,"lat":49.35,"pop":0},{"id":3079206,"name":"Blížňovice","lon":15.95,"lat":49.95,"pop":0},{"id":3079205,"name":"Bližší Lhota","alt":["Blizsi Lhota","Vorderstift"],"lon":14.01201,"lat":48.75702,"pop":0},{"id":3079204,"name":"Blov","alt":["Flahe"],"lon":13.295,"lat":50.32508,"pop":0},{"id":3079203,"name":"Blovice","alt":["Blowitz","bu luo wei cai","Бловице","布洛維采"],"lon":13.54009,"lat":49.5822,"pop":3901},{"id":3079201,"name":"Blšany","alt":["Blshany","Floehau","Flöhau","Блшаны"],"lon":13.4712,"lat":50.21733,"pop":954},{"id":3079200,"name":"Blšany u Loun","alt":["Bl'shani-u-Loun","Blsany u Loun","Blshany-u-Loun","Bzhani","Бжани","Блшаны-у-Лоун","Бльшани-у-Лоун"],"lon":13.84992,"lat":50.34875,"pop":216},{"id":3079199,"name":"Blučina","lon":16.6445,"lat":49.05497,"pop":2040},{"id":3079198,"name":"Bludná","alt":["Bludna","Irrgang"],"lon":12.81377,"lat":50.39984,"pop":0},{"id":3079194,"name":"Bludov","alt":["Blauda","Блудов"],"lon":16.92849,"lat":49.9408,"pop":3155},{"id":3079195,"name":"Bludov","lon":15.25518,"lat":49.80749,"pop":25},{"id":3079192,"name":"Bludovice","lon":18.43403,"lat":49.77506,"pop":0},{"id":3079193,"name":"Bludovice","alt":["Blauendorf"],"lon":18.02093,"lat":49.57388,"pop":0},{"id":3079189,"name":"Bobnice","lon":15.05352,"lat":50.21958,"pop":747},{"id":3079187,"name":"Bobovec","alt":["Pfaffenschlag"],"lon":14.16826,"lat":48.70537,"pop":0},{"id":3079186,"name":"Bobr","lon":15.90086,"lat":50.67062,"pop":0},{"id":3079180,"name":"Bobrovník","alt":["Biberteich","Bobrovnik"],"lon":17.17181,"lat":50.22063,"pop":0},{"id":3079179,"name":"Bobrovníky","lon":18.20917,"lat":49.87226,"pop":0},{"id":3079178,"name":"Bobrůvka","lon":16.09381,"lat":49.44864,"pop":239},{"id":3079177,"name":"Boč","alt":["Boc","Wotsch"],"lon":13.08266,"lat":50.36197,"pop":0},{"id":3079176,"name":"Bocanovice","lon":18.7384,"lat":49.56907,"pop":434},{"id":3079175,"name":"Bochoř","alt":["Bochorz","Bochorž"],"lon":17.42835,"lat":49.42138,"pop":1000},{"id":3079174,"name":"Bochov","alt":["Buchau"],"lon":13.05227,"lat":50.14872,"pop":1973},{"id":3079173,"name":"Bochovice","lon":15.89632,"lat":49.32082,"pop":156},{"id":3079171,"name":"Boden","lon":12.53333,"lat":50.18333,"pop":0},{"id":3079172,"name":"Boden","lon":12.44088,"lat":49.99238,"pop":0},{"id":3079169,"name":"Boháňka","lon":15.70838,"lat":50.3658,"pop":201},{"id":3079167,"name":"Boharyně","lon":15.63086,"lat":50.20381,"pop":526},{"id":3079166,"name":"Bohaté Málkovice","lon":17.01616,"lat":49.18863,"pop":255},{"id":3079164,"name":"Bohatice","alt":["Weheditz"],"lon":12.87915,"lat":50.23996,"pop":0},{"id":3079165,"name":"Bohatice","alt":["Voitsdorf"],"lon":14.67932,"lat":50.66893,"pop":146},{"id":3079163,"name":"Bohdal","lon":14.04599,"lat":50.35072,"pop":0},{"id":3079162,"name":"Bohdalec","lon":16.05977,"lat":49.47428,"pop":297},{"id":3079161,"name":"Bohdalice","lon":17.02978,"lat":49.21381,"pop":0},{"id":3079160,"name":"Bohdalín","lon":15.01584,"lat":49.30768,"pop":230},{"id":3079158,"name":"Bohdalov","lon":16.78143,"lat":49.73964,"pop":0},{"id":3079159,"name":"Bohdalov","alt":["Bohdalau"],"lon":15.87582,"lat":49.47921,"pop":1074},{"id":3079156,"name":"Bohdalovice","lon":15.32694,"lat":50.71783,"pop":0},{"id":3079157,"name":"Bohdalovice","alt":["Podesdorf"],"lon":14.28677,"lat":48.74284,"pop":276},{"id":3079153,"name":"Bohdaneč","lon":15.6734,"lat":50.08211,"pop":0},{"id":3079154,"name":"Bohdaneč","lon":15.22255,"lat":49.77817,"pop":401},{"id":3079151,"name":"Bohdanovice","alt":["Boidensdorf"],"lon":17.63809,"lat":49.89964,"pop":0},{"id":3079150,"name":"Bohdašice","alt":["Budaschitz"],"lon":13.52262,"lat":49.18086,"pop":0},{"id":3079147,"name":"Bohdašín","alt":["Bodisch","Bohdasin"],"lon":16.19832,"lat":50.5932,"pop":0},{"id":3079148,"name":"Bohdašín","alt":["Bochdaschin","Bohdasin"],"lon":16.1129,"lat":50.49936,"pop":0},{"id":3079149,"name":"Bohdašín","alt":["Bodisch"],"lon":16.22505,"lat":50.33846,"pop":236},{"id":3079145,"name":"Bohnice","alt":["Bohnitz"],"lon":14.41667,"lat":50.13333,"pop":0},{"id":3079144,"name":"Bohostice","lon":14.13813,"lat":49.60214,"pop":188},{"id":3079143,"name":"Bohosudov","alt":["Mariaschein"],"lon":13.87669,"lat":50.68418,"pop":0},{"id":3079142,"name":"Bohouňovice Druhá","alt":["Bohounovice Druha","Bohounovice II","Bohouňovice II"],"lon":14.97262,"lat":49.91475,"pop":0},{"id":3079141,"name":"Bohouňovice Přední","alt":["Bohounovice I","Bohounovice Predni","Bohouňovice I"],"lon":15.18282,"lat":49.97446,"pop":0},{"id":3079140,"name":"Bohouškovice","alt":["Bohouskovice"],"lon":14.31492,"lat":48.92367,"pop":0},{"id":3079139,"name":"Bohousová","lon":16.38458,"lat":50.08748,"pop":0},{"id":3079138,"name":"Bohučovice","lon":17.9019,"lat":49.86726,"pop":0},{"id":3079137,"name":"Bohuliby","alt":["Boholib"],"lon":14.46041,"lat":49.88258,"pop":0},{"id":3079134,"name":"Bohumileč","alt":["Bohumilec"],"lon":14.98264,"lat":50.63824,"pop":0},{"id":3079135,"name":"Bohumileč","lon":15.85836,"lat":50.10082,"pop":0},{"id":3079130,"name":"Bohumilice","lon":15.25246,"lat":49.69361,"pop":0},{"id":3079131,"name":"Bohumilice","lon":13.81634,"lat":49.09607,"pop":314},{"id":3079132,"name":"Bohumilice","lon":16.89448,"lat":49.01825,"pop":0},{"id":3079133,"name":"Bohumilice","alt":["Pumlitz"],"lon":16.0817,"lat":48.83796,"pop":0},{"id":3079129,"name":"Bohumín","alt":["Bogumin","Bohumina","Bohumynas","Bohumīna","Bokhumin","bhwmyn","Богумин","Бохумин","بهومین"],"lon":18.35755,"lat":49.90411,"pop":23075},{"id":3079124,"name":"Bohunice","lon":16.57751,"lat":49.16734,"pop":0},{"id":3079125,"name":"Bohunice","lon":14.38093,"lat":49.21087,"pop":44},{"id":3079126,"name":"Bohunice","lon":13.97318,"lat":49.13239,"pop":44},{"id":3079127,"name":"Bohunice","alt":["Bonitz"],"lon":16.18333,"lat":48.9,"pop":0},{"id":3079122,"name":"Bohuňov","lon":16.46385,"lat":49.5991,"pop":184},{"id":3079123,"name":"Bohuňov","lon":16.20244,"lat":49.56041,"pop":242},{"id":3079120,"name":"Bohuňovice","lon":16.26286,"lat":49.90788,"pop":124},{"id":3079121,"name":"Bohuňovice","lon":17.28693,"lat":49.66301,"pop":2390},{"id":3079119,"name":"Bohuňovsko","lon":15.31551,"lat":50.64652,"pop":0},{"id":3079118,"name":"Bohušice","lon":15.85212,"lat":49.08511,"pop":113},{"id":3079115,"name":"Bohuslav","lon":15.20435,"lat":50.52246,"pop":0},{"id":3079116,"name":"Bohuslav","alt":["Paslas"],"lon":12.80642,"lat":50.03333,"pop":0},{"id":3079117,"name":"Bohuslav","alt":["Wusleben"],"lon":12.63333,"lat":49.7,"pop":0},{"id":3079107,"name":"Bohuslavice","alt":["Bohuslawitz"],"lon":16.08858,"lat":50.31263,"pop":972},{"id":3079108,"name":"Bohuslavice","alt":["Buslawitz"],"lon":18.12866,"lat":49.94232,"pop":1560},{"id":3079109,"name":"Bohuslavice","lon":16.94053,"lat":49.82606,"pop":467},{"id":3079110,"name":"Bohuslavice","lon":16.95755,"lat":49.62085,"pop":513},{"id":3079111,"name":"Bohuslavice","alt":["Bohuslawitz"],"lon":17.63846,"lat":49.16581,"pop":0},{"id":3079112,"name":"Bohuslavice","lon":15.57581,"lat":49.14943,"pop":125},{"id":3079113,"name":"Bohuslavice","lon":17.92988,"lat":49.09,"pop":0},{"id":3079114,"name":"Bohuslavice","alt":["Bohuslow"],"lon":17.12123,"lat":49.05158,"pop":0},{"id":3079106,"name":"Bohuslavice nad Úpou","alt":["Bausnitz"],"lon":15.97704,"lat":50.54976,"pop":0},{"id":3079105,"name":"Bohuslávky","lon":17.56778,"lat":49.55516,"pop":340},{"id":3079104,"name":"Bohusoudov","alt":["Bohosoudov","Osoudov"],"lon":15.57469,"lat":49.10667,"pop":0},{"id":3079103,"name":"Bohušov","alt":["Fullstein","Fulstejn","Fulštejn","Füllstein"],"lon":17.71386,"lat":50.24329,"pop":456},{"id":3079102,"name":"Bohušovice nad Ohří","alt":["Bauschowitz"],"lon":14.15048,"lat":50.49316,"pop":2544},{"id":3079101,"name":"Bohutice","lon":16.35764,"lat":48.99127,"pop":612},{"id":3079098,"name":"Bohutín","lon":16.88193,"lat":49.95351,"pop":859},{"id":3079099,"name":"Bohutín","lon":13.94389,"lat":49.65551,"pop":1544},{"id":3079100,"name":"Bohutín","lon":15.01883,"lat":49.376,"pop":0},{"id":3079097,"name":"Bohy","lon":13.57567,"lat":49.9379,"pop":74},{"id":3079094,"name":"Bojanov","alt":["Bojanow"],"lon":15.70488,"lat":49.84131,"pop":655},{"id":3079095,"name":"Bojanov","lon":16.16001,"lat":49.39488,"pop":0},{"id":3079090,"name":"Bojanovice","alt":["Bojanowitz"],"lon":14.35204,"lat":49.85444,"pop":377},{"id":3079091,"name":"Bojanovice","lon":17.31262,"lat":49.31035,"pop":181},{"id":3079092,"name":"Bojanovice","lon":13.63764,"lat":49.29328,"pop":0},{"id":3079093,"name":"Bojanovice","lon":15.98906,"lat":48.96816,"pop":177},{"id":3079089,"name":"Boječnice","alt":["Bojecnice","Woschnitz"],"lon":12.8132,"lat":49.68578,"pop":0},{"id":3079088,"name":"Bojenice","lon":14.35802,"lat":49.36086,"pop":0},{"id":3079087,"name":"Boješice","alt":["Bojesice"],"lon":14.04171,"lat":49.53925,"pop":0},{"id":3079086,"name":"Bojetice","lon":14.96694,"lat":50.37697,"pop":0},{"id":3079083,"name":"Bojiště","alt":["Bojiste","Hohenbruck","Humburky"],"lon":15.90143,"lat":50.54728,"pop":0},{"id":3079084,"name":"Bojiště","lon":15.20169,"lat":49.97145,"pop":0},{"id":3079085,"name":"Bojiště","lon":15.28679,"lat":49.66779,"pop":231},{"id":3079082,"name":"Bojkovice","alt":["Bojkowitz","bo yi ke wei cai","Бойковице","Бојковице","博伊科維采"],"lon":17.81487,"lat":49.03864,"pop":4742},{"id":3079081,"name":"Bojmany","lon":15.43741,"lat":49.95932,"pop":0},{"id":3079080,"name":"Bojov","alt":["Bojau"],"lon":14.34064,"lat":49.86762,"pop":0},{"id":3079078,"name":"Bolatice","alt":["Bolatitz"],"lon":18.08358,"lat":49.95172,"pop":4186},{"id":3079077,"name":"Boleboř","alt":["Boleborzh","Gottersdorf","Göttersdorf","Болеборж"],"lon":13.41333,"lat":50.54016,"pop":197},{"id":3079076,"name":"Bolechov","lon":15.20684,"lat":49.5387,"pop":0},{"id":3079075,"name":"Bolechovice","lon":14.50066,"lat":49.61174,"pop":0},{"id":3079074,"name":"Bolehošť","alt":["Bolehoscht"],"lon":16.07697,"lat":50.21363,"pop":545},{"id":3079073,"name":"Bolehošťská Lhota","lon":16.08495,"lat":50.20589,"pop":0},{"id":3079072,"name":"Bolelouc","lon":17.26875,"lat":49.49659,"pop":0},{"id":3079071,"name":"Boleradice","lon":16.81392,"lat":48.96668,"pop":867},{"id":3079070,"name":"Bolešín","lon":16.35984,"lat":49.54181,"pop":0},{"id":3079069,"name":"Bolešiny","alt":["Boleschin"],"lon":13.36161,"lat":49.40989,"pop":661},{"id":3079068,"name":"Boleslav","alt":["Bunzendorf"],"lon":15.03009,"lat":51.00597,"pop":0},{"id":3079067,"name":"Boletice","alt":["Polletitz"],"lon":14.21734,"lat":48.82487,"pop":256},{"id":3079066,"name":"Boletice nad Labem","alt":["Politz an der Elbe"],"lon":14.19193,"lat":50.74167,"pop":0},{"id":3079065,"name":"Bolevec","alt":["Bolewetz"],"lon":13.37054,"lat":49.77319,"pop":0},{"id":3079063,"name":"Bolíkov","lon":15.3144,"lat":49.19112,"pop":0},{"id":3079064,"name":"Bolíkov","alt":["Bolikov","Wolking","Wölking"],"lon":15.36915,"lat":49.0366,"pop":0},{"id":3079061,"name":"Bolíkovice","alt":["Bolikovice"],"lon":15.76913,"lat":49.13531,"pop":0},{"id":3079062,"name":"Bolíkovice","alt":["Bolikovice"],"lon":13.89995,"lat":49.08953,"pop":0},{"id":3079059,"name":"Bolina","lon":14.95515,"lat":49.68142,"pop":0},{"id":3079058,"name":"Bolinka","lon":14.93738,"lat":49.68679,"pop":0},{"id":3079056,"name":"Bolkov","alt":["Polkendorf"],"lon":15.7386,"lat":50.60852,"pop":0},{"id":3079057,"name":"Bolkov","lon":13.22387,"lat":49.53356,"pop":51},{"id":3079055,"name":"Boly","alt":["Woluben"],"lon":14.44941,"lat":48.74763,"pop":0},{"id":3079054,"name":"Boněnov","alt":["Punnau"],"lon":12.80233,"lat":49.91078,"pop":0},{"id":3079053,"name":"Bonětice","alt":["Bonetice","Gross Wonetitz"],"lon":12.82686,"lat":49.66606,"pop":0},{"id":3079052,"name":"Bonětičky","alt":["Boneticky","Klein Wonetitz"],"lon":12.84118,"lat":49.66656,"pop":0},{"id":3079049,"name":"Boňkov","alt":["Bonkov","Punkendorf"],"lon":17.68321,"lat":49.60678,"pop":0},{"id":3079050,"name":"Boňkov","lon":15.44747,"lat":49.54705,"pop":60},{"id":3079048,"name":"Bonkovice","lon":14.59713,"lat":49.52796,"pop":0},{"id":3079047,"name":"Boňov","lon":15.9185,"lat":49.11849,"pop":0},{"id":3079046,"name":"Bonrepos","lon":14.793,"lat":50.24197,"pop":0},{"id":3079035,"name":"Bor","alt":["Haid"],"lon":12.93932,"lat":50.26608,"pop":0},{"id":3079036,"name":"Bor","lon":13.86475,"lat":50.24051,"pop":0},{"id":3079037,"name":"Bor","alt":["Haid"],"lon":12.45586,"lat":50.18043,"pop":0},{"id":3079038,"name":"Bor","alt":["Bor u Tachova","Haid","bo er","Бор","博爾"],"lon":12.77516,"lat":49.71159,"pop":4025},{"id":3079039,"name":"Bor","lon":14.43937,"lat":49.62433,"pop":0},{"id":3079040,"name":"Bor","lon":13.98736,"lat":49.55589,"pop":0},{"id":3079041,"name":"Bor","lon":16.28904,"lat":49.43821,"pop":0},{"id":3079042,"name":"Bor","lon":15.12708,"lat":49.38024,"pop":0},{"id":3079043,"name":"Bor","alt":["Haid"],"lon":13.36361,"lat":49.16338,"pop":0},{"id":3079044,"name":"Bor","lon":14.81833,"lat":48.88385,"pop":0},{"id":3079045,"name":"Bor","lon":14.45036,"lat":48.81288,"pop":0},{"id":3078924,"name":"Bor u Chroustovic","lon":15.989,"lat":49.9286,"pop":0},{"id":3078923,"name":"Bor u Skutče","lon":16.12695,"lat":49.82231,"pop":174},{"id":3079034,"name":"Borač","lon":16.36111,"lat":49.40082,"pop":307},{"id":3079033,"name":"Bořanovice","lon":14.47875,"lat":50.17823,"pop":483},{"id":3079032,"name":"Borčice","alt":["Borcice"],"lon":14.03783,"lat":49.10921,"pop":0},{"id":3079031,"name":"Bordovice","lon":18.15262,"lat":49.54688,"pop":559},{"id":3079029,"name":"Boreč","lon":13.98846,"lat":50.50866,"pop":0},{"id":3079030,"name":"Boreč","lon":14.73239,"lat":50.40735,"pop":285},{"id":3079027,"name":"Boreček","alt":["Borecek","Haidedorfel","Haidedörfel"],"lon":14.71708,"lat":50.63987,"pop":0},{"id":3079028,"name":"Boreček","alt":["Borecek","Wandermuhle","Wandermühle"],"lon":12.76667,"lat":49.7,"pop":0},{"id":3079026,"name":"Borečnice","lon":14.13878,"lat":49.36086,"pop":0},{"id":3079025,"name":"Bořejov","lon":14.6188,"lat":50.50993,"pop":0},{"id":3079002,"name":"Borek","alt":["Barken"],"lon":14.17425,"lat":50.71972,"pop":0},{"id":3079003,"name":"Borek","lon":15.17351,"lat":50.62437,"pop":0},{"id":3079004,"name":"Borek","alt":["Regersdorf"],"lon":14.53114,"lat":50.61795,"pop":0},{"id":3079005,"name":"Borek","lon":15.65424,"lat":50.43886,"pop":99},{"id":3079006,"name":"Borek","alt":["Heidles"],"lon":12.9632,"lat":50.31223,"pop":0},{"id":3079007,"name":"Borek","lon":15.94358,"lat":50.24679,"pop":0},{"id":3079008,"name":"Borek","lon":14.64741,"lat":50.22258,"pop":174},{"id":3079009,"name":"Borek","lon":15.85653,"lat":50.1272,"pop":224},{"id":3079010,"name":"Borek","alt":["Worka"],"lon":13.14256,"lat":50.05551,"pop":0},{"id":3079011,"name":"Borek","lon":15.4245,"lat":49.97949,"pop":0},{"id":3079012,"name":"Borek","lon":13.5184,"lat":49.9185,"pop":0},{"id":3079013,"name":"Borek","lon":14.50212,"lat":49.87904,"pop":0},{"id":3079014,"name":"Borek","lon":14.04619,"lat":49.88714,"pop":0},{"id":3079015,"name":"Borek","lon":16.05878,"lat":49.84306,"pop":0},{"id":3079016,"name":"Borek","lon":16.15823,"lat":49.80694,"pop":0},{"id":3079017,"name":"Borek","lon":15.58998,"lat":49.79181,"pop":140},{"id":3079018,"name":"Borek","lon":13.62401,"lat":49.74776,"pop":0},{"id":3079019,"name":"Borek","lon":13.94668,"lat":49.71229,"pop":0},{"id":3079020,"name":"Borek","alt":["Wurken"],"lon":12.77793,"lat":49.63619,"pop":0},{"id":3079021,"name":"Borek","lon":14.76086,"lat":49.34618,"pop":0},{"id":3079022,"name":"Borek","lon":15.46062,"lat":49.07478,"pop":139},{"id":3079023,"name":"Borek","lon":14.50088,"lat":49.02339,"pop":1157},{"id":3079000,"name":"Bořená Hora","lon":14.50559,"lat":49.66181,"pop":0},{"id":3078999,"name":"Bořenovice","lon":17.56436,"lat":49.36152,"pop":178},{"id":3078998,"name":"Bořeňovice","alt":["Borenovice","Borschenowitz"],"lon":14.79265,"lat":49.7649,"pop":0},{"id":3078994,"name":"Bořetice","lon":15.1674,"lat":49.96608,"pop":0},{"id":3078995,"name":"Bořetice","lon":14.70946,"lat":49.61137,"pop":0},{"id":3078996,"name":"Bořetice","lon":15.10995,"lat":49.49606,"pop":69},{"id":3078997,"name":"Bořetice","lon":16.85306,"lat":48.91302,"pop":1297},{"id":3078991,"name":"Bořetín","alt":["Boretin","Tiefendorf"],"lon":14.47332,"lat":50.66939,"pop":0},{"id":3078992,"name":"Bořetín","lon":14.94762,"lat":49.31013,"pop":106},{"id":3078993,"name":"Bořetín","lon":15.21184,"lat":49.18922,"pop":86},{"id":3078988,"name":"Bořice","lon":15.92533,"lat":49.97685,"pop":169},{"id":3078989,"name":"Bořice","lon":12.9714,"lat":49.42874,"pop":0},{"id":3078990,"name":"Bořice","lon":14.01738,"lat":49.40178,"pop":0},{"id":3078987,"name":"Boříkovský Dvůr","lon":16.06667,"lat":49.06667,"pop":0},{"id":3078986,"name":"Boříkovy","lon":13.38967,"lat":49.32742,"pop":0},{"id":3078983,"name":"Bořislav","lon":13.9292,"lat":50.57936,"pop":333},{"id":3078981,"name":"Bořitov","lon":16.58601,"lat":50.06011,"pop":0},{"id":3078982,"name":"Bořitov","alt":["Borstendorf"],"lon":16.59119,"lat":49.42504,"pop":1234},{"id":3078979,"name":"Bořkov","alt":["Borkov"],"lon":15.34794,"lat":50.58714,"pop":0},{"id":3078978,"name":"Borkovany","alt":["Borkowan"],"lon":16.81011,"lat":49.02816,"pop":733},{"id":3078977,"name":"Borkovice","lon":14.64343,"lat":49.20794,"pop":237},{"id":3078976,"name":"Bořkovice","lon":14.7986,"lat":49.61395,"pop":0},{"id":3078975,"name":"Borky","lon":16.23166,"lat":49.40232,"pop":0},{"id":3078973,"name":"Borohrádek","lon":16.09326,"lat":50.09777,"pop":2152},{"id":3078972,"name":"Borošín","lon":18.23775,"lat":49.69369,"pop":0},{"id":3078970,"name":"Borotice","lon":14.2797,"lat":49.73497,"pop":312},{"id":3078971,"name":"Borotice","lon":16.24261,"lat":48.85729,"pop":369},{"id":3078968,"name":"Borotín","lon":16.67148,"lat":49.58135,"pop":443},{"id":3078969,"name":"Borotín","lon":14.61297,"lat":49.50503,"pop":520},{"id":3078960,"name":"Borová","lon":16.25504,"lat":50.38592,"pop":177},{"id":3078961,"name":"Borová","alt":["Borova","Heneberky"],"lon":18.10513,"lat":49.95858,"pop":0},{"id":3078962,"name":"Borová","alt":["Borova"],"lon":16.27552,"lat":49.92894,"pop":0},{"id":3078963,"name":"Borová","alt":["Borova"],"lon":15.18267,"lat":49.79853,"pop":0},{"id":3078964,"name":"Borová","alt":["Borowa"],"lon":16.16223,"lat":49.74168,"pop":917},{"id":3078965,"name":"Borová","lon":16.55931,"lat":49.57766,"pop":0},{"id":3078966,"name":"Borová","alt":["Borova","Rabstejn","Rabštejn"],"lon":15.59263,"lat":49.07807,"pop":0},{"id":3078967,"name":"Borová","alt":["Borova","Mistlholz"],"lon":14.21643,"lat":48.87777,"pop":0},{"id":3078959,"name":"Borová Krčma","alt":["Borova Krcma","Kiefer Kratschen"],"lon":16.37664,"lat":49.73494,"pop":0},{"id":3078958,"name":"Borová Lada","alt":["Ferchenhaid","Ferchenheid"],"lon":13.65986,"lat":48.98983,"pop":276},{"id":3078955,"name":"Borovany","alt":["Turban"],"lon":12.85194,"lat":49.69378,"pop":0},{"id":3078956,"name":"Borovany","lon":14.39246,"lat":49.34299,"pop":231},{"id":3078957,"name":"Borovany","alt":["Borovani","bo luo wa ni","Боровани","博羅瓦尼"],"lon":14.64227,"lat":48.8986,"pop":3739},{"id":3078953,"name":"Borovec","alt":["Dreigiebel"],"lon":18.09628,"lat":49.63851,"pop":0},{"id":3078954,"name":"Borovec","lon":16.33833,"lat":49.51167,"pop":0},{"id":3078950,"name":"Borovice","alt":["Boroveach","Borowitz"],"lon":14.93032,"lat":50.56319,"pop":0},{"id":3078951,"name":"Borovice","lon":15.98152,"lat":50.24455,"pop":0},{"id":3078952,"name":"Borovice","alt":["Worowitz"],"lon":12.94271,"lat":49.56728,"pop":0},{"id":3078949,"name":"Borovka","alt":["Borowka"],"lon":14.52798,"lat":49.77405,"pop":0},{"id":3078948,"name":"Borovná","lon":15.39461,"lat":49.1646,"pop":86},{"id":3078943,"name":"Borovnice","alt":["Borowitz"],"lon":15.61719,"lat":50.50916,"pop":443},{"id":3078944,"name":"Borovnice","lon":16.24531,"lat":50.06291,"pop":370},{"id":3078945,"name":"Borovnice","lon":16.20255,"lat":49.66723,"pop":186},{"id":3078946,"name":"Borovnice","lon":15.01833,"lat":49.64873,"pop":94},{"id":3078947,"name":"Borovnice","lon":14.51899,"lat":48.91207,"pop":94},{"id":3078942,"name":"Borovnička","alt":["Klein Borowitz"],"lon":15.66721,"lat":50.50087,"pop":189},{"id":3078941,"name":"Borovník","lon":16.22935,"lat":49.35556,"pop":84},{"id":3078940,"name":"Borovno","lon":13.69037,"lat":49.62198,"pop":94},{"id":3078939,"name":"Borovsko","lon":15.11454,"lat":49.69691,"pop":0},{"id":3078936,"name":"Borovy","lon":13.30233,"lat":49.5251,"pop":234},{"id":3078933,"name":"Boršice","alt":["Borschitz"],"lon":17.35084,"lat":49.06254,"pop":2239},{"id":3078934,"name":"Boršice u Blatnice","lon":17.57366,"lat":48.93274,"pop":0},{"id":3078930,"name":"Boršíkov","alt":["Borsikov"],"lon":14.63576,"lat":48.81794,"pop":0},{"id":3078931,"name":"Boršíkov","alt":["Borsikov","Woisetschlag"],"lon":14.33333,"lat":48.56667,"pop":0},{"id":3078925,"name":"Boršov","alt":["Borsov","Porstendorf"],"lon":16.62346,"lat":49.74488,"pop":0},{"id":3078926,"name":"Boršov","lon":15.43419,"lat":49.40394,"pop":118},{"id":3078927,"name":"Boršov","lon":17.12311,"lat":49.02478,"pop":0},{"id":3078929,"name":"Boršov","alt":["Borsov","Giesshubel","Giesshübel"],"lon":14.26667,"lat":48.66667,"pop":0},{"id":3078928,"name":"Boršov nad Vltavou","lon":14.43461,"lat":48.92371,"pop":0},{"id":3078922,"name":"Borušov","lon":16.7358,"lat":49.77584,"pop":162},{"id":3078920,"name":"Boseň","lon":15.0228,"lat":50.5041,"pop":386},{"id":3078917,"name":"Bošice","lon":15.03201,"lat":50.01593,"pop":0},{"id":3078918,"name":"Bošice","lon":13.68112,"lat":49.13456,"pop":0},{"id":3078919,"name":"Bošice","lon":13.84033,"lat":49.08928,"pop":291},{"id":3078916,"name":"Bošilec","lon":14.64622,"lat":49.14931,"pop":205},{"id":3078913,"name":"Bošín","lon":15.11365,"lat":50.28087,"pop":0},{"id":3078914,"name":"Bošín","lon":16.20296,"lat":50.03413,"pop":86},{"id":3078912,"name":"Bošířany","alt":["Bosirany","Poschitzau"],"lon":12.80562,"lat":50.15629,"pop":0},{"id":3078911,"name":"Boškov","alt":["Boskov","Poschkau"],"lon":17.61929,"lat":49.62512,"pop":0},{"id":3078910,"name":"Boskovice","alt":["Boskowitz","bo si ke wei cai","Босковице","博斯科維采"],"lon":16.65997,"lat":49.48751,"pop":11121},{"id":3078909,"name":"Boskovštejn","lon":15.92955,"lat":48.9827,"pop":146},{"id":3078908,"name":"Boškůvky","lon":17.06667,"lat":49.26667,"pop":0},{"id":3078907,"name":"Bosonohy","alt":["Parfuss"],"lon":16.52739,"lat":49.17531,"pop":0},{"id":3078904,"name":"Bošov","alt":["Bosov","Poschau"],"lon":13.23333,"lat":50.13333,"pop":0},{"id":3078905,"name":"Bošov","alt":["Bosov"],"lon":15.8732,"lat":49.85135,"pop":0},{"id":3078906,"name":"Bošov","lon":13.42913,"lat":49.17775,"pop":0},{"id":3078902,"name":"Bošovice","lon":14.07812,"lat":49.34962,"pop":0},{"id":3078903,"name":"Bošovice","alt":["Boschowitz"],"lon":16.83676,"lat":49.05351,"pop":1071},{"id":3078901,"name":"Boštice","alt":["Bostice"],"lon":15.06623,"lat":49.82488,"pop":0},{"id":3078900,"name":"Bostov","lon":14.8409,"lat":49.51501,"pop":0},{"id":3078899,"name":"Bosyně","lon":14.54971,"lat":50.41695,"pop":0},{"id":3078896,"name":"Boubín","lon":13.69602,"lat":49.30071,"pop":0},{"id":3078895,"name":"Boubská","lon":13.8,"lat":49.06667,"pop":0},{"id":3078894,"name":"Boučí","alt":["Bouci","Pichelberg"],"lon":12.58722,"lat":50.23493,"pop":0},{"id":3078890,"name":"Boudy","lon":14.46855,"lat":49.59179,"pop":0},{"id":3078891,"name":"Boudy","lon":14.03549,"lat":49.44795,"pop":175},{"id":3078892,"name":"Boudy","lon":16.31214,"lat":49.3844,"pop":0},{"id":3078889,"name":"Boušice","alt":["Bouschitz","Bousice"],"lon":14.73885,"lat":49.77524,"pop":0},{"id":3078888,"name":"Bousín","lon":16.88974,"lat":49.45511,"pop":131},{"id":11962139,"name":"Boušín","lon":16.05601,"lat":50.45646,"pop":0},{"id":3078886,"name":"Bousov","lon":15.53542,"lat":49.90175,"pop":226},{"id":3078885,"name":"Bouzov","alt":["Busau"],"lon":16.89288,"lat":49.70426,"pop":1490},{"id":3078884,"name":"Božanov","alt":["Barzdorf"],"lon":16.36529,"lat":50.52678,"pop":345},{"id":3078883,"name":"Bozdíš","alt":["Wostirsehen"],"lon":12.90387,"lat":49.47922,"pop":0},{"id":3078882,"name":"Bozdova Lhota","alt":["Hundshaberstift"],"lon":14.06975,"lat":48.82587,"pop":0},{"id":3078881,"name":"Božec","lon":15.36283,"lat":50.0753,"pop":0},{"id":3078880,"name":"Bozejny","lon":14.88355,"lat":49.56851,"pop":0},{"id":3078878,"name":"Božejov","alt":["Bozejow","Božejow"],"lon":15.1558,"lat":49.3621,"pop":669},{"id":3078879,"name":"Božejov","alt":["Bozejov","Buschendorf"],"lon":14.70103,"lat":48.79272,"pop":0},{"id":3078877,"name":"Božejovice","lon":14.48522,"lat":49.4616,"pop":0},{"id":3078876,"name":"Božetice","alt":["Bozetitz","Božetitz"],"lon":14.4439,"lat":49.45113,"pop":401},{"id":3078874,"name":"Božetín","alt":["Bozetin","Fasattengrun","Fasattengrün"],"lon":12.43063,"lat":50.23423,"pop":0},{"id":3078875,"name":"Božetín","lon":14.57152,"lat":49.55088,"pop":0},{"id":3078870,"name":"Boží Dar","alt":["Bozhi Dar","Bozhi-Dar","Bozi Dar","Gottesgab","bo ri da er","Божи Дар","Божи-Дар","博日達爾"],"lon":12.92445,"lat":50.40973,"pop":244},{"id":3078867,"name":"Boží Voda","alt":["Bozi Voda","Geweihtenbrunn"],"lon":14.45773,"lat":50.41615,"pop":0},{"id":3078868,"name":"Boží Voda","lon":14.94965,"lat":50.39399,"pop":0},{"id":3078873,"name":"Božičany","alt":["Poschelcau","Poschetau","Poschetzau"],"lon":12.76891,"lat":50.25794,"pop":623},{"id":3078872,"name":"Božice","alt":["Possitz"],"lon":16.28875,"lat":48.83687,"pop":1436},{"id":3078869,"name":"Božíkov","alt":["Bozikov","Gotzdorf","Götzdorf"],"lon":14.64878,"lat":50.67357,"pop":0},{"id":3078864,"name":"Bozkov","alt":["Boskow"],"lon":15.3371,"lat":50.64007,"pop":571},{"id":3078865,"name":"Božkov","alt":["Boschkau","Bozkov"],"lon":14.70586,"lat":49.92841,"pop":0},{"id":3078866,"name":"Božkov","alt":["Boschkow","Bozkov"],"lon":13.41881,"lat":49.73089,"pop":0},{"id":3078863,"name":"Božkovice","lon":14.62005,"lat":49.69198,"pop":0},{"id":3078862,"name":"Božkovy","lon":13.01545,"lat":49.46444,"pop":0},{"id":3078861,"name":"Božtěšice","alt":["Boztesice","Postitz"],"lon":14.02292,"lat":50.6905,"pop":0},{"id":3078860,"name":"Brabec","lon":15.08333,"lat":49.23333,"pop":0},{"id":3078859,"name":"Brada","lon":15.33058,"lat":50.46754,"pop":0},{"id":3078858,"name":"Bradáčov","lon":14.87112,"lat":49.49102,"pop":72},{"id":3078855,"name":"Bradlec","lon":14.91018,"lat":50.45135,"pop":595},{"id":3078854,"name":"Bradlecká Lhota","lon":15.39622,"lat":50.48857,"pop":198},{"id":3078853,"name":"Bradlné","lon":16.52093,"lat":49.59813,"pop":0},{"id":3078850,"name":"Bradlo","lon":15.65481,"lat":49.39285,"pop":0},{"id":3078849,"name":"Bradné","alt":["Bradne","Broden"],"lon":13.28723,"lat":49.26047,"pop":0},{"id":3078847,"name":"Brambory","lon":15.47021,"lat":49.97815,"pop":106},{"id":3078845,"name":"Braňany","alt":["Prohn"],"lon":13.70017,"lat":50.54295,"pop":1172},{"id":3078844,"name":"Brančíky","alt":["Branciky","Prenzig"],"lon":13.4,"lat":50.41667,"pop":0},{"id":3078841,"name":"Brandlín","alt":["Brandlin"],"lon":14.7876,"lat":49.30581,"pop":0},{"id":3078842,"name":"Brandlín","alt":["Brandlin"],"lon":15.31588,"lat":49.14221,"pop":0},{"id":3078840,"name":"Brandov","alt":["Brandau"],"lon":13.39072,"lat":50.632,"pop":249},{"id":3078838,"name":"Brandýs nad Labem","alt":["Brandeis","Brandije","Brandys na Labe","Brandys nad Labem","Brandýs na Labe"],"lon":14.67244,"lat":50.18356,"pop":0},{"id":3078837,"name":"Brandýs nad Labem-Stará Boleslav","alt":["Brandis na Labi-Stara Boleslav","Brandis-nad-Labem-Stara-Boleslav","Брандис на Лаби-Стара Болеслав","Брандис-над-Лабем-Стара-Болеслав","Брандіс-над-Лабем-Стара-Болеслав"],"lon":14.66326,"lat":50.18709,"pop":15398},{"id":3078836,"name":"Brandýs nad Orlicí","alt":["Brandeis"],"lon":16.28528,"lat":50.00194,"pop":1435},{"id":3078839,"name":"Brandýsek","alt":["Brandeis"],"lon":14.16199,"lat":50.18923,"pop":1679},{"id":3078835,"name":"Branice","lon":14.33954,"lat":49.40246,"pop":303},{"id":3078833,"name":"Braník","lon":14.41518,"lat":50.03498,"pop":18740},{"id":3078832,"name":"Braniškov","lon":16.34566,"lat":49.29437,"pop":167},{"id":3078825,"name":"Branišov","lon":13.0052,"lat":49.99327,"pop":0},{"id":3078826,"name":"Branišov","alt":["Branisov"],"lon":16.15434,"lat":49.51717,"pop":0},{"id":3078827,"name":"Branišov","alt":["Branisov"],"lon":15.43333,"lat":49.46667,"pop":0},{"id":3078828,"name":"Branišov","alt":["Branisov"],"lon":15.33867,"lat":49.42051,"pop":0},{"id":3078829,"name":"Branišov","lon":13.07931,"lat":49.38573,"pop":0},{"id":3078830,"name":"Branišov","lon":13.70587,"lat":49.09804,"pop":0},{"id":3078831,"name":"Branišov","lon":14.39569,"lat":48.9787,"pop":189},{"id":3078822,"name":"Branišovice","lon":14.37306,"lat":49.5169,"pop":0},{"id":3078823,"name":"Branišovice","alt":["Frainspitz"],"lon":16.43486,"lat":48.96264,"pop":519},{"id":3078824,"name":"Branišovice","alt":["Branisovice"],"lon":14.50631,"lat":48.85312,"pop":0},{"id":3078820,"name":"Branka","lon":17.88289,"lat":49.88797,"pop":0},{"id":3078821,"name":"Branka","alt":["Galtenhof","Jalovy Dvur","Jalový Dvŭr"],"lon":12.52416,"lat":49.82586,"pop":0},{"id":3078819,"name":"Brankovice","alt":["Brankowitz"],"lon":17.1348,"lat":49.15598,"pop":913},{"id":3078818,"name":"Branky","alt":["Branek"],"lon":17.89295,"lat":49.46096,"pop":874},{"id":3078816,"name":"Branná","alt":["Brana","Goldenstein","Kolstejn","Kolštejn","Брана"],"lon":17.01147,"lat":50.15319,"pop":341},{"id":3078817,"name":"Branná","alt":["Branna"],"lon":14.78414,"lat":48.96365,"pop":0},{"id":3078814,"name":"Branov","lon":13.84291,"lat":50.01287,"pop":208},{"id":3078813,"name":"Bransouze","lon":15.75195,"lat":49.30255,"pop":273},{"id":3078812,"name":"Brantice","alt":["Bransdorf"],"lon":17.62911,"lat":50.06351,"pop":1215},{"id":3078811,"name":"Branty","lon":15.8204,"lat":49.59735,"pop":0},{"id":3078810,"name":"Brany","alt":["Prahn"],"lon":13.38333,"lat":50.41667,"pop":0},{"id":3078809,"name":"Branžež","lon":15.0579,"lat":50.50758,"pop":213},{"id":3078808,"name":"Braškov","lon":14.10075,"lat":50.10203,"pop":904},{"id":3078807,"name":"Břasy","lon":13.57833,"lat":49.837,"pop":2055},{"id":3078805,"name":"Bratčice","lon":15.43038,"lat":49.85522,"pop":383},{"id":3078806,"name":"Bratčice","lon":16.52308,"lat":49.06515,"pop":676},{"id":3078803,"name":"Bratkovice","lon":14.18879,"lat":50.28413,"pop":0},{"id":3078804,"name":"Bratkovice","lon":13.99894,"lat":49.74041,"pop":278},{"id":3078801,"name":"Bratřejov","lon":14.37342,"lat":49.57706,"pop":0},{"id":3078802,"name":"Bratřejov","lon":17.91332,"lat":49.22246,"pop":759},{"id":3078800,"name":"Bratřice","lon":15.00122,"lat":49.51645,"pop":176},{"id":3078799,"name":"Bratříkov","alt":["Bratrikov"],"lon":15.25479,"lat":50.67986,"pop":0},{"id":3078797,"name":"Bratříkovice","alt":["Brattersdorf","Brättersdorf"],"lon":17.68754,"lat":49.93258,"pop":159},{"id":3078798,"name":"Bratříkovice","lon":14.39501,"lat":49.55913,"pop":0},{"id":3078796,"name":"Bratřínov","alt":["Braterschin"],"lon":14.34014,"lat":49.84258,"pop":115},{"id":3078793,"name":"Bratronice","lon":14.95541,"lat":50.29985,"pop":0},{"id":3078794,"name":"Bratronice","alt":["Bratronitz"],"lon":14.01416,"lat":50.06775,"pop":777},{"id":3078795,"name":"Bratronice","lon":13.84235,"lat":49.36525,"pop":53},{"id":3078792,"name":"Bratroňov","lon":15.44565,"lat":49.59524,"pop":0},{"id":3078791,"name":"Bratrouchov","lon":15.47562,"lat":50.704,"pop":0},{"id":3078790,"name":"Bratrušín","alt":["Bratrusin"],"lon":16.27404,"lat":49.51465,"pop":0},{"id":3078789,"name":"Bratrušov","alt":["Brattersdorf"],"lon":16.94962,"lat":50.00935,"pop":571},{"id":3078788,"name":"Bravantice","alt":["Brosdorf"],"lon":18.08276,"lat":49.75712,"pop":798},{"id":3078787,"name":"Bravinné","alt":["Bravinne","Brawin"],"lon":17.96191,"lat":49.75416,"pop":0},{"id":3078785,"name":"Bražec","lon":16.14904,"lat":50.3944,"pop":0},{"id":3078786,"name":"Bražec","alt":["Bergles","Brazec"],"lon":13.04772,"lat":50.17625,"pop":0},{"id":3078784,"name":"Bražná","lon":14.29776,"lat":49.628,"pop":0},{"id":3078782,"name":"Brčekoly","lon":15.96599,"lat":49.93524,"pop":0},{"id":3078775,"name":"Brdo","lon":15.469,"lat":50.49451,"pop":0},{"id":3078776,"name":"Brdo","lon":13.26218,"lat":50.00285,"pop":0},{"id":3078777,"name":"Brdo","lon":16.0639,"lat":49.86272,"pop":0},{"id":3078773,"name":"Břeclav","alt":["Brecizlavia","Breclav","Brzeclava","Brzeclavas","Brzeclavs","Brzeclaw","Brzecław","Brzheclav","Bržeclava","Bržeclavas","Bržeclavs","Lundenburg","beuleujecheullapeu","brytslaf","brzhtslaw","bu re ci la fu","bujetsurafu","Брецлав","Бржецлав","بريتسلاف","برژتسلاو","ブジェツラフ","布熱茨拉夫","브르제츨라프"],"lon":16.88203,"lat":48.75897,"pop":25789},{"id":3078771,"name":"Bredůvka","lon":16.56667,"lat":50.05,"pop":0},{"id":3078770,"name":"Břehoryje","alt":["Brehor","Břehor"],"lon":14.30901,"lat":50.54136,"pop":0},{"id":3078769,"name":"Břehov","lon":14.33057,"lat":49.02228,"pop":109},{"id":3078767,"name":"Břehy","lon":15.57748,"lat":50.05189,"pop":938},{"id":3078768,"name":"Břehy","lon":14.44514,"lat":49.20663,"pop":0},{"id":3078764,"name":"Brejle","lon":14.02365,"lat":49.4402,"pop":0},{"id":3078763,"name":"Břekova Lhota","alt":["Brekova Lhota"],"lon":14.36457,"lat":49.65924,"pop":0},{"id":3078762,"name":"Brenná","lon":14.63949,"lat":50.65636,"pop":0},{"id":3078761,"name":"Břest","lon":17.44072,"lat":49.35107,"pop":954},{"id":3078760,"name":"Břešt’any","lon":14.11706,"lat":50.28556,"pop":0},{"id":3078758,"name":"Břestek","lon":17.35592,"lat":49.09489,"pop":719},{"id":3078757,"name":"Břestový","lon":18.39081,"lat":49.47834,"pop":0},{"id":3078756,"name":"Břetislav","alt":["Bretislav","Setzlaw"],"lon":12.96656,"lat":49.8735,"pop":0},{"id":3078755,"name":"Břevenec","alt":["Brevenec","Trubenz"],"lon":17.15512,"lat":49.85714,"pop":0},{"id":3078753,"name":"Břevnice","lon":15.65017,"lat":49.70326,"pop":0},{"id":3078754,"name":"Břevnice","lon":15.61259,"lat":49.63126,"pop":127},{"id":3078749,"name":"Břevniště","alt":["Brevniste","Merzdorf"],"lon":14.86922,"lat":50.71118,"pop":0},{"id":3078750,"name":"Břevniště","alt":["Brevniste","Tussetschlag"],"lon":14.15547,"lat":48.83675,"pop":0},{"id":3078748,"name":"Břevnov","alt":["Brevnov","Brewnow","Břewnow"],"lon":14.3831,"lat":50.07438,"pop":0},{"id":3078747,"name":"Břežánky","alt":["Brezanky","Briesen"],"lon":13.76667,"lat":50.55,"pop":0},{"id":3078740,"name":"Břežany","alt":["Pressern"],"lon":13.46203,"lat":50.34951,"pop":0},{"id":3078741,"name":"Břežany","alt":["Brezany"],"lon":14.8072,"lat":50.09144,"pop":0},{"id":3078742,"name":"Břežany","lon":15.07888,"lat":50.03522,"pop":0},{"id":3078743,"name":"Břežany","lon":13.58279,"lat":50.00685,"pop":123},{"id":3078744,"name":"Břežany","alt":["Breschan","Brezany"],"lon":14.52943,"lat":49.83826,"pop":0},{"id":3078745,"name":"Břežany","alt":["https://en.wikipedia.org/wiki/Brezany_(Klatovy_District)","https://en.wikipedia.org/wiki/Břežany_(Klatovy_District)"],"lon":13.61735,"lat":49.34876,"pop":155},{"id":3078746,"name":"Břežany","alt":["Frischau","Frysava","Fryšava"],"lon":16.34175,"lat":48.86992,"pop":931},{"id":3078739,"name":"Břežany nad Ohří","lon":14.12138,"lat":50.41661,"pop":0},{"id":3078738,"name":"Březce","lon":17.23452,"lat":49.66786,"pop":0},{"id":3078737,"name":"Březejc","lon":16.09146,"lat":49.3463,"pop":129},{"id":3078736,"name":"Březenec","alt":["Brezenec","Pirken"],"lon":13.41812,"lat":50.49575,"pop":0},{"id":3078735,"name":"Březenice","alt":["Brezenice"],"lon":16.24184,"lat":50.00843,"pop":0},{"id":3078734,"name":"Březhrad","lon":15.79016,"lat":50.17408,"pop":0},{"id":3078712,"name":"Březí","alt":["Presei"],"lon":14.11537,"lat":50.645,"pop":0},{"id":3078713,"name":"Březí","lon":14.69928,"lat":50.01466,"pop":266},{"id":3078714,"name":"Březí","alt":["Brezi"],"lon":15.35882,"lat":49.84559,"pop":0},{"id":3078715,"name":"Březí","alt":["Seslas"],"lon":13.13055,"lat":49.84296,"pop":0},{"id":3078716,"name":"Březí","alt":["Brezi","Pirkau"],"lon":12.63679,"lat":49.84025,"pop":0},{"id":3078717,"name":"Březí","lon":17.73345,"lat":49.79286,"pop":0},{"id":3078718,"name":"Březí","lon":14.44656,"lat":49.56063,"pop":0},{"id":3078719,"name":"Březí","alt":["Brezi"],"lon":14.27504,"lat":49.53464,"pop":0},{"id":3078720,"name":"Březí","lon":13.79748,"lat":49.50777,"pop":71},{"id":3078721,"name":"Březí","lon":15.93578,"lat":49.50295,"pop":0},{"id":3078722,"name":"Březí","lon":14.359,"lat":49.50024,"pop":68},{"id":3078723,"name":"Březí","lon":13.46575,"lat":49.50173,"pop":0},{"id":3078724,"name":"Březí","alt":["Pirk"],"lon":12.88061,"lat":49.48926,"pop":0},{"id":3078725,"name":"Březí","lon":16.21594,"lat":49.34318,"pop":171},{"id":3078726,"name":"Březí","lon":14.35992,"lat":49.30778,"pop":0},{"id":3078727,"name":"Březí","lon":14.25628,"lat":49.31015,"pop":0},{"id":3078728,"name":"Březí","alt":["Birkau","Brezi"],"lon":13.29036,"lat":49.27508,"pop":0},{"id":3078729,"name":"Březí","lon":14.39056,"lat":49.18025,"pop":0},{"id":3078730,"name":"Březí","lon":14.42208,"lat":48.91442,"pop":0},{"id":3078731,"name":"Březí","lon":14.5993,"lat":48.84483,"pop":0},{"id":3078732,"name":"Březí","alt":["Bratelsbrunn","Pratelsbrunn","Pratlsbrun","Prátelsbrunn","Prátlsbrun"],"lon":16.56748,"lat":48.81928,"pop":1539},{"id":3078733,"name":"Březí","alt":["Brezi","Wuretzhofen"],"lon":14.28333,"lat":48.73333,"pop":0},{"id":3078711,"name":"Březín","alt":["Brezin","Wirschin"],"lon":13.13405,"lat":49.96218,"pop":0},{"id":3078699,"name":"Březina","lon":15.03279,"lat":50.54855,"pop":352},{"id":3078700,"name":"Březina","lon":15.31326,"lat":50.43429,"pop":62},{"id":3078701,"name":"Březina","alt":["Brezina","Pirk"],"lon":13.09545,"lat":50.18684,"pop":0},{"id":3078702,"name":"Březina","lon":13.59679,"lat":49.80753,"pop":311},{"id":3078704,"name":"Březina","alt":["Briesen"],"lon":16.61449,"lat":49.65104,"pop":362},{"id":3078705,"name":"Březina","lon":15.08955,"lat":49.49818,"pop":0},{"id":3078706,"name":"Březina","lon":16.96084,"lat":49.3684,"pop":3},{"id":3078707,"name":"Březina","lon":16.42142,"lat":49.32124,"pop":236},{"id":3078708,"name":"Březina","lon":14.90966,"lat":49.29054,"pop":153},{"id":3078709,"name":"Březina","lon":16.74952,"lat":49.2816,"pop":595},{"id":3078710,"name":"Březina","lon":16.28136,"lat":49.22048,"pop":0},{"id":3078703,"name":"Březína","lon":16.91886,"lat":49.66524,"pop":0},{"id":3078698,"name":"Březiněves","alt":["Brezineves"],"lon":14.48459,"lat":50.16628,"pop":0},{"id":3078693,"name":"Březinka","alt":["Brezinka"],"lon":14.77705,"lat":50.47819,"pop":0},{"id":3078694,"name":"Březinka","alt":["Brezinka"],"lon":14.55,"lat":50.44829,"pop":0},{"id":3078695,"name":"Březinka","alt":["Brezinka"],"lon":15.56639,"lat":49.93102,"pop":0},{"id":3078696,"name":"Březinka","lon":16.59064,"lat":49.62817,"pop":0},{"id":3078697,"name":"Březinka","alt":["Brezinka"],"lon":15.49864,"lat":49.60082,"pop":0},{"id":3078692,"name":"Březinky","lon":16.78692,"lat":49.66269,"pop":150},{"id":3078690,"name":"Březiny","alt":["Birkigt","Breziny"],"lon":14.25817,"lat":50.76096,"pop":0},{"id":3078691,"name":"Březiny","lon":16.11813,"lat":49.69063,"pop":142},{"id":3078688,"name":"Březka","lon":15.29602,"lat":50.47942,"pop":0},{"id":3078689,"name":"Březka","alt":["Brezka"],"lon":16.16262,"lat":49.28511,"pop":0},{"id":3078687,"name":"Březná","alt":["Brezna","Brezna Ves","Březná Ves","Friesedorf"],"lon":16.77715,"lat":49.97357,"pop":0},{"id":3078682,"name":"Březnice","lon":13.47049,"lat":50.16354,"pop":0},{"id":3078683,"name":"Březnice","alt":["Breznice","Breznitz","Brzheznice","Březnitz","bu re zi ni cai","Брезњице","Бржезнице","布熱茲尼采"],"lon":13.95063,"lat":49.55763,"pop":3662},{"id":3078684,"name":"Březnice","lon":14.51399,"lat":49.25177,"pop":199},{"id":3078685,"name":"Březnice","alt":["Brzeznitz","Břzeznitz"],"lon":17.66277,"lat":49.18643,"pop":1136},{"id":3078677,"name":"Březník","lon":16.1941,"lat":49.17205,"pop":635},{"id":3078673,"name":"Březno","alt":["Brezno","Priesen"],"lon":13.97536,"lat":50.52495,"pop":0},{"id":3078674,"name":"Březno","lon":15.00548,"lat":50.40619,"pop":627},{"id":3078675,"name":"Březno","alt":["Priesen"],"lon":13.42118,"lat":50.40185,"pop":1220},{"id":3078676,"name":"Březno","lon":13.73244,"lat":50.35609,"pop":0},{"id":3078672,"name":"Březolupy","alt":["Brzezoluse"],"lon":17.58034,"lat":49.12138,"pop":1559},{"id":3078661,"name":"Březová","lon":14.97333,"lat":50.63264,"pop":0},{"id":3078662,"name":"Březová","alt":["Birkicht","Birkigt","Brezova"],"lon":16.23061,"lat":50.60938,"pop":0},{"id":3078663,"name":"Březová","alt":["Pirkenhammer"],"lon":12.87144,"lat":50.19788,"pop":531},{"id":3078664,"name":"Březová","alt":["Prosau","Prösau"],"lon":12.64996,"lat":50.14557,"pop":2826},{"id":3078665,"name":"Březová","lon":17.77893,"lat":49.94857,"pop":0},{"id":3078666,"name":"Březová","alt":["Brezova","Bschesowa"],"lon":14.40933,"lat":49.91371,"pop":0},{"id":3078667,"name":"Březová","lon":13.88301,"lat":49.90408,"pop":252},{"id":3078668,"name":"Březová","alt":["Brezova"],"lon":15.25811,"lat":49.87686,"pop":0},{"id":3078669,"name":"Březová","alt":["Briesau"],"lon":17.86556,"lat":49.79158,"pop":1307},{"id":3078670,"name":"Březová","lon":17.79124,"lat":49.26027,"pop":477},{"id":3078671,"name":"Březová","lon":17.73986,"lat":48.92543,"pop":1109},{"id":3078659,"name":"Březová nad Svitavou","alt":["Brezova","Brusau","Brüsau","Březová"],"lon":16.51799,"lat":49.64418,"pop":1518},{"id":3078658,"name":"Březové","alt":["Brezove"],"lon":17.11667,"lat":49.68333,"pop":0},{"id":3078657,"name":"Březové Hory","alt":["Birkenberg","Brezove Hory"],"lon":13.98203,"lat":49.6799,"pop":0},{"id":3078653,"name":"Březovice","lon":14.7336,"lat":50.47072,"pop":289},{"id":3078654,"name":"Březovice","lon":15.66794,"lat":50.35908,"pop":0},{"id":3078655,"name":"Březovice","lon":15.96837,"lat":49.95748,"pop":0},{"id":3078656,"name":"Březovice","alt":["Brezovice","Prislowitz"],"lon":14.23729,"lat":48.66224,"pop":0},{"id":3078652,"name":"Březovík","alt":["Brezovik","Oxbrunn"],"lon":14.15746,"lat":48.90012,"pop":0},{"id":3078651,"name":"Březské","lon":16.23817,"lat":49.32992,"pop":225},{"id":3078650,"name":"Březsko","lon":16.89243,"lat":49.60859,"pop":224},{"id":3078649,"name":"Březůvky","lon":17.69962,"lat":49.15333,"pop":642},{"id":3078648,"name":"Břidličná","alt":["Friedland","Friedland an der Mohra","Frydland na Morave","Frydlant nad Moravici","Frýdland na Moravě","Frýdlant nad Moravicí"],"lon":17.37107,"lat":49.91167,"pop":3698},{"id":3078647,"name":"Břidlová","alt":["Bridlova","Schieferhutten","Schieferhütten"],"lon":12.6,"lat":50.35,"pop":0},{"id":3078646,"name":"Břilice","alt":["Brilice"],"lon":14.73988,"lat":49.01784,"pop":0},{"id":3078645,"name":"Břínkov","lon":13.78733,"lat":50.2776,"pop":0},{"id":3078644,"name":"Břišejov","alt":["Brisejov"],"lon":14.48692,"lat":49.7045,"pop":0},{"id":3078643,"name":"Bříšťany","lon":15.62082,"lat":50.31624,"pop":215},{"id":3078642,"name":"Břístev","lon":15.22993,"lat":50.28703,"pop":0},{"id":3078640,"name":"Bříství","lon":14.84174,"lat":50.13393,"pop":299},{"id":3078641,"name":"Bříství","lon":15.11549,"lat":50.02943,"pop":0},{"id":3078639,"name":"Brixův Dvůr","lon":13.86667,"lat":48.91667,"pop":0},{"id":3078636,"name":"Bříza","lon":14.21626,"lat":50.36051,"pop":369},{"id":3078637,"name":"Bříza","alt":["Briza"],"lon":15.76623,"lat":50.242,"pop":0},{"id":3078638,"name":"Bříza","alt":["Pirk"],"lon":12.28177,"lat":50.09135,"pop":0},{"id":3078635,"name":"Břízsko","lon":13.51971,"lat":49.90591,"pop":0},{"id":3078634,"name":"Brlenka","alt":["Brunnersteig","Brünnersteig"],"lon":16.38388,"lat":49.81488,"pop":0},{"id":3078630,"name":"Brloh","lon":13.82561,"lat":50.31916,"pop":0},{"id":3078631,"name":"Brloh","lon":15.55728,"lat":50.00059,"pop":232},{"id":3078632,"name":"Brloh","lon":14.01838,"lat":49.32725,"pop":0},{"id":3078633,"name":"Brloh","alt":["Berlau","Brlohy"],"lon":14.21857,"lat":48.92987,"pop":1039},{"id":3078628,"name":"Brložec","alt":["Brlozec","Parlosa"],"lon":14.31169,"lat":50.7766,"pop":0},{"id":3078629,"name":"Brložec","alt":["Brlozec","Purles","Pürles"],"lon":13.06789,"lat":50.05973,"pop":0},{"id":3078624,"name":"Brná","alt":["Brna"],"lon":16.33333,"lat":50.08333,"pop":0},{"id":3078625,"name":"Brná","alt":["Brna"],"lon":14.97598,"lat":49.40843,"pop":0},{"id":3078623,"name":"Brná nad Labem","alt":["Birnai","Brna","Brna nad Labem","Brná"],"lon":14.07951,"lat":50.61933,"pop":0},{"id":3078621,"name":"Brňany","lon":14.14186,"lat":50.48097,"pop":413},{"id":3078622,"name":"Brňany","alt":["Brnany"],"lon":17.00839,"lat":49.27308,"pop":0},{"id":3078620,"name":"Brněnec","alt":["Brunnlitz","Brünnlitz"],"lon":16.52202,"lat":49.62735,"pop":1405},{"id":3078619,"name":"Brněnské Ivanovice","alt":["Nennowitz"],"lon":16.65562,"lat":49.15263,"pop":0},{"id":3078617,"name":"Brníčko","alt":["Brnichko","Брњичко"],"lon":16.9682,"lat":49.89488,"pop":606},{"id":3078618,"name":"Brníčko","alt":["Brnicko","Pirnik"],"lon":17.14203,"lat":49.77251,"pop":0},{"id":3078616,"name":"Brník","alt":["Brnik"],"lon":14.90618,"lat":49.98289,"pop":0},{"id":3078615,"name":"Brníkov","lon":14.07881,"lat":50.37733,"pop":0},{"id":3078614,"name":"Brnířov","lon":13.04958,"lat":49.38259,"pop":345},{"id":3078613,"name":"Brniště","alt":["Brims","Brins"],"lon":14.70338,"lat":50.72919,"pop":1358},{"id":3078612,"name":"Brnky","lon":14.4096,"lat":50.15942,"pop":0},{"id":3078610,"name":"Brno","alt":["BRQ","Berno","Brno osh","Bruenn","Bruna","Brunn","Brünn","Burno","Mprno","beuleuno","bexr no","brano","brno","brnw","bryn","bu er nuo","buruno","Μπρνο","Брно","Брно ош","Бърно","Բռնո","ברין","ברנו","برنو","ब्रनो","เบอร์โน","ბრნო","ブルノ","布爾諾","브르노"],"lon":16.60796,"lat":49.19522,"pop":379466},{"id":6694367,"name":"Brno střed","lon":16.60712,"lat":49.19343,"pop":0},{"id":3078608,"name":"Brňov","lon":17.98714,"lat":49.43726,"pop":0},{"id":3078606,"name":"Brocná","alt":["Brotzney"],"lon":16.25513,"lat":50.23507,"pop":0},{"id":3078605,"name":"Brocno","alt":["Brotzen"],"lon":14.44462,"lat":50.47641,"pop":0},{"id":3078599,"name":"Brod","alt":["Prode"],"lon":15.9128,"lat":50.38712,"pop":0},{"id":3078600,"name":"Brod","lon":13.27003,"lat":49.8765,"pop":0},{"id":3078601,"name":"Brod","alt":["Bruck"],"lon":12.74093,"lat":49.83379,"pop":0},{"id":3078602,"name":"Brod","lon":12.92034,"lat":49.6949,"pop":0},{"id":3078603,"name":"Brod","lon":14.01375,"lat":49.66085,"pop":0},{"id":3078604,"name":"Brod","lon":13.44208,"lat":49.32696,"pop":0},{"id":3078582,"name":"Brod nad Dyjí","alt":["Guidenfurt","Kolenfurt"],"lon":16.53538,"lat":48.87521,"pop":494},{"id":3078595,"name":"Brodce","alt":["Prodlas","Prödlas"],"lon":13.23063,"lat":50.35072,"pop":0},{"id":3078596,"name":"Brodce","alt":["Brodetz"],"lon":14.86917,"lat":50.33068,"pop":935},{"id":3078597,"name":"Brodce","alt":["Brodce nad Sazavou"],"lon":14.60993,"lat":49.83488,"pop":0},{"id":3078598,"name":"Brodce","lon":15.67081,"lat":49.25769,"pop":0},{"id":3078593,"name":"Brodec","lon":13.80161,"lat":50.29492,"pop":62},{"id":3078586,"name":"Brodek","lon":15.68526,"lat":50.42161,"pop":0},{"id":3078587,"name":"Brodek","lon":15.16689,"lat":50.35703,"pop":0},{"id":3078588,"name":"Brodek","lon":16.72536,"lat":49.58119,"pop":0},{"id":3078589,"name":"Brodek","alt":["Prodlitz","Prödlitz"],"lon":17.08931,"lat":49.36977,"pop":0},{"id":3078585,"name":"Brodek u Konice","alt":["Brodek","Deutsch Brodek"],"lon":16.83286,"lat":49.54869,"pop":941},{"id":3078584,"name":"Brodek u Přerova","alt":["Brodek"],"lon":17.33825,"lat":49.48419,"pop":1972},{"id":3078583,"name":"Brodeslavy","lon":13.55699,"lat":49.95367,"pop":72},{"id":3078581,"name":"Brody","alt":["Prollas","Pröllas"],"lon":13.33878,"lat":50.24534,"pop":0},{"id":3078580,"name":"Broučkova Lhota","lon":14.71226,"lat":49.46542,"pop":0},{"id":3078577,"name":"Broumov","alt":["Braunau","Brunoviensis civitas","bu lao mo fu","Броумов","布劳莫夫"],"lon":16.33181,"lat":50.58566,"pop":8254},{"id":3078578,"name":"Broumov","alt":["Braunau","Promenhof"],"lon":12.60669,"lat":49.88937,"pop":128},{"id":3078576,"name":"Broumova Lhota","lon":15.43776,"lat":49.62861,"pop":0},{"id":3078575,"name":"Broumovice","lon":14.70882,"lat":49.63458,"pop":0},{"id":3078573,"name":"Broumy","alt":["Braum"],"lon":13.85226,"lat":49.95507,"pop":793},{"id":3078571,"name":"Brozánky","lon":13.93736,"lat":50.60656,"pop":0},{"id":3078572,"name":"Brozánky","alt":["Brozanek","Brozanky"],"lon":14.45957,"lat":50.35191,"pop":0},{"id":3078569,"name":"Brozany","alt":["Brozan"],"lon":14.14525,"lat":50.45423,"pop":0},{"id":3078570,"name":"Brozany","lon":15.79807,"lat":50.06525,"pop":0},{"id":3078568,"name":"Brť","alt":["Pirten"],"lon":12.89125,"lat":50.04314,"pop":0},{"id":3078567,"name":"Brtec","lon":14.47286,"lat":49.47867,"pop":0},{"id":3078566,"name":"Brteč","alt":["Brtec"],"lon":16.12197,"lat":49.92388,"pop":0},{"id":3078565,"name":"Brtev","lon":15.60441,"lat":50.43726,"pop":0},{"id":3078564,"name":"Brtí","lon":13.2766,"lat":49.29426,"pop":0},{"id":3078562,"name":"Brtná","alt":["Brtna","Zeidlweid"],"lon":12.52703,"lat":50.00803,"pop":0},{"id":3078563,"name":"Brtná","alt":["Brtna"],"lon":15.2138,"lat":49.50968,"pop":0},{"id":3078560,"name":"Brtnice","alt":["Schwarztal"],"lon":14.63448,"lat":49.91332,"pop":0},{"id":3078561,"name":"Brtnice","alt":["Brutnice","Pirnitz","bu er te ni cai","Бртнице","Бртњице","Брътнице","布爾特尼采"],"lon":15.67642,"lat":49.30695,"pop":3744},{"id":3078559,"name":"Brtnička","lon":15.62421,"lat":49.23718,"pop":117},{"id":3078556,"name":"Brtníky","alt":["Zeidler"],"lon":14.44127,"lat":50.94745,"pop":0},{"id":3078554,"name":"Brťov","lon":16.64,"lat":49.61744,"pop":0},{"id":3078555,"name":"Brťov","lon":16.5156,"lat":49.41408,"pop":0},{"id":3078553,"name":"Brťoví","lon":16.37035,"lat":49.53119,"pop":0},{"id":3078552,"name":"Břuchotín","lon":17.17869,"lat":49.62358,"pop":0},{"id":3078551,"name":"Brůdek","alt":["Furthel","Fürthel"],"lon":13.01667,"lat":49.36667,"pop":0},{"id":3078549,"name":"Brumov","lon":16.42575,"lat":49.46238,"pop":236},{"id":3078550,"name":"Brumov","alt":["Brumow"],"lon":18.02572,"lat":49.09298,"pop":0},{"id":11524295,"name":"Brumov-Bylnice","lon":18.02238,"lat":49.09177,"pop":0},{"id":3078547,"name":"Brumovice","alt":["Braunsdorf"],"lon":17.74958,"lat":50.0153,"pop":1464},{"id":3078548,"name":"Brumovice","lon":16.89615,"lat":48.9608,"pop":933},{"id":3078546,"name":"Brunšov","alt":["Brunschau"],"lon":14.40505,"lat":49.85558,"pop":0},{"id":3078545,"name":"Bruntál","alt":["Freudenthal"],"lon":17.4647,"lat":49.98844,"pop":17686},{"id":3078542,"name":"Brusná","lon":16.39984,"lat":49.39321,"pop":0},{"id":3078543,"name":"Brusná","lon":14.17035,"lat":49.00647,"pop":0},{"id":3078540,"name":"Brusné","alt":["Brusnai","Brusne"],"lon":14.62905,"lat":50.47057,"pop":0},{"id":3078541,"name":"Brusné","lon":17.6607,"lat":49.36334,"pop":369},{"id":3078539,"name":"Brusnice","alt":["Deutsch Prausnitz","Nemecka-Brusnice","Německá-Brusnice"],"lon":15.89855,"lat":50.48478,"pop":0},{"id":3078538,"name":"Brusov","alt":["Prause"],"lon":14.32102,"lat":50.6279,"pop":0},{"id":3078537,"name":"Brušovec","alt":["Brusovec","Kolarka","Kolařka"],"lon":16.00864,"lat":49.67401,"pop":0},{"id":3078536,"name":"Brušperk","alt":["Braunsberg"],"lon":18.2221,"lat":49.7001,"pop":3620},{"id":3078535,"name":"Brusy","lon":14.01529,"lat":49.3033,"pop":0},{"id":3078534,"name":"Bruzovice","lon":18.40964,"lat":49.71699,"pop":732},{"id":3078533,"name":"Břvany","alt":["Weberschan"],"lon":13.72154,"lat":50.40115,"pop":330},{"id":3078532,"name":"Břve","alt":["Brve"],"lon":14.24329,"lat":50.07057,"pop":0},{"id":3078531,"name":"Brzánky","alt":["Brzanek"],"lon":14.30119,"lat":50.46184,"pop":91},{"id":3078530,"name":"Brzice","lon":15.95831,"lat":50.44439,"pop":201},{"id":3078528,"name":"Brzkov","lon":15.72714,"lat":49.52597,"pop":245},{"id":3078527,"name":"Brzotice","lon":15.13127,"lat":49.66284,"pop":0},{"id":3078526,"name":"Bubeneč","alt":["Bubenec","Bubentsch"],"lon":14.4066,"lat":50.10921,"pop":0},{"id":3078524,"name":"Bublava","alt":["Schwaderbach"],"lon":12.50517,"lat":50.37438,"pop":334},{"id":3078523,"name":"Bubnov","alt":["Bubenetz"],"lon":16.5146,"lat":50.13945,"pop":0},{"id":3078521,"name":"Bubovice","lon":14.16649,"lat":49.96966,"pop":222},{"id":3078522,"name":"Bubovice","lon":13.928,"lat":49.5519,"pop":0},{"id":3078520,"name":"Buč","alt":["Buc","Pusch"],"lon":13.08711,"lat":50.02166,"pop":0},{"id":3078519,"name":"Bučávka","alt":["Butschafka"],"lon":17.62293,"lat":50.20646,"pop":0},{"id":3078518,"name":"Buček","lon":13.52262,"lat":49.95299,"pop":0},{"id":3078515,"name":"Buchingrův Dvůr","lon":13.51667,"lat":49.1,"pop":0},{"id":3078513,"name":"Buchlovice","alt":["Buchlowitz","Bukhlovice","Buxlovitse","Buxlovîtse","Бухловице"],"lon":17.33852,"lat":49.08627,"pop":2487},{"id":3078512,"name":"Buchov","lon":14.65997,"lat":49.61284,"pop":0},{"id":3078508,"name":"Bučí","lon":13.30277,"lat":49.88517,"pop":137},{"id":3078509,"name":"Bučí","alt":["Buci","Putschen"],"lon":14.24645,"lat":48.72777,"pop":0},{"id":3078505,"name":"Bučina","lon":16.19284,"lat":49.89687,"pop":203},{"id":3078504,"name":"Bučnice","alt":["Buchwaldsdorf","Bucnice"],"lon":16.15,"lat":50.6,"pop":0},{"id":3078501,"name":"Bučovice","lon":15.53864,"lat":49.83646,"pop":0},{"id":3078502,"name":"Bučovice","lon":14.55493,"lat":49.63444,"pop":0},{"id":3078503,"name":"Bučovice","alt":["Buchovice","Butschowitz","bu qiao wei cai","Бучовице","布喬維采"],"lon":17.00191,"lat":49.14896,"pop":6386},{"id":3078497,"name":"Buda","lon":14.989,"lat":50.48347,"pop":0},{"id":3078498,"name":"Buda","lon":14.74272,"lat":49.99003,"pop":0},