[{"id":3504833,"name":"12 de Haina","alt":["Haina","Jaina"],"lon":-69.99656,"lat":18.42913,"pop":0},{"id":3513063,"name":"Abajo","lon":-70.5,"lat":19.41667,"pop":0},{"id":3510991,"name":"Abajo Caballero","alt":["Caballero"],"lon":-70.32409,"lat":18.99803,"pop":0},{"id":3505033,"name":"Abajo Guaucí","alt":["Abajo Guauci","Guaci Abajo","Guaici Abajo","Guaicí Abajo","Guaisi Abajo","Guauci","Guaucí"],"lon":-70.52717,"lat":19.40862,"pop":0},{"id":3513055,"name":"Abra Grande","lon":-69.5,"lat":19.31667,"pop":0},{"id":3513053,"name":"Abreu","lon":-69.95,"lat":19.66667,"pop":0},{"id":3513048,"name":"Acicate","alt":["Acicale"],"lon":-70.01059,"lat":19.16517,"pop":0},{"id":3513047,"name":"Acosta","lon":-69.31667,"lat":19.21667,"pop":0},{"id":3513045,"name":"Adamanay","alt":["Mano Juan"],"lon":-68.72919,"lat":18.12904,"pop":0},{"id":3740300,"name":"Agua","lon":-70.10447,"lat":18.36363,"pop":0},{"id":3513011,"name":"Agua Buena","alt":["Aguas Buenas"],"lon":-69.72005,"lat":18.74527,"pop":0},{"id":3512975,"name":"Agua Clara","lon":-71.39809,"lat":19.50382,"pop":0},{"id":3512976,"name":"Agua Clara","alt":["Aguas Claras"],"lon":-71.41017,"lat":19.47652,"pop":0},{"id":3512977,"name":"Agua Clara","alt":["Jagua Clara"],"lon":-69.15741,"lat":18.83631,"pop":0},{"id":3512978,"name":"Agua Clara","lon":-70.58914,"lat":18.29072,"pop":0},{"id":3512963,"name":"Agua de La Estancia","lon":-70.33333,"lat":18.23333,"pop":0},{"id":3512960,"name":"Agua de la Palma","alt":["Agua Palma","Agua de Palma"],"lon":-71.25,"lat":19.75,"pop":0},{"id":3512954,"name":"Agua de Limón","lon":-70.33333,"lat":18.35,"pop":0},{"id":3512947,"name":"Agua de Luis","lon":-71.21272,"lat":19.76712,"pop":0},{"id":3512948,"name":"Agua de Luis","lon":-71.23333,"lat":19.73333,"pop":0},{"id":3512949,"name":"Agua del Rey","alt":["Agua de Rey"],"lon":-69.58333,"lat":18.43333,"pop":0},{"id":3512940,"name":"Agua Dulce","lon":-69.88333,"lat":18.5,"pop":0},{"id":3512934,"name":"Agua Fría","lon":-70.37864,"lat":19.37125,"pop":0},{"id":3512935,"name":"Agua Fría","lon":-70.68816,"lat":18.54419,"pop":0},{"id":3512931,"name":"Agua Hedionada","alt":["Agua Hedionda"],"lon":-71.0099,"lat":19.76201,"pop":0},{"id":3512927,"name":"Agua Hedionda","lon":-70.85333,"lat":19.615,"pop":0},{"id":3512928,"name":"Agua Hedionda","lon":-69.49725,"lat":18.4099,"pop":0},{"id":3512919,"name":"Agua Larga","lon":-70.92173,"lat":19.71875,"pop":0},{"id":3512920,"name":"Agua Larga","lon":-70.78472,"lat":19.69252,"pop":0},{"id":3512918,"name":"Agua Lluvia","lon":-69.12256,"lat":18.52503,"pop":0},{"id":3512916,"name":"Agua Negra","alt":["Aguas Negras"],"lon":-71.70058,"lat":18.16552,"pop":0},{"id":3512914,"name":"Agua Prieta","alt":["Aguita Prieta","Agüita Prieta"],"lon":-71.58333,"lat":18.63333,"pop":0},{"id":3512904,"name":"Agua Santa","lon":-71.63634,"lat":19.51876,"pop":0},{"id":3512902,"name":"Agua Santa del Yuna","alt":["Trujillo del Yuna"],"lon":-69.80069,"lat":19.15072,"pop":1830},{"id":3512889,"name":"Agua Viva","lon":-69.73049,"lat":18.79305,"pop":0},{"id":3513007,"name":"Aguacate","lon":-70.7,"lat":19.23333,"pop":0},{"id":3513008,"name":"Aguacate","alt":["El Aguacate","El Aguacate Adentro"],"lon":-69.83356,"lat":18.59969,"pop":0},{"id":3512985,"name":"Aguacate Abajo","alt":["El Aguacate Abajo"],"lon":-70.46769,"lat":19.40211,"pop":0},{"id":3512983,"name":"Aguacate Arriba","alt":["El Aguacate"],"lon":-70.44405,"lat":19.44485,"pop":0},{"id":3512984,"name":"Aguacate Arriba","alt":["El Aguacate","El Aguacate Arriba"],"lon":-70.44699,"lat":19.43302,"pop":0},{"id":3512981,"name":"Aguacate de Navarrete","alt":["Aguacate"],"lon":-70.88049,"lat":19.61752,"pop":0},{"id":3512982,"name":"Aguacate del Limón","lon":-70.8063,"lat":19.62972,"pop":0},{"id":3512922,"name":"Aguají","alt":["Aguaji","Aguaqui","Aguaquí","El Aguaji","El Aguají"],"lon":-70.89249,"lat":19.74945,"pop":0},{"id":3512906,"name":"Aguas Altas","lon":-70.51796,"lat":19.15546,"pop":0},{"id":3512905,"name":"Aguas Amargas","lon":-71.45631,"lat":19.85363,"pop":0},{"id":3512897,"name":"Aguas Buenas","lon":-69.68333,"lat":19.25,"pop":0},{"id":3512895,"name":"Aguas Calientes","lon":-70.90981,"lat":19.24201,"pop":0},{"id":3512893,"name":"Aguas Prietas","alt":["Agua Prieta"],"lon":-69.68813,"lat":18.74459,"pop":0},{"id":3512890,"name":"Aguas Vivas","lon":-69.73082,"lat":18.78569,"pop":0},{"id":3512888,"name":"Aguazarca","alt":["Agua Sarca"],"lon":-70.21458,"lat":19.07718,"pop":0},{"id":3512882,"name":"Aguirre","alt":["Guirre","Güirre"],"lon":-70.15,"lat":19.13333,"pop":0},{"id":3512869,"name":"Ahoga Maco","lon":-68.86725,"lat":18.78161,"pop":0},{"id":3512867,"name":"Ahoga Mulo","alt":["Ahoga Mula"],"lon":-69.17334,"lat":18.46311,"pop":0},{"id":3512860,"name":"Ahorca Los Perros","lon":-69.60957,"lat":18.64207,"pop":0},{"id":3512809,"name":"Al Otro Lado","lon":-68.86419,"lat":18.55387,"pop":0},{"id":3512857,"name":"Albana","lon":-70.90883,"lat":19.40097,"pop":0},{"id":3512851,"name":"Alcides","alt":["Batey Alcides"],"lon":-69.01667,"lat":18.76667,"pop":0},{"id":3512845,"name":"Alejandro Bass","alt":["Alejandro","Batey Alejandro Bass"],"lon":-69.26366,"lat":18.58313,"pop":0},{"id":3512843,"name":"Alemán","lon":-69.16265,"lat":18.6746,"pop":0},{"id":3512844,"name":"Alemán","lon":-69.25941,"lat":18.48154,"pop":0},{"id":3512842,"name":"Alemania","lon":-70.06914,"lat":19.39187,"pop":0},{"id":3512840,"name":"Aletón","lon":-68.95364,"lat":18.53314,"pop":0},{"id":3512837,"name":"Algarrobal","lon":-70.10563,"lat":18.92736,"pop":0},{"id":3512838,"name":"Algarrobal","alt":["Algorrobal","El Algarrobal"],"lon":-68.99371,"lat":18.68839,"pop":0},{"id":3512835,"name":"Algarrobo","alt":["El Algarroba"],"lon":-70.25,"lat":19.56667,"pop":0},{"id":3512829,"name":"Alina","lon":-71.08997,"lat":18.2268,"pop":0},{"id":3512820,"name":"Almirante","lon":-69.42017,"lat":18.78144,"pop":0},{"id":3512816,"name":"Alonsillo","lon":-69.31382,"lat":18.77389,"pop":0},{"id":3512799,"name":"Altagracia","alt":["Batey La Altagracia"],"lon":-68.92535,"lat":18.53656,"pop":0},{"id":3512795,"name":"Altamira","lon":-70.84428,"lat":19.6773,"pop":4563},{"id":3512796,"name":"Altamira","lon":-69.58333,"lat":19.25,"pop":0},{"id":3512797,"name":"Altamira","lon":-68.96667,"lat":18.95,"pop":0},{"id":3512791,"name":"Altamisa","alt":["Artemisa","Las Altas Misa"],"lon":-71.03921,"lat":19.41227,"pop":0},{"id":3512792,"name":"Altamisa","alt":["Altamira","La Artemisa"],"lon":-71.43333,"lat":19.03333,"pop":0},{"id":3512785,"name":"Alto de Cana","lon":-71.28134,"lat":19.42953,"pop":0},{"id":3512780,"name":"Alto de la Damajagua","lon":-70.76364,"lat":19.69025,"pop":0},{"id":3512777,"name":"Alto de la Loma Oculta","lon":-70.68524,"lat":19.14787,"pop":0},{"id":3512774,"name":"Alto de la Paloma","alt":["Alto de las Palomas","La Paloma"],"lon":-71.68422,"lat":19.37926,"pop":0},{"id":3512773,"name":"Alto de Las Piedras","alt":["Alto de La Piedra"],"lon":-69.41057,"lat":18.97623,"pop":0},{"id":3512771,"name":"Alto de los Alzafraz","lon":-71.35811,"lat":19.26372,"pop":0},{"id":3512770,"name":"Alto de los Castillos","alt":["El Alto de los Castillos","Los Castillos"],"lon":-70.53213,"lat":19.7415,"pop":0},{"id":3512768,"name":"Alto de Los Copeyes","alt":["Los Copeyes"],"lon":-71.44235,"lat":19.00578,"pop":0},{"id":3512767,"name":"Alto de Los Ortega","alt":["Firme los Ortegas"],"lon":-70.21963,"lat":19.35639,"pop":0},{"id":3512766,"name":"Alto de los Pozos","lon":-70.52254,"lat":19.49654,"pop":0},{"id":3512761,"name":"Alto de Peguero","alt":["Altos de Peguero"],"lon":-68.97729,"lat":18.75369,"pop":0},{"id":3512758,"name":"Alto de Piedras","alt":["Alto de Piedra"],"lon":-70.41667,"lat":19.36667,"pop":0},{"id":3512772,"name":"Alto del Caimito","lon":-70.10663,"lat":19.27644,"pop":0},{"id":3512765,"name":"Alto del Rancho","alt":["Alto Rancho","Alto de Rancho"],"lon":-69.94641,"lat":19.31544,"pop":0},{"id":3512754,"name":"Alto el Rayo","lon":-70.16723,"lat":19.42874,"pop":0},{"id":3512753,"name":"Alto el Salado","lon":-68.58333,"lat":18.75,"pop":0},{"id":3512752,"name":"Alto Gordo","lon":-70.68311,"lat":19.59583,"pop":0},{"id":3512750,"name":"Alto Grande","lon":-70.34633,"lat":19.6209,"pop":0},{"id":3512748,"name":"Alto Rosario","alt":["Hato Rosario"],"lon":-71.56667,"lat":18.85,"pop":0},{"id":3512744,"name":"Alto Viejo","lon":-70.66344,"lat":19.13537,"pop":0},{"id":3512747,"name":"Altos de los Mates","alt":["Alto de los Mates"],"lon":-70.76311,"lat":19.59977,"pop":0},{"id":3512743,"name":"Álvarez","lon":-69.04416,"lat":18.76083,"pop":0},{"id":3512740,"name":"Amaceyes","alt":["Los Amaceyes"],"lon":-71.61637,"lat":19.19385,"pop":0},{"id":3512735,"name":"Amador","alt":["Batey Amador"],"lon":-69.1862,"lat":18.55047,"pop":0},{"id":3512725,"name":"Amelia","alt":["Amalia","Batey Amelia"],"lon":-69.21928,"lat":18.55294,"pop":0},{"id":3512724,"name":"América","alt":["America","Batey America","Batey América"],"lon":-68.9,"lat":18.53333,"pop":0},{"id":3512722,"name":"Amiama Gómez","alt":["Amiama Gomez","Biafara","Biáfara"],"lon":-70.89541,"lat":18.59071,"pop":0},{"id":3512720,"name":"Amina","lon":-70.99599,"lat":19.54813,"pop":1910},{"id":3512717,"name":"Aminilla","alt":["Aminillo","Animilla"],"lon":-71.46274,"lat":19.52065,"pop":0},{"id":3512715,"name":"Amor de Dios","lon":-69.99554,"lat":18.61357,"pop":0},{"id":3512702,"name":"Ana Ruiz","lon":-69.74905,"lat":18.90232,"pop":0},{"id":3512701,"name":"Ana Santana","lon":-69.78818,"lat":18.82857,"pop":0},{"id":3512711,"name":"Anadel","alt":["Anade","Nadel"],"lon":-69.32183,"lat":19.2058,"pop":0},{"id":3512709,"name":"Anamá","lon":-69.13051,"lat":18.71472,"pop":0},{"id":3512706,"name":"Anamuya","lon":-68.64151,"lat":18.71627,"pop":0},{"id":3512703,"name":"Anamuyita","lon":-68.67959,"lat":18.70099,"pop":0},{"id":3512689,"name":"Andrés","lon":-69.63661,"lat":18.44454,"pop":0},{"id":3512683,"name":"Ángel Félix","alt":["Angel Felix","Angel Feliz","Angel Féliz"],"lon":-71.77194,"lat":18.63694,"pop":0},{"id":3512679,"name":"Angelina","lon":-70.22296,"lat":19.1288,"pop":0},{"id":3512680,"name":"Angelina","lon":-71.22749,"lat":18.43351,"pop":0},{"id":3512677,"name":"Angelito","alt":["Los Angelitos"],"lon":-70.5,"lat":18.5,"pop":0},{"id":3512672,"name":"Angosto","lon":-70.69884,"lat":19.11461,"pop":0},{"id":3512667,"name":"Angostura","lon":-70.90494,"lat":19.77289,"pop":0},{"id":3512668,"name":"Angostura","alt":["La Angostura"],"lon":-70.71301,"lat":19.38514,"pop":0},{"id":3512669,"name":"Angostura","lon":-71.41667,"lat":18.3,"pop":0},{"id":3512663,"name":"Anguilla","lon":-69.26266,"lat":18.77801,"pop":0},{"id":3512660,"name":"Aniceto Martínez","alt":["Aniceto Martines","Aniceto Martinez"],"lon":-71.76444,"lat":18.71213,"pop":0},{"id":3512632,"name":"Antón Sánchez","lon":-69.7058,"lat":18.84848,"pop":0},{"id":3512643,"name":"Antoncí","alt":["Antonci","Antonio","Batey Antonci","Batey Antoncí"],"lon":-69.9787,"lat":18.79535,"pop":0},{"id":3512631,"name":"Antonsape","lon":-71.00491,"lat":19.20423,"pop":0},{"id":3512621,"name":"Apolinar","lon":-70.37726,"lat":18.61488,"pop":0},{"id":3512616,"name":"Apolinar Perdomo","lon":-71.41682,"lat":18.58087,"pop":0},{"id":3512613,"name":"Arabia","lon":-70.54757,"lat":18.70894,"pop":0},{"id":3512609,"name":"Arébano","alt":["Arebano","Arevano","Arévano"],"lon":-69.95,"lat":19.15,"pop":0},{"id":3512601,"name":"Arena Gorda","lon":-68.4718,"lat":18.73372,"pop":0},{"id":3512596,"name":"Arenazo","alt":["Arenoso","El Arenazo"],"lon":-70.45928,"lat":18.58256,"pop":0},{"id":3512591,"name":"Arenazos","alt":["Los Arenazos"],"lon":-69.38333,"lat":19.21667,"pop":0},{"id":3512586,"name":"Arenitas","alt":["Arenita"],"lon":-69.30293,"lat":18.96476,"pop":0},{"id":3512584,"name":"Arenosito","alt":["Arenoso"],"lon":-70.59349,"lat":18.97006,"pop":0},{"id":3512566,"name":"Arenoso","lon":-70.87571,"lat":19.89037,"pop":0},{"id":3512567,"name":"Arenoso","lon":-70.28997,"lat":19.63893,"pop":0},{"id":3512568,"name":"Arenoso","alt":["El Arenaso"],"lon":-71.25272,"lat":19.49725,"pop":0},{"id":3512569,"name":"Arenoso","lon":-70.63907,"lat":19.40007,"pop":0},{"id":3512570,"name":"Arenoso","lon":-70.59583,"lat":19.30881,"pop":0},{"id":3512571,"name":"Arenoso","lon":-69.93697,"lat":19.26322,"pop":0},{"id":3512572,"name":"Arenoso","alt":["Arrenoso"],"lon":-70.53807,"lat":19.24333,"pop":0},{"id":3512573,"name":"Arenoso","alt":["Majagual"],"lon":-69.85917,"lat":19.18732,"pop":2897},{"id":3512574,"name":"Arenoso","lon":-70.74897,"lat":19.14157,"pop":0},{"id":3512575,"name":"Arenoso","lon":-69.97746,"lat":18.95671,"pop":0},{"id":3512576,"name":"Arenoso","alt":["Barrancones"],"lon":-69.96471,"lat":18.92426,"pop":0},{"id":3512577,"name":"Arenoso","lon":-70.27018,"lat":18.75678,"pop":0},{"id":3512578,"name":"Arenoso","lon":-70.47719,"lat":18.42677,"pop":0},{"id":3512579,"name":"Arenoso","lon":-71.2,"lat":18.31667,"pop":0},{"id":3512539,"name":"Arévalo","lon":-69.98622,"lat":19.16572,"pop":0},{"id":3512538,"name":"Arraiján","alt":["Arraijan","El Arreijan","El Arreijon","El Arreiján","El Arreijón","El Arroyo"],"lon":-68.75648,"lat":18.45131,"pop":0},{"id":3512527,"name":"Arroyito","lon":-70.30701,"lat":19.45106,"pop":0},{"id":3512520,"name":"Arroyo al Medio","alt":["Los Arroyos"],"lon":-69.92481,"lat":19.41779,"pop":0},{"id":3512519,"name":"Arroyo al Medio Abajo","lon":-69.91667,"lat":19.4,"pop":0},{"id":3512518,"name":"Arroyo al Medio Arriba","lon":-69.93972,"lat":19.3972,"pop":0},{"id":3512517,"name":"Arroyo Amargo","lon":-70.93918,"lat":19.83455,"pop":0},{"id":3512516,"name":"Arroyo Amarillo","lon":-70.54056,"lat":19.1518,"pop":0},{"id":3512513,"name":"Arroyo Ancho","lon":-70.66494,"lat":19.66777,"pop":0},{"id":3512514,"name":"Arroyo Ancho","lon":-70.53269,"lat":19.13137,"pop":0},{"id":3512515,"name":"Arroyo Ancho","lon":-70.63096,"lat":19.05795,"pop":0},{"id":3512511,"name":"Arroyo Arriba","lon":-70.70044,"lat":19.31883,"pop":0},{"id":3512512,"name":"Arroyo Arriba","lon":-70.74083,"lat":18.91984,"pop":0},{"id":3512509,"name":"Arroyo Azul","lon":-69.94469,"lat":19.5582,"pop":0},{"id":3512507,"name":"Arroyo Barril","alt":["Las Chorreras"],"lon":-69.44553,"lat":19.20179,"pop":0},{"id":3512505,"name":"Arroyo Bernabé","alt":["Arroyo Bernabe","Arroyo Bernabel","Bernabe","Bernabé"],"lon":-69.46117,"lat":18.80107,"pop":0},{"id":3512492,"name":"Arroyo Blanco","lon":-70.55964,"lat":19.71717,"pop":0},{"id":3512493,"name":"Arroyo Blanco","lon":-70.86853,"lat":19.68357,"pop":0},{"id":3512494,"name":"Arroyo Blanco","lon":-70.46667,"lat":19.56667,"pop":0},{"id":3512495,"name":"Arroyo Blanco","lon":-70.2464,"lat":19.55483,"pop":0},{"id":3512496,"name":"Arroyo Blanco","lon":-70.43762,"lat":19.49235,"pop":0},{"id":3512497,"name":"Arroyo Blanco","lon":-71.39823,"lat":19.4288,"pop":0},{"id":3512498,"name":"Arroyo Blanco","lon":-70.03333,"lat":19.36667,"pop":0},{"id":3512499,"name":"Arroyo Blanco","lon":-70.74372,"lat":18.98693,"pop":0},{"id":3512500,"name":"Arroyo Blanco","lon":-70.41667,"lat":18.7,"pop":0},{"id":3512501,"name":"Arroyo Blanco","lon":-69.21265,"lat":18.665,"pop":0},{"id":3512502,"name":"Arroyo Blanco","alt":["Piedra Blanca"],"lon":-71.81667,"lat":18.5,"pop":0},{"id":3512503,"name":"Arroyo Blanco","lon":-70.29428,"lat":18.41059,"pop":0},{"id":3512488,"name":"Arroyo Blanco Abajo","lon":-71.41667,"lat":19.43333,"pop":0},{"id":3512487,"name":"Arroyo Blanco Arriba","lon":-71.39395,"lat":19.41867,"pop":0},{"id":3512486,"name":"Arroyo Bohío","lon":-70.60953,"lat":19.32286,"pop":0},{"id":3512482,"name":"Arroyo Bonito","lon":-70.76094,"lat":19.13453,"pop":0},{"id":3512483,"name":"Arroyo Bonito","lon":-70.79102,"lat":19.11559,"pop":0},{"id":3512484,"name":"Arroyo Bonito","alt":["Arroyo Bonitos"],"lon":-70.48421,"lat":18.93087,"pop":0},{"id":3512485,"name":"Arroyo Bonito","lon":-70.52869,"lat":18.71023,"pop":0},{"id":3512476,"name":"Arroyo Caña","alt":["Arroyo Cana","La Cana","La Caña"],"lon":-71.16207,"lat":19.73741,"pop":0},{"id":3512477,"name":"Arroyo Caña","lon":-70.73333,"lat":19.11667,"pop":0},{"id":3512478,"name":"Arroyo Caña","lon":-70.51667,"lat":18.85,"pop":0},{"id":3512479,"name":"Arroyo Caña","alt":["Arroyo Cana","Cana","Caña"],"lon":-70.41941,"lat":18.71038,"pop":0},{"id":3512474,"name":"Arroyo Cano","lon":-71.01302,"lat":18.80848,"pop":0},{"id":3512475,"name":"Arroyo Cano","alt":["Arroyo Canoa"],"lon":-70.2532,"lat":18.33761,"pop":0},{"id":3512473,"name":"Arroyo Caraballo","alt":["Arroyo Cacaballo","Caraballo","Caravallo"],"lon":-70.59675,"lat":19.70363,"pop":0},{"id":3512472,"name":"Arroyo Ceiba","alt":["Arroyo Ceyba"],"lon":-68.95,"lat":18.78333,"pop":0},{"id":3512471,"name":"Arroyo Chico Abajo","alt":["Arroyo Chico"],"lon":-69.46188,"lat":19.25431,"pop":0},{"id":3512470,"name":"Arroyo Chico Arriba","alt":["Arroyo Chico"],"lon":-69.481,"lat":19.25368,"pop":0},{"id":3512469,"name":"Arroyo Chiquito","lon":-70.40202,"lat":18.67517,"pop":0},{"id":3512467,"name":"Arroyo Claro","lon":-69.98333,"lat":19.3,"pop":0},{"id":3512468,"name":"Arroyo Claro","lon":-70.18631,"lat":18.52762,"pop":0},{"id":3512465,"name":"Arroyo Colorado","lon":-70.58726,"lat":18.52869,"pop":0},{"id":3512464,"name":"Arroyo Corozo","alt":["Arroyo Corozos"],"lon":-70.81667,"lat":18.73333,"pop":0},{"id":3512460,"name":"Arroyo de Agua","lon":-71.06647,"lat":19.71401,"pop":0},{"id":3512461,"name":"Arroyo de Agua","alt":["Arroyo del Agua","Ojo de Agua"],"lon":-70.41973,"lat":19.60144,"pop":0},{"id":3512462,"name":"Arroyo de Agua","lon":-71.18333,"lat":19.55,"pop":0},{"id":3512463,"name":"Arroyo de Agua","alt":["Arroyo Agua"],"lon":-71.16758,"lat":19.45668,"pop":0},{"id":3512457,"name":"Arroyo de Leche","lon":-70.57736,"lat":19.67393,"pop":0},{"id":3512456,"name":"Arroyo de Pedro","alt":["Arroyo Pedro"],"lon":-70.38643,"lat":18.60333,"pop":0},{"id":3512455,"name":"Arroyo de Piedra","lon":-70.33476,"lat":18.62381,"pop":0},{"id":3512458,"name":"Arroyo del Café","lon":-70.37822,"lat":18.64471,"pop":0},{"id":3512453,"name":"Arroyo Dulce","lon":-70.45017,"lat":18.90779,"pop":0},{"id":3512454,"name":"Arroyo Dulce","lon":-71.28912,"lat":17.91558,"pop":0},{"id":3512451,"name":"Arroyo El Agua","alt":["Arroyo de Agua"],"lon":-70.74717,"lat":19.55477,"pop":0},{"id":3512452,"name":"Arroyo El Agua","alt":["Arroyo del Agua"],"lon":-69.46388,"lat":19.02121,"pop":0},{"id":3512450,"name":"Arroyo El Cabo","alt":["Arroyo del Cabo","El Cabo"],"lon":-69.20267,"lat":19.27129,"pop":0},{"id":3512449,"name":"Arroyo El Cercado","alt":["Arroyo Cercado"],"lon":-70.67492,"lat":19.08905,"pop":0},{"id":3512448,"name":"Arroyo El Dulce","alt":["Arroyo del Dulce"],"lon":-70.7373,"lat":19.04893,"pop":0},{"id":3512447,"name":"Arroyo El Loro","alt":["Arroyo Loro","Arroyo del Loro","El Loro"],"lon":-71.35,"lat":18.86667,"pop":0},{"id":3512446,"name":"Arroyo El Naranjo","lon":-69.92494,"lat":19.0437,"pop":0},{"id":3512444,"name":"Arroyo El Rancho","alt":["Arroyo del Rancho"],"lon":-70.67197,"lat":19.02317,"pop":0},{"id":3512445,"name":"Arroyo El Rancho","alt":["Arroyo Rancho"],"lon":-70.18898,"lat":18.78489,"pop":0},{"id":3512440,"name":"Arroyo Frío","lon":-70.59019,"lat":19.00044,"pop":0},{"id":3512441,"name":"Arroyo Frío","lon":-70.08333,"lat":18.66667,"pop":0},{"id":3512421,"name":"Arroyo Grande","lon":-70.06292,"lat":19.62922,"pop":0},{"id":3512422,"name":"Arroyo Grande","alt":["Arroyo del Grande"],"lon":-70.54411,"lat":19.61995,"pop":0},{"id":3512423,"name":"Arroyo Grande","lon":-70.3627,"lat":19.5771,"pop":0},{"id":3512424,"name":"Arroyo Grande","lon":-70.38554,"lat":19.46419,"pop":0},{"id":3512425,"name":"Arroyo Grande","lon":-69.27655,"lat":19.20541,"pop":0},{"id":3512426,"name":"Arroyo Grande","lon":-71.5811,"lat":19.08449,"pop":0},{"id":3512427,"name":"Arroyo Grande","lon":-68.99149,"lat":18.86559,"pop":0},{"id":3512428,"name":"Arroyo Grande","lon":-71.1,"lat":18.85,"pop":0},{"id":3512429,"name":"Arroyo Grande","lon":-69.01667,"lat":18.85,"pop":0},{"id":3512430,"name":"Arroyo Grande","lon":-68.99393,"lat":18.82284,"pop":0},{"id":3512431,"name":"Arroyo Grande","lon":-69.27155,"lat":18.79664,"pop":0},{"id":3512432,"name":"Arroyo Grande","lon":-70.28769,"lat":18.69958,"pop":0},{"id":3512433,"name":"Arroyo Grande","lon":-70.35732,"lat":18.62845,"pop":0},{"id":3512434,"name":"Arroyo Grande","lon":-71.14291,"lat":18.41211,"pop":0},{"id":3512416,"name":"Arroyo Guayabo","lon":-70.85815,"lat":18.56114,"pop":0},{"id":3512415,"name":"Arroyo Higüero","lon":-69.33995,"lat":18.81574,"pop":0},{"id":3512406,"name":"Arroyo Hondo","lon":-70.45866,"lat":18.54892,"pop":0},{"id":3512407,"name":"Arroyo Hondo","alt":["La Cuesta de Arroyo Hondo"],"lon":-69.93637,"lat":18.49613,"pop":0},{"id":3512408,"name":"Arroyo Hondo","lon":-70.31042,"lat":19.6487,"pop":0},{"id":3512409,"name":"Arroyo Hondo","lon":-70.70779,"lat":19.41196,"pop":0},{"id":3512410,"name":"Arroyo Hondo","lon":-70.94536,"lat":19.32865,"pop":0},{"id":3512411,"name":"Arroyo Hondo","lon":-69.20558,"lat":18.92093,"pop":0},{"id":3512412,"name":"Arroyo Hondo","lon":-70.68884,"lat":18.61753,"pop":0},{"id":3512413,"name":"Arroyo Hondo","lon":-70.23905,"lat":18.32857,"pop":0},{"id":3512414,"name":"Arroyo Hondo","lon":-70.4744,"lat":18.24113,"pop":0},{"id":3512401,"name":"Arroyo Hondo Abajo","alt":["Arroyo Hondo"],"lon":-70.55885,"lat":19.33678,"pop":0},{"id":3512400,"name":"Arroyo Hoyo","lon":-70.22678,"lat":18.45607,"pop":0},{"id":3512399,"name":"Arroyo Indio","alt":["Batey Arroyo Indio"],"lon":-70.06119,"lat":18.5866,"pop":0},{"id":3512398,"name":"Arroyo Jánico","lon":-70.8837,"lat":19.31883,"pop":0},{"id":3512397,"name":"Arroyo La Angostura","lon":-70.42202,"lat":18.34071,"pop":0},{"id":3512394,"name":"Arroyo La Vaca","alt":["Arroyo de la Vaca"],"lon":-70.64892,"lat":19.01384,"pop":0},{"id":3512396,"name":"Arroyo Laja","lon":-70.32059,"lat":18.97212,"pop":0},{"id":3512391,"name":"Arroyo Loro","lon":-71.2758,"lat":18.81759,"pop":0},{"id":3512390,"name":"Arroyo Los Dajaos","lon":-70.76808,"lat":19.078,"pop":0},{"id":3512388,"name":"Arroyo Lucas","alt":["Arroyo Luca"],"lon":-69.4,"lat":19.2,"pop":0},{"id":3512389,"name":"Arroyo Lucas","lon":-69.10908,"lat":18.64699,"pop":0},{"id":3512385,"name":"Arroyo Mamey","lon":-70.20251,"lat":18.35732,"pop":0},{"id":3512384,"name":"Arroyo Manteca","lon":-70.4225,"lat":18.67447,"pop":0},{"id":3512383,"name":"Arroyo María","lon":-70.20089,"lat":18.47691,"pop":0},{"id":3512382,"name":"Arroyo Mateo","lon":-68.96667,"lat":18.81667,"pop":0},{"id":3512381,"name":"Arroyo Mezquino","lon":-70.95,"lat":19.8,"pop":0},{"id":3512379,"name":"Arroyo Mina","lon":-70.13179,"lat":18.65916,"pop":0},{"id":3512380,"name":"Arroyo Mina","lon":-70.22262,"lat":18.61756,"pop":0},{"id":3512377,"name":"Arroyo Mingo","lon":-70.20286,"lat":18.5347,"pop":0},{"id":3512378,"name":"Arroyo Mingo","lon":-70.27101,"lat":18.33506,"pop":0},{"id":3512374,"name":"Arroyo Morón","lon":-71.6004,"lat":19.13619,"pop":0},{"id":3512355,"name":"Arroyo Piedra","lon":-69.41667,"lat":19.03333,"pop":0},{"id":3512349,"name":"Arroyo Prieto","lon":-70.20162,"lat":19.57833,"pop":0},{"id":3512350,"name":"Arroyo Prieto","alt":["Arroyoo Prieto"],"lon":-71.63811,"lat":19.54223,"pop":0},{"id":3512351,"name":"Arroyo Prieto","lon":-70.97864,"lat":19.21913,"pop":0},{"id":3512352,"name":"Arroyo Prieto","lon":-70.53535,"lat":19.01208,"pop":0},{"id":3512353,"name":"Arroyo Prieto","lon":-70.38577,"lat":18.67994,"pop":0},{"id":3512354,"name":"Arroyo Prieto","lon":-70.7906,"lat":18.64702,"pop":0},{"id":3512344,"name":"Arroyo Rico","lon":-69.20031,"lat":18.96427,"pop":0},{"id":3512345,"name":"Arroyo Rico","lon":-68.7,"lat":18.8,"pop":0},{"id":3512346,"name":"Arroyo Rico","lon":-68.83333,"lat":18.7,"pop":0},{"id":3512340,"name":"Arroyo Sabana","lon":-70.07852,"lat":19.51861,"pop":0},{"id":3512331,"name":"Arroyo Salado","lon":-69.92814,"lat":18.50563,"pop":0},{"id":3512332,"name":"Arroyo Salado","alt":["Paso del Rio","Paso del Río"],"lon":-69.9,"lat":19.5,"pop":1990},{"id":3512333,"name":"Arroyo Salado","lon":-69.55288,"lat":19.21559,"pop":0},{"id":3512334,"name":"Arroyo Salado","lon":-71.00356,"lat":18.61949,"pop":0},{"id":3512335,"name":"Arroyo Salado","lon":-70.28864,"lat":18.32905,"pop":0},{"id":3512327,"name":"Arroyo Santiago","alt":["Batey Arroyo Santiago"],"lon":-69.05116,"lat":18.90349,"pop":0},{"id":3512326,"name":"Arroyo Saya","alt":["Arroyo Saa","Arroyo Salla","Arroyo Zaya"],"lon":-71.58333,"lat":18.86667,"pop":0},{"id":3512310,"name":"Arroyo Seco","lon":-70.84997,"lat":19.8193,"pop":0},{"id":3512311,"name":"Arroyo Seco","lon":-70.49766,"lat":19.71395,"pop":0},{"id":3512312,"name":"Arroyo Seco","lon":-70.96113,"lat":19.66446,"pop":0},{"id":3512313,"name":"Arroyo Seco","lon":-70.68601,"lat":19.51322,"pop":0},{"id":3512314,"name":"Arroyo Seco","lon":-70.43826,"lat":19.485,"pop":0},{"id":3512315,"name":"Arroyo Seco","lon":-71.23883,"lat":19.46182,"pop":0},{"id":3512316,"name":"Arroyo Seco","lon":-71.58938,"lat":19.03749,"pop":0},{"id":3512317,"name":"Arroyo Seco","lon":-71.39826,"lat":18.7951,"pop":0},{"id":3512318,"name":"Arroyo Seco","lon":-69.23791,"lat":18.64314,"pop":0},{"id":3512319,"name":"Arroyo Seco","lon":-70.45,"lat":18.63333,"pop":0},{"id":3512320,"name":"Arroyo Seco","lon":-71.4819,"lat":18.59344,"pop":0},{"id":3512321,"name":"Arroyo Seco","lon":-71.21667,"lat":18.46667,"pop":0},{"id":3512322,"name":"Arroyo Seco","lon":-71.12014,"lat":18.4523,"pop":0},{"id":3512323,"name":"Arroyo Seco","lon":-71.06667,"lat":18.13333,"pop":0},{"id":3512306,"name":"Arroyo Surdió","lon":-69.45191,"lat":19.27895,"pop":0},{"id":3512305,"name":"Arroyo Toro","alt":["Toro"],"lon":-70.45328,"lat":18.92195,"pop":0},{"id":3512303,"name":"Arroyo Toro Abajo","lon":-70.44051,"lat":18.92791,"pop":0},{"id":3512302,"name":"Arroyo Toro Arriba","lon":-70.45252,"lat":18.91349,"pop":0},{"id":3512301,"name":"Arroyo Viejito","lon":-70.91565,"lat":19.73303,"pop":0},{"id":3512300,"name":"Arroyo Viejo","lon":-70.90347,"lat":18.54774,"pop":0},{"id":3512299,"name":"Arroyo Vuelta","lon":-70.2943,"lat":18.82571,"pop":0},{"id":3512297,"name":"Arroyo Yayas","alt":["Las Yayas"],"lon":-70.90797,"lat":18.75744,"pop":0},{"id":3512371,"name":"Arroyón","alt":["Arroyo Arroyon","Arroyo Arroyón","Arroyon","Paradero Arroyo Arroyon","Paradero Arroyo Arroyón"],"lon":-69.48853,"lat":18.94558,"pop":0},{"id":3512372,"name":"Arroyón","lon":-69.19544,"lat":18.87288,"pop":0},{"id":3512373,"name":"Arroyón","lon":-69.05,"lat":18.85,"pop":0},{"id":3512295,"name":"Artemisa","alt":["Altamiza"],"lon":-69.48483,"lat":18.69088,"pop":0},{"id":3512288,"name":"Aserradero","lon":-71.03333,"lat":19.16667,"pop":0},{"id":3512289,"name":"Aserradero","alt":["Batey Aserradero"],"lon":-69.78586,"lat":18.97497,"pop":0},{"id":3512286,"name":"Aserradero Barceló","lon":-69.3,"lat":18.88333,"pop":0},{"id":3512285,"name":"Aserradero Santa Rosa","lon":-70.58333,"lat":18.65,"pop":0},{"id":3512284,"name":"Asiento de Luisa","alt":["Asiento Luisa","Asientos de Luisa"],"lon":-71.30333,"lat":18.8995,"pop":0},{"id":3512281,"name":"Asiento Zapata","lon":-69.46667,"lat":18.6,"pop":0},{"id":3512280,"name":"Asomante","lon":-69.36764,"lat":18.71979,"pop":0},{"id":3512279,"name":"Astoria","lon":-71.48657,"lat":19.6877,"pop":0},{"id":3512278,"name":"Atabalero","alt":["Atabalero Abajo"],"lon":-70.29623,"lat":19.38361,"pop":0},{"id":3512277,"name":"Atabalero Arriba","alt":["Atabalero"],"lon":-70.2984,"lat":19.404,"pop":0},{"id":3512275,"name":"Atalaya","alt":["La Atalaya"],"lon":-70.28428,"lat":18.98043,"pop":0},{"id":3512264,"name":"Atollador","lon":-70.48594,"lat":19.66064,"pop":0},{"id":3512258,"name":"Atrás de los Cerros","lon":-71.40872,"lat":19.419,"pop":0},{"id":3512236,"name":"Atronca Perros","lon":-69.76839,"lat":19.15659,"pop":0},{"id":3512223,"name":"Avedaño","lon":-70.07125,"lat":18.47756,"pop":0},{"id":3512217,"name":"Azafrán","lon":-68.78748,"lat":18.66824,"pop":0},{"id":3512214,"name":"Azlor","alt":["Astor","El Centro"],"lon":-70.20319,"lat":19.30243,"pop":0},{"id":3512212,"name":"Azota Criollo","lon":-69.36667,"lat":18.71667,"pop":0},{"id":3512208,"name":"Azua","alt":["Asua-de-Kompostela","Azua de Compostela","Compostela de Azua","Асуа-де-Компостела"],"lon":-70.7349,"lat":18.45319,"pop":59139},{"id":3512206,"name":"Azucey","lon":-69.91667,"lat":19.18333,"pop":0},{"id":3512194,"name":"Babieca","lon":-69.63671,"lat":18.74668,"pop":0},{"id":3512195,"name":"Babieca","lon":-69.63505,"lat":18.73874,"pop":0},{"id":3512193,"name":"Babor","lon":-71.41493,"lat":18.81513,"pop":0},{"id":3512189,"name":"Baboso","alt":["Babozo"],"lon":-71.41886,"lat":19.53106,"pop":0},{"id":3512183,"name":"Bacuí Arriba","alt":["Bacui Arriba","Bocui"],"lon":-70.45864,"lat":19.33236,"pop":0},{"id":3512182,"name":"Bacumí","alt":["Bacomi","Bacomí","Bacumi"],"lon":-70.25072,"lat":19.15,"pop":0},{"id":3512179,"name":"Baguásima","alt":["Baguasima","Baguazuma"],"lon":-70.98333,"lat":19.5,"pop":0},{"id":3512173,"name":"Baiguate","lon":-69.96293,"lat":19.20696,"pop":0},{"id":3512174,"name":"Baiguate","lon":-69.95,"lat":19.16667,"pop":0},{"id":3512166,"name":"Baitoa","lon":-70.70357,"lat":19.32512,"pop":2013},{"id":3512167,"name":"Baitoa","alt":["Baitoal"],"lon":-71.50366,"lat":18.99938,"pop":0},{"id":3512159,"name":"Baitoa Arriba","lon":-71.60761,"lat":19.69701,"pop":0},{"id":3512156,"name":"Baitoal","lon":-71.48333,"lat":18.95,"pop":0},{"id":3512157,"name":"Baitoal","lon":-71.01667,"lat":18.6,"pop":0},{"id":3512152,"name":"Baitoíta","lon":-71.09638,"lat":18.19345,"pop":0},{"id":3512148,"name":"Bajabonico Arriba","lon":-70.83333,"lat":19.71667,"pop":0},{"id":3512147,"name":"Bajaboniquito","lon":-70.73534,"lat":19.68443,"pop":0},{"id":3512143,"name":"Bajada de Alto Grande","lon":-70.35408,"lat":19.62691,"pop":0},{"id":3512135,"name":"Bajo de Gran Diablo","alt":["Gran Diablo"],"lon":-71.11537,"lat":19.79819,"pop":0},{"id":3512133,"name":"Bajo Hondo","lon":-70.81331,"lat":19.86774,"pop":0},{"id":3512131,"name":"Bajón","lon":-71.08661,"lat":19.45164,"pop":0},{"id":3512128,"name":"Bajos de Haina","alt":["Bajos de Jaina"],"lon":-70.03317,"lat":18.41538,"pop":66784},{"id":3512127,"name":"Bajos de la Vacama","lon":-68.66867,"lat":18.8735,"pop":0},{"id":3512113,"name":"Ballestero","alt":["Ballesteros","Los Ballesteros"],"lon":-68.83837,"lat":18.4459,"pop":0},{"id":3512111,"name":"Balsa","lon":-70.01667,"lat":19.15,"pop":0},{"id":3512107,"name":"Balsa Mala","lon":-69.8302,"lat":19.05596,"pop":0},{"id":3512104,"name":"Baltazar","alt":["Baltasar"],"lon":-71.10913,"lat":18.46066,"pop":0},{"id":3512092,"name":"Bañadero","lon":-70.12887,"lat":18.68345,"pop":0},{"id":3512093,"name":"Bañadero","lon":-70.71819,"lat":18.59296,"pop":0},{"id":3512087,"name":"Banano","alt":["Banano Dominicano"],"lon":-71.73333,"lat":18.15,"pop":0},{"id":3512083,"name":"Bandera","alt":["La Bandera"],"lon":-70.32697,"lat":19.19464,"pop":0},{"id":3512070,"name":"Banegas","lon":-70.79459,"lat":19.52661,"pop":0},{"id":3512067,"name":"Baní","alt":["Ban","Bani","Banti","Bany","Бан"],"lon":-70.33185,"lat":18.27964,"pop":66709},{"id":3512064,"name":"Bánica","alt":["Banica"],"lon":-71.7054,"lat":19.08239,"pop":1443},{"id":3512062,"name":"Banilejo","alt":["Banilejos"],"lon":-70.44721,"lat":18.69689,"pop":0},{"id":3512057,"name":"Bao","lon":-70.80427,"lat":19.30528,"pop":0},{"id":3512052,"name":"Baoba del Piñal","alt":["Baoba","Baoba del Pinal"],"lon":-69.90403,"lat":19.52249,"pop":0},{"id":3512051,"name":"Baoruco","alt":["Bahoruco"],"lon":-71.09517,"lat":18.0767,"pop":0},{"id":3512039,"name":"Barangüeybano","alt":["Baragueybano","Baragüeybano","Barangueybano","Paragueybano"],"lon":-69.1,"lat":18.66667,"pop":0},{"id":3512040,"name":"Barangüeybano","alt":["Baragueybano","Baragüeybano","Baranguelbano","Barangueyano","Barangueybano","Barangüelbano","Barangüeyano","Batey Barangueibano","Batey Barangüeibano","Batey Baraueibano"],"lon":-69.08397,"lat":18.64751,"pop":0},{"id":3512030,"name":"Barba Rucia","alt":["Barba Rusia","Barbarrusia"],"lon":-70.76467,"lat":19.83181,"pop":0},{"id":3512033,"name":"Barbadillo","lon":-69.46725,"lat":18.58564,"pop":0},{"id":3512027,"name":"Barcequillo","alt":["Barsequillo"],"lon":-70.03333,"lat":18.43333,"pop":0},{"id":3512025,"name":"Barco Viejo","lon":-69.45099,"lat":18.42371,"pop":0},{"id":3512022,"name":"Barico","lon":-70.09047,"lat":19.14013,"pop":0},{"id":3512016,"name":"Barrabás","lon":-70.78627,"lat":19.75262,"pop":0},{"id":3512013,"name":"Barraco","alt":["El Barraco"],"lon":-70.26667,"lat":19.58333,"pop":0},{"id":3511997,"name":"Barranca","lon":-70.46667,"lat":19.26667,"pop":0},{"id":3511998,"name":"Barranca","lon":-70.45396,"lat":19.26449,"pop":0},{"id":3511999,"name":"Barranca","lon":-71.31835,"lat":18.80179,"pop":0},{"id":3512000,"name":"Barranca","alt":["Barranco"],"lon":-71.12734,"lat":18.44882,"pop":0},{"id":3511984,"name":"Barranca del Novillo","lon":-71.09502,"lat":19.40315,"pop":0},{"id":3511981,"name":"Barranco","alt":["Barranca"],"lon":-69.16258,"lat":18.79716,"pop":0},{"id":3511979,"name":"Barrancolí","lon":-69.26099,"lat":19.20557,"pop":0},{"id":3511976,"name":"Barrancón","lon":-71.04363,"lat":19.87336,"pop":0},{"id":3511977,"name":"Barrancón","lon":-70.85071,"lat":19.54232,"pop":0},{"id":3511978,"name":"Barrancón","lon":-70.36037,"lat":18.9302,"pop":0},{"id":3511967,"name":"Barreras","alt":["Barrera","Barrero"],"lon":-70.90827,"lat":18.32646,"pop":0},{"id":3511958,"name":"Barrero","alt":["El Barrero"],"lon":-70.90259,"lat":19.63732,"pop":0},{"id":3511959,"name":"Barrero","lon":-70.91205,"lat":19.61099,"pop":0},{"id":3511960,"name":"Barrero","alt":["El Barrero"],"lon":-71.50564,"lat":18.84371,"pop":0},{"id":3511961,"name":"Barrero","lon":-69.64877,"lat":18.75074,"pop":0},{"id":3511942,"name":"Barrigón","lon":-71.46505,"lat":19.4825,"pop":0},{"id":10860593,"name":"Barrio Baitoa","lon":-71.32839,"lat":18.65385,"pop":0},{"id":3511940,"name":"Barrio Bellavista","alt":["Bella Vista"],"lon":-71.63685,"lat":19.84122,"pop":0},{"id":3511939,"name":"Barrio Caonabo Abel","lon":-71.65852,"lat":19.85456,"pop":0},{"id":10860590,"name":"Barrio Clavelina","lon":-71.33955,"lat":18.64925,"pop":0},{"id":3511938,"name":"Barrio Cristo Rey","lon":-71.65255,"lat":19.85707,"pop":0},{"id":10860589,"name":"Barrio La Esperanza","lon":-71.51503,"lat":18.72572,"pop":0},{"id":3511937,"name":"Barrio Las Flores","alt":["Las Flores"],"lon":-71.63026,"lat":19.85085,"pop":0},{"id":3511936,"name":"Barrio Limoncillar","lon":-68.96175,"lat":18.82694,"pop":0},{"id":10860591,"name":"Barrio Los Pinos","lon":-71.33479,"lat":18.65173,"pop":0},{"id":3511935,"name":"Barrio María Auxiliadora","lon":-69.88333,"lat":18.5,"pop":0},{"id":3511934,"name":"Barrio Mejoraminto Social","lon":-69.9,"lat":18.48333,"pop":0},{"id":3511933,"name":"Barrio Monchi Martínez","lon":-71.63832,"lat":19.85653,"pop":0},{"id":3511932,"name":"Barrio Norte","lon":-70.97587,"lat":19.58667,"pop":0},{"id":3511931,"name":"Barrio Nuevo","alt":["Barrinuevo"],"lon":-71.21958,"lat":17.99956,"pop":0},{"id":3511929,"name":"Barrio Obrero","lon":-69.91667,"lat":18.5,"pop":0},{"id":7302697,"name":"Barrio Pie Del Fuerte","lon":-70.69397,"lat":19.80083,"pop":0},{"id":3511928,"name":"Barrio Pueblo Nuevo","lon":-71.75,"lat":19.7,"pop":0},{"id":3511927,"name":"Barrio Salomón Jorge","lon":-71.65,"lat":19.85,"pop":0},{"id":3511926,"name":"Barrio San Pedro","lon":-71.63827,"lat":19.84627,"pop":0},{"id":3511924,"name":"Barrio Sur","lon":-70.9911,"lat":19.57109,"pop":0},{"id":3511923,"name":"Barrio Veinticuatro del Abril","alt":["Barrio 24 del Abril"],"lon":-71.6365,"lat":19.85427,"pop":0},{"id":3511922,"name":"Barrio Villa Banack","lon":-71.75,"lat":19.7,"pop":0},{"id":3511921,"name":"Barrio Villa Reif","lon":-71.73333,"lat":19.7,"pop":0},{"id":3511920,"name":"Barrio Yagüita","lon":-70.98124,"lat":19.58022,"pop":0},{"id":3511915,"name":"Barro al Medio","alt":["Barro en Medio"],"lon":-70.785,"lat":18.509,"pop":0},{"id":3511914,"name":"Barro Arriba","lon":-70.78333,"lat":18.51667,"pop":0},{"id":3511911,"name":"Bartola","lon":-70.70954,"lat":19.47578,"pop":0},{"id":3511907,"name":"Bartolo","lon":-71.47852,"lat":19.16304,"pop":0},{"id":3511901,"name":"Bartolomé","lon":-71.73719,"lat":18.5501,"pop":0},{"id":3511897,"name":"Básima","alt":["Basima","Basimo"],"lon":-70.20537,"lat":18.70655,"pop":0},{"id":3511892,"name":"Batata","alt":["La Batata"],"lon":-70.26364,"lat":19.54957,"pop":0},{"id":3511890,"name":"Batería","lon":-69.33333,"lat":18.66375,"pop":0},{"id":3511889,"name":"Batero","alt":["Botero","La Paleria","La Palería"],"lon":-69.96966,"lat":19.05393,"pop":0},{"id":3511884,"name":"Batey Agua Blanca","alt":["Agua Blanca"],"lon":-69.01158,"lat":18.67028,"pop":0},{"id":3511883,"name":"Batey Albizú","alt":["Albizu","Albizú","Batey Albizu"],"lon":-69.05092,"lat":18.65031,"pop":0},{"id":3511882,"name":"Batey Alcides","lon":-68.96227,"lat":18.66467,"pop":0},{"id":3511881,"name":"Batey Aletón","lon":-68.95,"lat":18.55,"pop":0},{"id":3511880,"name":"Batey Algodonal","alt":["Algodon","Algodón","El Algodon"],"lon":-71.16667,"lat":18.28333,"pop":0},{"id":3511878,"name":"Batey Altagracia","alt":["Altagracia"],"lon":-69.84873,"lat":19.01213,"pop":0},{"id":3511879,"name":"Batey Altagracia","alt":["Altagracia"],"lon":-69.38292,"lat":18.65624,"pop":0},{"id":3511877,"name":"Batey Amina","alt":["Batey"],"lon":-70.98109,"lat":19.52973,"pop":0},{"id":3511876,"name":"Batey Amistades","lon":-69.32022,"lat":18.61263,"pop":0},{"id":3511875,"name":"Batey Anciana","alt":["La Anciana"],"lon":-69.3,"lat":18.58333,"pop":0},{"id":3511874,"name":"Batey Anita","alt":["Batey La Anita","La Anita"],"lon":-69.38652,"lat":18.69304,"pop":0},{"id":3511873,"name":"Batey Ara","alt":["El Hoyo de Hara","Hoyo de Ara"],"lon":-69.84459,"lat":18.98631,"pop":0},{"id":3511872,"name":"Batey Arroyo Lucas","alt":["Arroyo Lucas"],"lon":-69.10696,"lat":18.63548,"pop":0},{"id":3511871,"name":"Batey Atilano Número Dos","alt":["Atilano Numero 2","Atilano Número 2","Batey Atilano Numero Dos"],"lon":-69.17623,"lat":18.59686,"pop":0},{"id":3511870,"name":"Batey Atilano Número Uno","alt":["Atilano Numero 1","Atilano Número 1","Batey Atilano Numero Uno"],"lon":-69.19692,"lat":18.57771,"pop":0},{"id":3511869,"name":"Batey Barrancón","alt":["Barrancon","Barrancón","Batey Barrancon"],"lon":-69.32651,"lat":18.63128,"pop":0},{"id":3511867,"name":"Batey Bejucal","lon":-69.31202,"lat":18.64529,"pop":0},{"id":3511868,"name":"Batey Bejucal","lon":-69.10234,"lat":18.6,"pop":0},{"id":3511866,"name":"Batey Bella Cruz","alt":["Bella Cruz"],"lon":-69.0574,"lat":18.63847,"pop":0},{"id":3511865,"name":"Batey Bella Vista","alt":["Bella Vista"],"lon":-69.16507,"lat":18.65749,"pop":0},{"id":3511864,"name":"Batey Bermejo","alt":["Bermejo"],"lon":-68.99142,"lat":18.62243,"pop":0},{"id":3511863,"name":"Batey Bisonó","lon":-71.58242,"lat":19.79007,"pop":0},{"id":3511862,"name":"Batey Bobadilla","alt":["Bobadilla"],"lon":-69.23733,"lat":18.48016,"pop":0},{"id":3511861,"name":"Batey Bombita","alt":["Bombita","La Bombita"],"lon":-71.15159,"lat":18.33289,"pop":0},{"id":3511860,"name":"Batey Brador","alt":["Brador"],"lon":-68.96667,"lat":18.63333,"pop":0},{"id":3511858,"name":"Batey Buena Vista","lon":-69.91451,"lat":19.02331,"pop":0},{"id":3511857,"name":"Batey Cabeza de Agua","alt":["Cabeza de Agua"],"lon":-69.0657,"lat":18.6369,"pop":0},{"id":3511856,"name":"Batey Cabeza de Toro","alt":["Batey Cabezadeltoro","Cabeza de Toro"],"lon":-69.13656,"lat":18.54029,"pop":0},{"id":3511854,"name":"Batey Caimito","alt":["Caimito","Carmito"],"lon":-69.43715,"lat":18.70284,"pop":0},{"id":3511855,"name":"Batey Caimito","alt":["Caimito"],"lon":-68.9,"lat":18.46667,"pop":0},{"id":3511853,"name":"Batey Caimoní","alt":["Batey Caimoni","Caimon","Caimoni","Caimoní","Caimón","Carmona"],"lon":-69.01435,"lat":18.53062,"pop":0},{"id":3511851,"name":"Batey Campiña","alt":["Batey Campina","Campina","Campiña"],"lon":-69.12115,"lat":18.57397,"pop":0},{"id":3511852,"name":"Batey Campiña","alt":["Batey Campina","Campina","Campiña"],"lon":-69.04782,"lat":18.52154,"pop":0},{"id":3511850,"name":"Batey Cañada de Agua","alt":["Batey Canada de Agua","Batey Cano de Agua","Batey Caño de Agua","Canada del Agua","Cañada del Agua"],"lon":-69.1991,"lat":18.64806,"pop":0},{"id":3511849,"name":"Batey Cañada del Negro","lon":-69.21826,"lat":18.65777,"pop":0},{"id":3511848,"name":"Batey Carabela","lon":-69.7193,"lat":18.6702,"pop":0},{"id":3511847,"name":"Batey Casuí","alt":["Batey Casui","Casu","Casui","Casú","Casúí"],"lon":-69.41667,"lat":18.63333,"pop":0},{"id":3511846,"name":"Batey Cerro Gordo","lon":-71.26658,"lat":19.6349,"pop":0},{"id":3511845,"name":"Batey Chavón","alt":["Batey Chavon","Chavon","Chavón"],"lon":-68.93333,"lat":18.66667,"pop":0},{"id":3511844,"name":"Batey Chichí","alt":["Batey Chichi","Batey Chucho Chichi"],"lon":-68.98333,"lat":18.58333,"pop":0},{"id":3511843,"name":"Batey Chiquito","alt":["Chiquito","El Batey Chiquito"],"lon":-71.15,"lat":18.86667,"pop":0},{"id":3511842,"name":"Batey Ciento Cinco","lon":-68.9731,"lat":18.66547,"pop":0},{"id":3511841,"name":"Batey Ciento Ocho","alt":["Batey Numero 108","Batey Número 108"],"lon":-68.95463,"lat":18.70164,"pop":0},{"id":3511840,"name":"Batey Ciento Seis","alt":["Batey Numero 106","Batey Número 106"],"lon":-68.96667,"lat":18.68333,"pop":0},{"id":3511839,"name":"Batey Ciento Siete","alt":["Batey Numero 107","Batey Número 107"],"lon":-68.94784,"lat":18.68277,"pop":0},{"id":3511838,"name":"Batey Cinco","lon":-68.83369,"lat":18.49608,"pop":0},{"id":3511837,"name":"Batey Cincuenta y Nueve","alt":["Batey 59","Colonia Numero 59","Colonia Número 59"],"lon":-70.23559,"lat":18.75321,"pop":0},{"id":3511836,"name":"Batey Cincuenta y Seis","alt":["Batey 56","Kilometro 56","Kilómetro 56"],"lon":-70.23274,"lat":18.72315,"pop":0},{"id":3511834,"name":"Batey Cojobal","alt":["Cojobal"],"lon":-69.8269,"lat":18.96094,"pop":0},{"id":3511835,"name":"Batey Cojobal","alt":["Cajobal","Cojobal"],"lon":-68.95,"lat":18.71667,"pop":0},{"id":3511833,"name":"Batey Concho Primo","alt":["Concho Primo","Culpa"],"lon":-69.1605,"lat":18.56372,"pop":0},{"id":3511832,"name":"Batey Constancia","lon":-69.34949,"lat":18.56306,"pop":0},{"id":3511831,"name":"Batey Consuelito","alt":["Consuelito"],"lon":-69.45246,"lat":18.62476,"pop":0},{"id":3511830,"name":"Batey Copey","alt":["Copey"],"lon":-69.03741,"lat":18.58939,"pop":0},{"id":3511829,"name":"Batey Copeyito","alt":["Copeyito"],"lon":-69.49193,"lat":18.57539,"pop":0},{"id":3511828,"name":"Batey Cuatro","alt":["Batey 4"],"lon":-71.25441,"lat":18.39306,"pop":0},{"id":3511827,"name":"Batey Cuatrocientos y Doce","alt":["Batey 412"],"lon":-68.73027,"lat":18.48895,"pop":0},{"id":3511826,"name":"Batey Cuchilla","alt":["La Cuchilla"],"lon":-71.27354,"lat":18.38692,"pop":0},{"id":3511825,"name":"Batey de los Cruzes","lon":-69.06667,"lat":18.7,"pop":0},{"id":3511824,"name":"Batey Diecinueve","alt":["Batey El-19"],"lon":-68.95792,"lat":18.60006,"pop":0},{"id":3511822,"name":"Batey Don López","alt":["Batey Don Lopez","Don Lopez","Don López"],"lon":-69.35097,"lat":18.64265,"pop":0},{"id":3511823,"name":"Batey Doña Ana","alt":["Batey Dona Ana","Dona Ana","Doña Ana"],"lon":-69.4184,"lat":18.68125,"pop":0},{"id":3511820,"name":"Batey Dos","alt":["Batey 2"],"lon":-71.25761,"lat":18.43124,"pop":0},{"id":3511821,"name":"Batey Dos","alt":["Batey 2"],"lon":-70.83497,"lat":18.37645,"pop":0},{"id":3511819,"name":"Batey Doscientos y Cinco","alt":["Batey-205"],"lon":-68.96108,"lat":18.5123,"pop":0},{"id":3511818,"name":"Batey Doscientos y Cuatro","alt":["Batey-204"],"lon":-68.93778,"lat":18.50623,"pop":0},{"id":3511817,"name":"Batey El Block","lon":-68.62869,"lat":18.59735,"pop":0},{"id":3511816,"name":"Batey El Bote","alt":["El Bote"],"lon":-69.34193,"lat":18.62265,"pop":0},{"id":3511815,"name":"Batey El Caño","lon":-69.95774,"lat":18.7881,"pop":0},{"id":3511814,"name":"Batey El Gato","alt":["Gato"],"lon":-69.09074,"lat":18.46453,"pop":0},{"id":3511813,"name":"Batey El Higo","alt":["El Higo"],"lon":-69.06185,"lat":18.68988,"pop":0},{"id":3511812,"name":"Batey El Molino","lon":-69.19342,"lat":18.49097,"pop":0},{"id":3511811,"name":"Batey El Ocho","lon":-69.4885,"lat":18.5258,"pop":0},{"id":3511810,"name":"Batey El Salado","alt":["Batey Cincuenta","Batey Numero 50","Batey Número 50","Salado"],"lon":-69.03294,"lat":18.70706,"pop":0},{"id":3511809,"name":"Batey Enriquillo","alt":["Enriquillo"],"lon":-69.80274,"lat":18.96455,"pop":0},{"id":3511808,"name":"Batey Esperanza","lon":-69.91632,"lat":19.00437,"pop":0},{"id":3511807,"name":"Batey Espinillo","alt":["Espinillo"],"lon":-68.99397,"lat":18.5161,"pop":0},{"id":3511806,"name":"Batey Estante Alto","lon":-68.78062,"lat":18.51153,"pop":0},{"id":3511805,"name":"Batey Estrella","alt":["Batey La Estrella","La Estrella"],"lon":-69.45455,"lat":18.70036,"pop":0},{"id":3511804,"name":"Batey Excavación","alt":["Batey Excavacion","Excavacion","Excavación","La Excavacion","La Excavación"],"lon":-69.40146,"lat":18.62959,"pop":0},{"id":3511803,"name":"Batey Félix","alt":["Batey Felix","Felix","Félix"],"lon":-68.98333,"lat":18.55,"pop":0},{"id":3511802,"name":"Batey Frías","lon":-69.97599,"lat":18.86399,"pop":0},{"id":3511801,"name":"Batey Galeano","alt":["Batey Galiano"],"lon":-69.83584,"lat":18.93914,"pop":0},{"id":3511800,"name":"Batey Goico","alt":["Garrido","Goico"],"lon":-68.96667,"lat":18.65,"pop":0},{"id":3511799,"name":"Batey Gollito","alt":["Gollito","Goyito"],"lon":-68.95,"lat":18.7,"pop":0},{"id":3511798,"name":"Batey Guajabo","lon":-69.54423,"lat":18.53179,"pop":0},{"id":3511797,"name":"Batey Guano","lon":-70.2982,"lat":18.91441,"pop":0},{"id":3511796,"name":"Batey Guanuma","lon":-69.92754,"lat":18.69526,"pop":0},{"id":3511795,"name":"Batey Guayacán","alt":["Batey Guayacan","El Guayacan","El Guayacán","Guayacanes"],"lon":-71.15675,"lat":18.27818,"pop":0},{"id":3511794,"name":"Batey Guayacanes","alt":["Guayacanes","Guayanes"],"lon":-69.06665,"lat":18.655,"pop":0},{"id":3511793,"name":"Batey Guazabal","alt":["Guazabal"],"lon":-69.05183,"lat":18.67022,"pop":0},{"id":3511792,"name":"Batey Guerrero","alt":["Guerrero"],"lon":-69.01033,"lat":18.54338,"pop":0},{"id":3511791,"name":"Batey Haití","alt":["Batey Haiti","Haiti"],"lon":-69.18354,"lat":18.65409,"pop":0},{"id":3507344,"name":"Batey Higüero","alt":["Batey Higuero","El Higuero","El Higüero"],"lon":-71.56476,"lat":19.75089,"pop":0},{"id":3511790,"name":"Batey Higüeyana","alt":["Batey Higueyana","Higueyana","Higüeyana"],"lon":-69.00687,"lat":18.60153,"pop":0},{"id":3511789,"name":"Batey Hoyo de Puerco","lon":-68.93225,"lat":18.59569,"pop":0},{"id":3511788,"name":"Batey Hoyón","alt":["Batey Hoyon","Hoyon","Hoyón"],"lon":-69.41812,"lat":18.72124,"pop":0},{"id":3511786,"name":"Batey Iguamo","alt":["Batey Higuamo","Higuamo","Iguama","Iguamo"],"lon":-69.36806,"lat":18.5757,"pop":0},{"id":3511787,"name":"Batey Iguamo","alt":["Higuamo Numero 3","Higuamo Número 3","Higuamo Tres","Iguamo"],"lon":-69.3837,"lat":18.52683,"pop":0},{"id":3511784,"name":"Batey Isabel","alt":["Isabel"],"lon":-71.58796,"lat":19.75934,"pop":0},{"id":3511785,"name":"Batey Isabel","lon":-69.39251,"lat":18.70132,"pop":0},{"id":3511783,"name":"Batey Isabella","alt":["Isabela"],"lon":-71.25805,"lat":18.44634,"pop":0},{"id":3511781,"name":"Batey Jabonico","lon":-69.94416,"lat":18.92906,"pop":0},{"id":3511780,"name":"Batey Jalonga","alt":["Jalanga","Jalonga"],"lon":-69.27076,"lat":18.6491,"pop":0},{"id":3511779,"name":"Batey Jolupo","lon":-69.84123,"lat":18.67228,"pop":0},{"id":3511778,"name":"Batey Juan Gil","alt":["Juan Gil"],"lon":-69.05467,"lat":18.6268,"pop":0},{"id":3511777,"name":"Batey Julián","alt":["Batey Julian","Batey Juliana","Julian","Juliana"],"lon":-71.6105,"lat":19.7825,"pop":0},{"id":3511776,"name":"Batey Kilómetro Dos","alt":["Batey Kilometro Dos","Batey Numero 2","Batey Número 2"],"lon":-69.05411,"lat":18.77961,"pop":0},{"id":3511774,"name":"Batey La Altagracia","alt":["Altagracia","La Altagracia"],"lon":-69.04096,"lat":18.61164,"pop":0},{"id":3511775,"name":"Batey La Altagracia","alt":["Altagracia","Batey Altagracia","Batey Altagracía"],"lon":-71.18169,"lat":18.28388,"pop":0},{"id":3511773,"name":"Batey La Cerca","lon":-69.05,"lat":18.71667,"pop":0},{"id":3511772,"name":"Batey La Cruz","alt":["La Cruz"],"lon":-71.65,"lat":19.76667,"pop":0},{"id":3511771,"name":"Batey La Culata","lon":-69.83752,"lat":18.55595,"pop":0},{"id":3511770,"name":"Batey La Dominicana","lon":-69.20642,"lat":18.5178,"pop":0},{"id":3511769,"name":"Batey La Española","alt":["Batey El Espanol","Batey El Español","Batey Espanol","Batey Español","Batey La Espanola","La Espanola","La Española"],"lon":-69.02049,"lat":18.63999,"pop":0},{"id":3511768,"name":"Batey La Fe","alt":["La Fe"],"lon":-69.45028,"lat":18.46984,"pop":0},{"id":3511767,"name":"Batey La Felipa","alt":["La Felipa"],"lon":-69.21362,"lat":18.63181,"pop":0},{"id":3511766,"name":"Batey La Florida","alt":["Batey Florida"],"lon":-68.9924,"lat":18.65145,"pop":0},{"id":3511765,"name":"Batey La Gina","alt":["Batey La Jina","La Gina"],"lon":-69.07156,"lat":18.60539,"pop":0},{"id":3511764,"name":"Batey La Grúa","alt":["Batey La Grua","La Grua","La Grúa"],"lon":-69.21694,"lat":18.62034,"pop":0},{"id":3511763,"name":"Batey La Guázuma","lon":-69.99437,"lat":18.86999,"pop":0},{"id":3511761,"name":"Batey La Jagua","lon":-69.31194,"lat":18.58744,"pop":0},{"id":3511759,"name":"Batey La Luisa","lon":-69.90535,"lat":18.71447,"pop":0},{"id":3511758,"name":"Batey La Magdalena","lon":-68.79013,"lat":18.49048,"pop":0},{"id":3511757,"name":"Batey La Ñapita","lon":-68.65599,"lat":18.5276,"pop":0},{"id":3511756,"name":"Batey La Noria","alt":["Batey Noria-B","La Noria"],"lon":-69.08006,"lat":18.48607,"pop":0},{"id":3511755,"name":"Batey La Plaza","alt":["La Plata","La Plaza"],"lon":-69.30804,"lat":18.63354,"pop":0},{"id":3511762,"name":"Batey Laguneta","alt":["Batey"],"lon":-70.01667,"lat":19.51667,"pop":0},{"id":3511760,"name":"Batey Lajas","alt":["Lajas"],"lon":-69.39106,"lat":18.66213,"pop":0},{"id":3511754,"name":"Batey Las Cejas","alt":["Batey La Ceja"],"lon":-68.81704,"lat":18.47917,"pop":0},{"id":3511753,"name":"Batey Las Charcas","alt":["Batey La Charca","Las Charcas"],"lon":-69.79702,"lat":19.00227,"pop":0},{"id":3511752,"name":"Batey Las Flores","lon":-69.04743,"lat":18.5141,"pop":0},{"id":3511751,"name":"Batey Las Mayas","lon":-69.94661,"lat":18.72804,"pop":0},{"id":3511750,"name":"Batey Las Mayitas","lon":-69.78333,"lat":18.73333,"pop":0},{"id":3511749,"name":"Batey Las Pajas","alt":["Ingenio Las Pajas","Las Pajas"],"lon":-69.37071,"lat":18.62107,"pop":0},{"id":3511747,"name":"Batey Lechería","lon":-70.19506,"lat":18.69107,"pop":0},{"id":3511748,"name":"Batey Lechería","lon":-68.95938,"lat":18.63761,"pop":0},{"id":3511746,"name":"Batey Lechuga","alt":["Lechuga","Lechugas"],"lon":-69.05974,"lat":18.58899,"pop":0},{"id":3511745,"name":"Batey Lima","alt":["Lima"],"lon":-69.09581,"lat":18.57975,"pop":0},{"id":3511744,"name":"Batey Los Conucos","alt":["Los Conucos"],"lon":-69.27912,"lat":18.48609,"pop":0},{"id":3511743,"name":"Batey Los Guineos","lon":-70.18875,"lat":18.6697,"pop":0},{"id":3511742,"name":"Batey Los Jovillos","alt":["Batey Los Jobillos"],"lon":-69.93666,"lat":18.74,"pop":0},{"id":3511741,"name":"Batey Los Lanos","alt":["Batey Lano"],"lon":-69.92881,"lat":18.93539,"pop":0},{"id":3511740,"name":"Batey Los Lirios","lon":-68.65278,"lat":18.56361,"pop":0},{"id":3511739,"name":"Batey Los Riseles","lon":-69.16459,"lat":18.63839,"pop":0},{"id":3511738,"name":"Batey Los Tocones","lon":-68.65296,"lat":18.50715,"pop":0},{"id":3511737,"name":"Batey Luis Medina","alt":["Batey Medina","Luis Medina"],"lon":-69.47763,"lat":18.56753,"pop":0},{"id":3511736,"name":"Batey Luna","lon":-69.91099,"lat":19.01454,"pop":0},{"id":3511734,"name":"Batey Madre","alt":["Madre"],"lon":-71.60991,"lat":19.78036,"pop":0},{"id":3511735,"name":"Batey Madre","lon":-71.60026,"lat":19.75925,"pop":0},{"id":3511733,"name":"Batey Maguá","alt":["Batey Magua","Magua","Maguá"],"lon":-69.3,"lat":18.6,"pop":0},{"id":3511732,"name":"Batey Maguaca","lon":-71.61204,"lat":19.75934,"pop":0},{"id":3511731,"name":"Batey Marchena","alt":["Marchena"],"lon":-69.03129,"lat":18.63433,"pop":0},{"id":3511730,"name":"Batey Margarita","alt":["La Margarita","Margarita"],"lon":-69.21265,"lat":18.57362,"pop":0},{"id":3511729,"name":"Batey Marmolejos","alt":["Marmalejo","Marmolejos"],"lon":-69.00742,"lat":18.71503,"pop":0},{"id":3511728,"name":"Batey Martínez","alt":["Batey Los Martinez","Batey Martinez","Martinez","Martínez"],"lon":-69.06008,"lat":18.68062,"pop":0},{"id":3511727,"name":"Batey Mejía","lon":-69.71667,"lat":18.93399,"pop":0},{"id":3511725,"name":"Batey Monte Coca","alt":["Batey Monte Coco","Monte Coca","Monte Coco"],"lon":-69.32836,"lat":18.59461,"pop":0},{"id":3511724,"name":"Batey Monte Cristi","alt":["Batey Monte Cristy"],"lon":-69.24291,"lat":18.51205,"pop":0},{"id":3511726,"name":"Batey Montecarlo","alt":["Batey Monte Carlos"],"lon":-68.76667,"lat":18.45,"pop":0},{"id":3511723,"name":"Batey Naranjo","alt":["Batey Noranjo Chino","Naranjo"],"lon":-69.43918,"lat":18.67194,"pop":0},{"id":3511722,"name":"Batey Negro","lon":-69.11371,"lat":18.41033,"pop":0},{"id":3511721,"name":"Batey Nigua","alt":["Nigua"],"lon":-68.95423,"lat":18.55692,"pop":0},{"id":3511720,"name":"Batey Noventa","lon":-69.01111,"lat":18.73102,"pop":0},{"id":3511714,"name":"Batey Nuevo","lon":-69.82396,"lat":19.02286,"pop":0},{"id":3511715,"name":"Batey Nuevo","lon":-69.73748,"lat":18.93418,"pop":0},{"id":3511716,"name":"Batey Nuevo","lon":-69.9607,"lat":18.80442,"pop":0},{"id":3511717,"name":"Batey Nuevo","lon":-69.44034,"lat":18.64027,"pop":0},{"id":3511718,"name":"Batey Nuevo","lon":-68.94707,"lat":18.53849,"pop":0},{"id":3511719,"name":"Batey Nuevo","alt":["Batey 9"],"lon":-71.35,"lat":18.36667,"pop":0},{"id":3511713,"name":"Batey Número Ciento y Cuatro","alt":["Batey El-104","Batey Numero 104","Batey Numero Ciento y Cuatro","Batey Número 104"],"lon":-68.97322,"lat":18.65327,"pop":0},{"id":3511711,"name":"Batey Número Cinco","alt":["Batey El-5","Batey Numero 5","Batey Numero Cinco","Batey Número 5"],"lon":-69.01463,"lat":18.51582,"pop":0},{"id":3511712,"name":"Batey Número Cinco","alt":["Batey 5","Batey Numero 5","Batey Numero Cinco","Batey Número 5"],"lon":-71.24797,"lat":18.37548,"pop":0},{"id":3511710,"name":"Batey Número Cuarenta","alt":["Batey El-40","Batey Numero 40","Batey Numero Cuarenta","Batey Número 40"],"lon":-69.02693,"lat":18.52234,"pop":0},{"id":3511709,"name":"Batey Número Cuatro","alt":["Batey A-B Cuatro","Batey Numero 4","Batey Numero Cuatro","Batey Número 4"],"lon":-69.27188,"lat":18.54672,"pop":0},{"id":3511708,"name":"Batey Número Dieciocho","alt":["Batey El-18","Batey Numero 18","Batey Numero Dieciocho","Batey Número 18"],"lon":-69.01441,"lat":18.57145,"pop":0},{"id":3511707,"name":"Batey Número Dieciséis","alt":["Batey El-16","Batey Numero 16","Batey Numero Dieciseis","Batey Número 16"],"lon":-68.99704,"lat":18.5752,"pop":0},{"id":3511706,"name":"Batey Número Diecisiete","alt":["Batey El-17","Batey Numero 17","Batey Numero Diecisiete","Batey Número 17"],"lon":-69.00662,"lat":18.58191,"pop":0},{"id":3511705,"name":"Batey Número Dos","alt":["Batey 2","Batey Dos","Batey Numero 2","Batey Numero Dos","Batey Número 2"],"lon":-69.35752,"lat":18.48751,"pop":0},{"id":3511704,"name":"Batey Número Noventa y Uno","alt":["Batey Noventiuno","Batey Numero 91","Batey Numero Noventa y Uno","Batey Número 91"],"lon":-68.99214,"lat":18.73145,"pop":0},{"id":3511703,"name":"Batey Número Ochenta y Dos","alt":["Batey El-82","Batey Numero 82","Batey Numero Ochenta y Dos","Batey Número 82"],"lon":-69.01398,"lat":18.53818,"pop":0},{"id":3511702,"name":"Batey Número Quince","alt":["Batey El-15","Batey Numero 15","Batey Numero Quince","Batey Número 15"],"lon":-69,"lat":18.56667,"pop":0},{"id":3511699,"name":"Batey Número Seis","alt":["Batey Numero 6","Batey Numero Seis","Batey Número 6"],"lon":-69.30682,"lat":18.59499,"pop":0},{"id":3511700,"name":"Batey Número Seis","alt":["Batey A-B Seis","Batey Numero 6","Batey Numero Seis","Batey Número 6"],"lon":-69.25983,"lat":18.54632,"pop":0},{"id":3511701,"name":"Batey Número Seis","alt":["Batey 6","Batey Numero 6","Batey Numero Seis","Batey Número 6"],"lon":-71.23499,"lat":18.35123,"pop":0},{"id":3511698,"name":"Batey Número Treinta","alt":["Batey Numero 30","Batey Numero Treinta","Batey Número 30","Batey Trienta"],"lon":-69.0118,"lat":18.65936,"pop":0},{"id":3511697,"name":"Batey Número Tres","alt":["Batey Numero 3","Batey Numero Tres","Batey Número 3","Batey Tres"],"lon":-71.04508,"lat":19.59062,"pop":0},{"id":3511695,"name":"Batey Número Uno","alt":["Batey Numero 1","Batey Numero Uno","Batey Número 1"],"lon":-70.78914,"lat":19.47904,"pop":0},{"id":3511696,"name":"Batey Número Uno","alt":["Batey 1","Batey Numero 1","Batey Numero Uno","Batey Número 1"],"lon":-71.22615,"lat":18.43483,"pop":0},{"id":3511694,"name":"Batey Número Veinticinco","alt":["Batey 25","Batey El-25","Batey Numero 25","Batey Numero Veinticinco","Batey Número 25"],"lon":-68.96487,"lat":18.60916,"pop":0},{"id":3511693,"name":"Batey Número Veinticuatro y Media","alt":["Batey El-24","Batey Numero 24 1/2","Batey Numero Veinticuatro y Media","Batey Número 24 1/2"],"lon":-68.96344,"lat":18.59514,"pop":0},{"id":3511692,"name":"Batey Número Veintidós","alt":["Batey 22","Batey El-22","Batey Numero 22","Batey Numero Veintidos","Batey Número 22"],"lon":-68.98141,"lat":18.60826,"pop":0},{"id":3511691,"name":"Batey Ocho","alt":["Batey 8"],"lon":-71.25249,"lat":18.33736,"pop":0},{"id":3511690,"name":"Batey Palo Blanco","alt":["Palo Blanco"],"lon":-69.01522,"lat":18.52215,"pop":0},{"id":3511689,"name":"Batey Papagayo","lon":-68.76152,"lat":18.94268,"pop":0},{"id":3511688,"name":"Batey Paraíso Número Dos","alt":["Batey Paraiso Dos","Batey Paraiso Numero 2","Batey Paraiso Numero Dos","Batey Paraiso Número 2","Paraiso Numero 2","Paraíso Número 2"],"lon":-69.20686,"lat":18.64075,"pop":0},{"id":3511687,"name":"Batey Pelado","alt":["Batey Los Pelados","Batey Pelao","Pelao"],"lon":-69.00814,"lat":18.72129,"pop":0},{"id":3511686,"name":"Batey Peligro","alt":["Peligro"],"lon":-68.96531,"lat":18.64027,"pop":0},{"id":3511685,"name":"Batey Piedra","lon":-69.90885,"lat":19.06759,"pop":0},{"id":3511684,"name":"Batey Piñones","lon":-69.09813,"lat":18.5502,"pop":0},{"id":3511683,"name":"Batey Piraco","lon":-69.82541,"lat":19.00588,"pop":0},{"id":3511682,"name":"Batey Plumita","alt":["Plumita","Plumitas"],"lon":-69.0389,"lat":18.65004,"pop":0},{"id":3511681,"name":"Batey Portela","lon":-71.19343,"lat":19.63558,"pop":0},{"id":3511680,"name":"Batey Punta Afuera","alt":["Punta Afuera"],"lon":-69.33883,"lat":18.58111,"pop":0},{"id":3511679,"name":"Batey Rancho la Altagracia","lon":-69.298,"lat":18.50796,"pop":0},{"id":3511678,"name":"Batey Realidad","alt":["Batey Bealidad","Realidad"],"lon":-69.45,"lat":18.73333,"pop":0},{"id":3511677,"name":"Batey Renguelito","lon":-69.04743,"lat":18.49482,"pop":0},{"id":3511676,"name":"Batey Rincón Claro","alt":["Batey Rincon Claro","Batey Rincon Claron","Batey Rincón Claron","Rincon Claro","Rincón Claro"],"lon":-69.90554,"lat":19.04528,"pop":0},{"id":3511675,"name":"Batey Río Dulce","alt":["Batey Rio Dulce","El Rio Dulce","Rio Dulce"],"lon":-68.95,"lat":18.43333,"pop":0},{"id":3511674,"name":"Batey Rodeo","lon":-69.42451,"lat":18.74011,"pop":0},{"id":3511673,"name":"Batey Romanita","lon":-68.62084,"lat":18.61887,"pop":0},{"id":3511672,"name":"Batey Sabana de Chavón","alt":["Batey Sabana","Batey Sabana de Chavon","La Sabana Chavon","La Sabana Chavón","Sabana"],"lon":-68.96425,"lat":18.61751,"pop":0},{"id":3511671,"name":"Batey Sabana Larga de Cojobal","alt":["Batey Sabana Larga"],"lon":-69.86243,"lat":18.95212,"pop":0},{"id":3511670,"name":"Batey San Antonio","lon":-69.88817,"lat":19.01562,"pop":0},{"id":3511669,"name":"Batey San Francisco","lon":-68.63688,"lat":18.62123,"pop":0},{"id":3511668,"name":"Batey San Germán","alt":["Batey San German","San German","San Germán"],"lon":-68.62875,"lat":18.57484,"pop":0},{"id":3511667,"name":"Batey San Isidro","lon":-68.96468,"lat":18.55843,"pop":0},{"id":3511666,"name":"Batey San José","alt":["Batey San Jose","San Jose","San José"],"lon":-69.86667,"lat":18.98333,"pop":0},{"id":3511665,"name":"Batey San Juan Bautista","lon":-69.26995,"lat":18.52235,"pop":0},{"id":3511664,"name":"Batey Santa María","lon":-68.94475,"lat":18.54137,"pop":0},{"id":3511663,"name":"Batey Santa Rosa","lon":-69.88435,"lat":18.96667,"pop":0},{"id":3511662,"name":"Batey Santa Teresa","lon":-69.01667,"lat":18.73333,"pop":0},{"id":3511661,"name":"Batey Santoni","alt":["Batey Santos","Santoni","Santos"],"lon":-68.91385,"lat":18.48837,"pop":0},{"id":3511660,"name":"Batey Seibo","alt":["Batey El-20","Batey Numero 20","Batey Número 20","Seibo","Seybo"],"lon":-69.02716,"lat":18.55356,"pop":0},{"id":3511659,"name":"Batey Sesentidós","alt":["Batey Sesentidos","Sesentidas","Sesentidos","Sesentidás"],"lon":-68.99101,"lat":18.52533,"pop":0},{"id":3511658,"name":"Batey Siete","alt":["Batey 7"],"lon":-71.26653,"lat":18.3529,"pop":0},{"id":3511657,"name":"Batey Solano","alt":["Solano"],"lon":-69.08918,"lat":18.62952,"pop":0},{"id":3511656,"name":"Batey Tabacones","alt":["Tabacones"],"lon":-69.37379,"lat":18.63874,"pop":0},{"id":3511655,"name":"Batey Tentación","alt":["Batey Tentacion","Tentacion","Tentación"],"lon":-68.99168,"lat":18.63699,"pop":0},{"id":3511654,"name":"Batey Toronja","alt":["Toronja","Toronjas"],"lon":-69.26667,"lat":18.61667,"pop":0},{"id":3511653,"name":"Batey Treinticinco","alt":["El Treinticinco"],"lon":-69.007,"lat":18.70618,"pop":0},{"id":3511652,"name":"Batey Tres","alt":["Batey 3"],"lon":-71.25796,"lat":18.4107,"pop":0},{"id":3511651,"name":"Batey Ulloa","alt":["Ulloa"],"lon":-69.4232,"lat":18.61537,"pop":0},{"id":3511650,"name":"Batey Verde","lon":-69.17089,"lat":18.55428,"pop":0},{"id":3511648,"name":"Batey Victoria","alt":["La Victoria","Victoria"],"lon":-68.94776,"lat":18.66706,"pop":0},{"id":3511649,"name":"Batey Victoria","alt":["Victoria"],"lon":-69.22159,"lat":18.63763,"pop":0},{"id":3511647,"name":"Batey Victoria de Casualidad","alt":["Victoria"],"lon":-69.23604,"lat":18.63111,"pop":0},{"id":3511646,"name":"Batey Viejo","lon":-69.26979,"lat":18.65374,"pop":0},{"id":3511645,"name":"Batey Virginia","alt":["Virgilio","Virginia"],"lon":-69.4,"lat":18.65,"pop":0},{"id":3511644,"name":"Batey Walterio","lon":-71.62958,"lat":19.75969,"pop":0},{"id":3511643,"name":"Batey Yabacoa","alt":["Yabacoa"],"lon":-70.3144,"lat":18.81979,"pop":0},{"id":3511642,"name":"Batey Yagua","lon":-69.93922,"lat":18.71387,"pop":0},{"id":3511641,"name":"Batey Zapote","alt":["Zapote"],"lon":-69.87082,"lat":19.00851,"pop":0},{"id":3511638,"name":"Batista","lon":-71.43782,"lat":18.66335,"pop":0},{"id":3511635,"name":"Baúl","lon":-71.63455,"lat":19.31581,"pop":0},{"id":3511633,"name":"Bavarí","lon":-69.99111,"lat":19.1407,"pop":0},{"id":3511632,"name":"Bávaro","alt":["Bavaro"],"lon":-68.434,"lat":18.69634,"pop":0},{"id":3511629,"name":"Bayacanes","alt":["La Cruz de Bayacanes"],"lon":-70.57803,"lat":19.23685,"pop":0},{"id":3511625,"name":"Bayaguana","lon":-69.00707,"lat":18.95584,"pop":0},{"id":3511626,"name":"Bayaguana","alt":["San Juan Bautista de Bayaguana","San Juan de Bayaguana"],"lon":-69.63525,"lat":18.75031,"pop":21055},{"id":3511624,"name":"Bayahibe","alt":["Bahahibe","Bayahiba","Bayahide","Bayaibe","Bayjibe"],"lon":-68.83946,"lat":18.36795,"pop":0},{"id":3511621,"name":"Bayahonda","alt":["Bayahondo"],"lon":-71.15,"lat":18.73333,"pop":0},{"id":3511622,"name":"Bayahonda","alt":["Bayahondal"],"lon":-71.73333,"lat":18.55,"pop":0},{"id":3511623,"name":"Bayahonda","alt":["Bayahonda Alto"],"lon":-71.21025,"lat":18.42264,"pop":0},{"id":3511616,"name":"Bayona","alt":["Cabayona"],"lon":-70.00387,"lat":18.47226,"pop":0},{"id":3511607,"name":"Bebedero","lon":-69.70139,"lat":19.1671,"pop":0},{"id":3511595,"name":"Bejucal","lon":-70.89373,"lat":19.58753,"pop":0},{"id":3511596,"name":"Bejucal","lon":-70.74806,"lat":19.19012,"pop":0},{"id":3511597,"name":"Bejucal","lon":-70.41479,"lat":18.89499,"pop":0},{"id":3511598,"name":"Bejucal","alt":["Bejucalito"],"lon":-68.88498,"lat":18.67267,"pop":0},{"id":3511599,"name":"Bejucal","lon":-69.31657,"lat":18.64221,"pop":0},{"id":3511600,"name":"Bejucal","lon":-71.11667,"lat":18.08333,"pop":0},{"id":3511585,"name":"Bejuco Alambre","lon":-70.04688,"lat":19.60479,"pop":0},{"id":3511584,"name":"Bejuco Aplastado","lon":-70.45035,"lat":18.87037,"pop":0},{"id":3511583,"name":"Bejuco Blanco","lon":-70.24299,"lat":19.58956,"pop":0},{"id":3511581,"name":"Bejuco Colorado","lon":-70.06702,"lat":18.8709,"pop":0},{"id":3511577,"name":"Bejuquero","alt":["Bejuquedo"],"lon":-71.2,"lat":17.95,"pop":0},{"id":3511573,"name":"Beladero","lon":-71.12628,"lat":19.42752,"pop":0},{"id":3511570,"name":"Belín","lon":-70.68474,"lat":19.02079,"pop":0},{"id":3511550,"name":"Bella Vista","lon":-69.9454,"lat":18.45539,"pop":175683},{"id":3511551,"name":"Bella Vista","lon":-70.51724,"lat":19.71657,"pop":0},{"id":3511552,"name":"Bella Vista","lon":-70.71204,"lat":19.44333,"pop":0},{"id":9295737,"name":"Bella Vista","lon":-69.60779,"lat":18.45714,"pop":0},{"id":3511547,"name":"Bella Vista Arriba","lon":-70.7159,"lat":19.43851,"pop":0},{"id":3511567,"name":"Bellaco","lon":-70.80508,"lat":19.71138,"pop":0},{"id":3511568,"name":"Bellaco","lon":-71.21804,"lat":19.47101,"pop":0},{"id":3511542,"name":"Benancio","lon":-71.65057,"lat":18.83665,"pop":0},{"id":3511541,"name":"Benedicto","lon":-68.83296,"lat":18.44283,"pop":0},{"id":3511536,"name":"Benito","lon":-69.35,"lat":18.66667,"pop":0},{"id":3511537,"name":"Benito","lon":-70.3391,"lat":18.60697,"pop":0},{"id":3511528,"name":"Benito Martínez","alt":["Benito Martinez","El Llano","General Benito Martinez","General Benito Martínez","Villa General Benito Martinez"],"lon":-70.63013,"lat":19.56441,"pop":0},{"id":3511522,"name":"Bergantín","alt":["Bergantin","Puerto Bergantin","Puerto Bergantín"],"lon":-70.62289,"lat":19.76569,"pop":0},{"id":3511517,"name":"Bermejo","alt":["Batey Belmejo"],"lon":-69.9436,"lat":18.83994,"pop":0},{"id":3511512,"name":"Bermesí","alt":["Berbesi","Berbesí","Bermesi"],"lon":-71.43141,"lat":18.32375,"pop":0},{"id":3511508,"name":"Bernabé","alt":["Bernabe","Bernabel"],"lon":-70.99171,"lat":19.35324,"pop":0},{"id":3511505,"name":"Bernardino","alt":["Benaldino"],"lon":-70.01873,"lat":18.83697,"pop":0},{"id":3511506,"name":"Bernardino","lon":-71.2,"lat":18.16667,"pop":0},{"id":3511487,"name":"Betania","lon":-70.78333,"lat":18.48333,"pop":0},{"id":3511480,"name":"Bibiana","alt":["Viviana"],"lon":-69.27478,"lat":18.87136,"pop":0},{"id":3511473,"name":"Bienvenido","lon":-70.03643,"lat":18.47135,"pop":0},{"id":3511471,"name":"Bijao","lon":-70.28635,"lat":19.32149,"pop":0},{"id":3511467,"name":"Billiquín","alt":["Billiguin","Billiguín","Billiquin","Villiguin","Villiguín"],"lon":-71.57245,"lat":19.2023,"pop":0},{"id":3511431,"name":"Blanco","lon":-70.45286,"lat":19.02129,"pop":0},{"id":3511432,"name":"Blanco","lon":-70.52449,"lat":18.88523,"pop":0},{"id":3511433,"name":"Blanco","lon":-70.33407,"lat":18.7954,"pop":0},{"id":3511434,"name":"Blanco","lon":-70.26108,"lat":18.60791,"pop":0},{"id":3511369,"name":"Blanco Abajo","alt":["Blanco"],"lon":-70.31193,"lat":19.53405,"pop":365},{"id":3511368,"name":"Blanco al Medio","lon":-70.29513,"lat":19.52424,"pop":0},{"id":3511367,"name":"Blanco Arriba","lon":-70.30152,"lat":19.50948,"pop":0},{"id":3511366,"name":"Blandino","alt":["Los Blandino"],"lon":-68.69452,"lat":18.74698,"pop":0},{"id":3511362,"name":"Blanquito","alt":["El Blanquito"],"lon":-70.33333,"lat":19.46667,"pop":0},{"id":3511353,"name":"Blas Martínez","lon":-71.63714,"lat":18.9583,"pop":0},{"id":3511352,"name":"Blas Núñez","lon":-70.04566,"lat":18.77512,"pop":0},{"id":3511349,"name":"Boba","lon":-69.88333,"lat":19.46667,"pop":0},{"id":3511350,"name":"Boba","lon":-70.08344,"lat":19.31928,"pop":0},{"id":3511345,"name":"Boba Arriba","lon":-70.31605,"lat":19.47866,"pop":0},{"id":3511341,"name":"Bobita","alt":["Bobita al Centro","La Bobita"],"lon":-70.10213,"lat":19.56553,"pop":0},{"id":3511338,"name":"Boca Canasta","lon":-70.33434,"lat":18.25524,"pop":0},{"id":3511336,"name":"Boca Chica","alt":["Boka Chika","Бока Чика"],"lon":-69.6,"lat":18.45,"pop":46300},{"id":3511337,"name":"Boca Chica","lon":-68.71586,"lat":18.12571,"pop":0},{"id":3511332,"name":"Boca de Aminilla","lon":-71.41967,"lat":19.56139,"pop":0},{"id":3511331,"name":"Boca de Bao","lon":-70.72,"lat":19.34025,"pop":0},{"id":3511329,"name":"Boca de Blanco","lon":-70.47942,"lat":18.86902,"pop":0},{"id":3511328,"name":"Boca de Cachón","alt":["Boca Cachon","Boca Cachón","Boca de Cachon","Boce Cachon","Cachon"],"lon":-71.83972,"lat":18.55451,"pop":0},{"id":3511327,"name":"Boca de Camú","lon":-70.11105,"lat":19.14423,"pop":0},{"id":3511326,"name":"Boca de Cana","lon":-71.30617,"lat":19.23869,"pop":0},{"id":3511325,"name":"Boca de Cangrejos","alt":["Boca de Cangrejo"],"lon":-70.58769,"lat":19.75324,"pop":0},{"id":3511324,"name":"Boca de Cenoví","alt":["Boca de Cenovi","Cenovi","Cenoví"],"lon":-71.25221,"lat":19.31189,"pop":0},{"id":3511323,"name":"Boca de Cevicos","lon":-69.96167,"lat":19.13333,"pop":0},{"id":3511322,"name":"Boca de Chavón","alt":["Boca Chavon","Boca de Chavon","Boca del Chavon","Boca del Chavón","Quiabon"],"lon":-68.89431,"lat":18.39865,"pop":0},{"id":3511321,"name":"Boca de Estancia","alt":["Boca La Estancia","La Boca de La Estancia"],"lon":-71.21667,"lat":18.76667,"pop":0},{"id":3511319,"name":"Boca de Juma","lon":-70.38846,"lat":18.91564,"pop":0},{"id":3511317,"name":"Boca de la Mula","lon":-70.97572,"lat":18.53697,"pop":0},{"id":3511312,"name":"Boca de la Vereda","alt":["Boca de Vereda"],"lon":-71.45821,"lat":19.32932,"pop":0},{"id":3511303,"name":"Boca de los Arroyos","lon":-70.68182,"lat":19.14138,"pop":0},{"id":3511304,"name":"Boca de los Arroyos","alt":["Boca del Arroyo"],"lon":-70.18667,"lat":18.28482,"pop":0},{"id":3511301,"name":"Boca de los Mao","lon":-71.36469,"lat":19.25721,"pop":0},{"id":3511298,"name":"Boca de los Ríos","lon":-71.39671,"lat":19.50813,"pop":0},{"id":3511299,"name":"Boca de los Ríos","lon":-70.71588,"lat":19.3362,"pop":0},{"id":3511300,"name":"Boca de los Ríos","alt":["Boca de los Rios","La Boca de los Rios"],"lon":-71.03333,"lat":18.75,"pop":0},{"id":3511295,"name":"Boca de Mahoma","lon":-70.39262,"lat":18.55321,"pop":0},{"id":3511294,"name":"Boca de Maimón","lon":-68.61918,"lat":18.84029,"pop":0},{"id":3511292,"name":"Boca de Maizal","alt":["Boca del Maizal"],"lon":-70.61002,"lat":19.49899,"pop":0},{"id":3511291,"name":"Boca de Mana","lon":-70.24673,"lat":18.37018,"pop":0},{"id":3511290,"name":"Boca de Mao","lon":-71.05,"lat":19.6,"pop":0},{"id":3511289,"name":"Boca de Nigua","alt":["Boca Nigua"],"lon":-70.06938,"lat":18.37629,"pop":0},{"id":3511287,"name":"Boca de Obispo","lon":-70.82238,"lat":19.7283,"pop":0},{"id":3511285,"name":"Boca de Pantanal","alt":["Pantanal"],"lon":-68.4,"lat":18.48333,"pop":0},{"id":3511284,"name":"Boca de Partido","alt":["Boca Partido"],"lon":-70.39118,"lat":19.56083,"pop":0},{"id":3511282,"name":"Boca de Río Blanco","alt":["Boca de Arroyo Blanco","Boca de Rio Blanco"],"lon":-70.77857,"lat":19.68698,"pop":0},{"id":3511281,"name":"Boca de Río Grande","lon":-70.79494,"lat":19.69905,"pop":0},{"id":3511279,"name":"Boca de Tireo","lon":-70.48627,"lat":18.85906,"pop":0},{"id":3511278,"name":"Boca de Yuboa","lon":-70.37444,"lat":18.95885,"pop":0},{"id":3511277,"name":"Boca de Yuma","alt":["Boca del Yuma","Yuma"],"lon":-68.609,"lat":18.37825,"pop":1991},{"id":3511316,"name":"Boca del Anón","alt":["Boca del Anon","La Boca de Anon","La Boca de Anón"],"lon":-70.29474,"lat":19.60174,"pop":0},{"id":3511314,"name":"Boca del Arroyo","alt":["Boca de Arroyo","Boca de los Arroyos"],"lon":-71.3,"lat":19.03333,"pop":0},{"id":3511311,"name":"Boca del Bao","alt":["Boca Delbad"],"lon":-71.04657,"lat":18.48003,"pop":0},{"id":3511310,"name":"Boca del Caño","lon":-70.40899,"lat":18.58833,"pop":0},{"id":3511308,"name":"Boca del Corral","alt":["La Boca del Corral"],"lon":-70.72126,"lat":19.30577,"pop":0},{"id":3511297,"name":"Boca del Soco","lon":-69.20453,"lat":18.4624,"pop":0},{"id":3511276,"name":"Boca El Naranjo","alt":["Boca Naranjo","Naranja"],"lon":-71.25,"lat":18.2,"pop":0},{"id":3511275,"name":"Boca Férrea","alt":["Boca Ferrea","Boca Ferri"],"lon":-70.44134,"lat":19.41967,"pop":0},{"id":3511274,"name":"Boca Maizal","lon":-70.60887,"lat":19.50314,"pop":0},{"id":3511272,"name":"Boca Nueva","alt":["Baca Nueva","Monte Llano"],"lon":-70.61667,"lat":19.76667,"pop":0},{"id":3511270,"name":"Boca Vieja","alt":["Boca Viejo"],"lon":-69.85,"lat":19.41667,"pop":0},{"id":3511267,"name":"Bodega Azul","alt":["Batey Badega Azul"],"lon":-69.15141,"lat":18.48016,"pop":0},{"id":3511262,"name":"Bohechío","alt":["Boechio","Boechío","Bohechio"],"lon":-70.98889,"lat":18.77515,"pop":2281},{"id":3511256,"name":"Bohío Viejo","lon":-71.44833,"lat":19.69701,"pop":0},{"id":3511257,"name":"Bohío Viejo","lon":-71.024,"lat":19.42108,"pop":0},{"id":3511258,"name":"Bohío Viejo","lon":-70.91045,"lat":19.31115,"pop":0},{"id":3511259,"name":"Bohío Viejo","lon":-71.43818,"lat":19.42028,"pop":0},{"id":3511247,"name":"Boma","lon":-70.67463,"lat":19.17796,"pop":0},{"id":3511245,"name":"Bomba de Cenoví","alt":["Bomba de Cenobi Abajo","Bomba de Cenobí Abajo","Bomba de Cenovi","Cenobi Abajo","Cenobí Abajo","Cenovi Abajo","Cenoví Abajo"],"lon":-70.35554,"lat":19.21767,"pop":0},{"id":3511244,"name":"Bombillo","alt":["El Bombillo"],"lon":-69.95841,"lat":19.19439,"pop":0},{"id":3511243,"name":"Bombita","lon":-70.46682,"lat":19.77746,"pop":0},{"id":3511241,"name":"Bomo","alt":["Boma"],"lon":-70.23333,"lat":19.1,"pop":0},{"id":3511240,"name":"Bonagua","lon":-70.55,"lat":19.33333,"pop":0},{"id":3511238,"name":"Bonagua Abajo","alt":["Banabua","Bonagua"],"lon":-70.59066,"lat":19.35624,"pop":0},{"id":3511237,"name":"Bonagua de Moca","lon":-70.54542,"lat":19.35031,"pop":0},{"id":3511236,"name":"Bonaito","lon":-70.35865,"lat":18.90656,"pop":0},{"id":3511233,"name":"Bonao","alt":["Banao","Monsenor Nouel","Monseñor Nouel","Бонао"],"lon":-70.40923,"lat":18.93687,"pop":73269},{"id":3511234,"name":"Bonao","alt":["El Bonao"],"lon":-68.6561,"lat":18.71574,"pop":0},{"id":3511231,"name":"Bonao Abajo","lon":-70.36667,"lat":18.88333,"pop":0},{"id":3511227,"name":"Bonilla","lon":-69.41843,"lat":19.25403,"pop":0},{"id":3511228,"name":"Bonilla","lon":-68.71102,"lat":18.83172,"pop":0},{"id":3511192,"name":"Bonito Valle","lon":-71.64526,"lat":19.39367,"pop":0},{"id":3511186,"name":"Borbón","lon":-70.13205,"lat":18.45894,"pop":0},{"id":3511185,"name":"Borgen","lon":-69.06427,"lat":18.88328,"pop":0},{"id":3511181,"name":"Borinquen","lon":-68.93333,"lat":18.58333,"pop":0},{"id":3511182,"name":"Borinquen","alt":["Batey Boringuen"],"lon":-69.41667,"lat":18.5,"pop":0},{"id":3511176,"name":"Borojol","lon":-69.74483,"lat":19.15094,"pop":0},{"id":3511174,"name":"Borrachón","lon":-68.36667,"lat":18.55,"pop":0},{"id":3511170,"name":"Boruga","lon":-71.41998,"lat":19.85077,"pop":0},{"id":3511171,"name":"Boruga","alt":["Borugas"],"lon":-70.12982,"lat":18.47186,"pop":0},{"id":3511161,"name":"Botija","lon":-70.60131,"lat":19.31965,"pop":0},{"id":3511159,"name":"Botijita","lon":-70.60649,"lat":19.30625,"pop":0},{"id":3511157,"name":"Botín","lon":-69.47192,"lat":18.61811,"pop":0},{"id":3511151,"name":"Botoncillo","lon":-71.42105,"lat":19.73418,"pop":0},{"id":3511152,"name":"Botoncillo","lon":-71.13333,"lat":19.41667,"pop":0},{"id":3511153,"name":"Botoncillo","lon":-70.91898,"lat":19.33152,"pop":0},{"id":3511154,"name":"Botoncillo","lon":-70.76901,"lat":19.30294,"pop":0},{"id":3511155,"name":"Botoncillo","lon":-70.22673,"lat":18.43988,"pop":0},{"id":3511138,"name":"Brazo Chiquito","lon":-68.87038,"lat":18.90938,"pop":0},{"id":3511113,"name":"Brito","alt":["Los Britos"],"lon":-71.56567,"lat":19.02879,"pop":0},{"id":3511108,"name":"Brujuela","lon":-69.51907,"lat":18.73888,"pop":0},{"id":3511106,"name":"Brujuelas","alt":["Batey Brujuelas","Brujuelos"],"lon":-69.6,"lat":18.51667,"pop":0},{"id":3511084,"name":"Bucaral","alt":["Bucarol"],"lon":-71.31395,"lat":17.87433,"pop":0},{"id":3511047,"name":"Buen Gusto","lon":-71.50965,"lat":19.47354,"pop":0},{"id":3511043,"name":"Buen Hombre","lon":-71.41391,"lat":19.85162,"pop":0},{"id":3511083,"name":"Buena Agua","lon":-69.99309,"lat":19.60967,"pop":0},{"id":3511059,"name":"Buena Vista","lon":-71.65677,"lat":19.51004,"pop":0},{"id":3511060,"name":"Buena Vista","lon":-70.24407,"lat":19.48479,"pop":0},{"id":3511061,"name":"Buena Vista","lon":-70.28564,"lat":19.46804,"pop":0},{"id":3511062,"name":"Buena Vista","lon":-70.21667,"lat":19.4,"pop":0},{"id":3511063,"name":"Buena Vista","lon":-70.12274,"lat":19.27437,"pop":0},{"id":3511064,"name":"Buena Vista","lon":-70.59143,"lat":19.15652,"pop":0},{"id":3511065,"name":"Buena Vista","lon":-69.78333,"lat":18.91667,"pop":0},{"id":3511066,"name":"Buena Vista","lon":-71.59391,"lat":18.87932,"pop":0},{"id":3511067,"name":"Buena Vista","lon":-71.23333,"lat":18.88333,"pop":0},{"id":3511068,"name":"Buena Vista","lon":-69.31189,"lat":18.83768,"pop":0},{"id":3511069,"name":"Buena Vista","lon":-71.06667,"lat":18.81667,"pop":0},{"id":3511070,"name":"Buena Vista","lon":-71.24558,"lat":18.77158,"pop":0},{"id":3511071,"name":"Buena Vista","lon":-70.9455,"lat":18.72177,"pop":0},{"id":3511072,"name":"Buena Vista","lon":-69.64098,"lat":18.60616,"pop":0},{"id":3511073,"name":"Buena Vista","alt":["El Higueral","El Higüeral"],"lon":-69.14153,"lat":18.41487,"pop":0},{"id":3511074,"name":"Buena Vista","lon":-68.95822,"lat":18.42431,"pop":0},{"id":3511075,"name":"Buena Vista","alt":["Iguana"],"lon":-70.31667,"lat":18.38333,"pop":0},{"id":3511076,"name":"Buena Vista","lon":-70.28869,"lat":18.33863,"pop":0},{"id":3511077,"name":"Buena Vista","alt":["La Guama"],"lon":-71.247,"lat":17.90458,"pop":0},{"id":3511080,"name":"Buenas Noches","lon":-69.02773,"lat":18.78047,"pop":0},{"id":3511081,"name":"Buenas Noches","lon":-70.05183,"lat":18.48437,"pop":0},{"id":3511035,"name":"Buenos Aires","lon":-70.15,"lat":19.31667,"pop":0},{"id":3511036,"name":"Buenos Aires","lon":-69.04394,"lat":18.82236,"pop":0},{"id":3511037,"name":"Buenos Aires","lon":-69.96762,"lat":18.71393,"pop":0},{"id":3511038,"name":"Buenos Aires","lon":-70.0091,"lat":18.66328,"pop":0},{"id":3511039,"name":"Buenos Aires","lon":-69.71238,"lat":18.62865,"pop":0},{"id":3511034,"name":"Buenos Días","lon":-69.28833,"lat":18.69896,"pop":0},{"id":3511026,"name":"Bulla","lon":-71.08203,"lat":19.42354,"pop":0},{"id":3511018,"name":"Burende","alt":["Burrende"],"lon":-70.58113,"lat":19.30137,"pop":0},{"id":3510995,"name":"Caba","lon":-69.63333,"lat":19.05,"pop":0},{"id":3510990,"name":"Caballero","alt":["Abajo Caballero"],"lon":-70.29765,"lat":18.99872,"pop":0},{"id":3510992,"name":"Caballero","lon":-71.14568,"lat":18.24118,"pop":0},{"id":3510973,"name":"Caballo Viejo","lon":-69.14819,"lat":18.51185,"pop":0},{"id":3510976,"name":"Caballona","lon":-70.05306,"lat":18.502,"pop":0},{"id":3510969,"name":"Cabarete","alt":["Kabarete","Кабарете"],"lon":-70.40829,"lat":19.74982,"pop":4094},{"id":3510955,"name":"Cabeza de Agua","lon":-71.33592,"lat":18.48918,"pop":0},{"id":3510956,"name":"Cabeza de Agua","lon":-71.75,"lat":18.15,"pop":0},{"id":3510952,"name":"Cabeza de Bestia","lon":-71.46667,"lat":18.81667,"pop":0},{"id":3510935,"name":"Cabeza de Toro","lon":-71.43353,"lat":19.57484,"pop":0},{"id":3510936,"name":"Cabeza de Toro","lon":-69.8378,"lat":18.92263,"pop":0},{"id":3510937,"name":"Cabeza de Toro","lon":-68.36035,"lat":18.64893,"pop":0},{"id":3510938,"name":"Cabeza de Toro","lon":-71.23426,"lat":18.59532,"pop":0},{"id":3510939,"name":"Cabeza de Toro","lon":-70.37893,"lat":18.37672,"pop":0},{"id":3510925,"name":"Cabeza de Vaca","lon":-70.31442,"lat":19.00013,"pop":0},{"id":3510926,"name":"Cabeza de Vaca","lon":-71.55769,"lat":18.98931,"pop":0},{"id":3510913,"name":"Cabía","lon":-70.8858,"lat":19.74102,"pop":0},{"id":3510909,"name":"Cabilmal","alt":["Cabimal","Cabirmas","La Cabirmar"],"lon":-70.26667,"lat":18.96667,"pop":0},{"id":3510902,"name":"Cabirma Clara","lon":-70.50426,"lat":18.98016,"pop":0},{"id":3510899,"name":"Cabirma Cruzada","lon":-69.38472,"lat":18.66923,"pop":0},{"id":3510898,"name":"Cabirmal","lon":-71.13228,"lat":19.29144,"pop":0},{"id":3510897,"name":"Cabirmar","lon":-71.3288,"lat":18.51032,"pop":0},{"id":3510895,"name":"Cabo Caina","lon":-69.57741,"lat":18.44324,"pop":0},{"id":3510894,"name":"Cabo Duarte","alt":["Bais D'harme","Bais D'horme","Bais D’harme","Bais D’horme"],"lon":-71.77031,"lat":18.1721,"pop":0},{"id":3510893,"name":"Cabo Engaño","lon":-68.33994,"lat":18.60932,"pop":0},{"id":3497316,"name":"Cabo Macorís","alt":["Cabo Macoris","Punta Macoris"],"lon":-70.44599,"lat":19.77572,"pop":0},{"id":3510888,"name":"Cabo Rojo","alt":["CBJ"],"lon":-71.6324,"lat":17.90124,"pop":0},{"id":3510885,"name":"Cabral","alt":["Rincon","Rincon Nuevo"],"lon":-71.21667,"lat":18.25,"pop":12303},{"id":3510880,"name":"Cabreja","lon":-71.10847,"lat":19.33848,"pop":0},{"id":3510874,"name":"Cabrera","alt":["Cabrar"],"lon":-69.90489,"lat":19.6426,"pop":4947},{"id":3510871,"name":"Cabreto","alt":["Cabresto"],"lon":-69.76394,"lat":18.56487,"pop":0},{"id":3510867,"name":"Cabuya","lon":-70.11465,"lat":18.48475,"pop":0},{"id":3510855,"name":"Cacao","lon":-71.3998,"lat":19.86323,"pop":0},{"id":3510848,"name":"Cacata","alt":["Batey Cacata"],"lon":-68.92695,"lat":18.47999,"pop":0},{"id":3510845,"name":"Cachena","alt":["Batey Cachena","Cochena"],"lon":-69.26934,"lat":18.60033,"pop":0},{"id":3510832,"name":"Cachimba","alt":["Chachimba"],"lon":-71.20112,"lat":18.42182,"pop":0},{"id":3510830,"name":"Cachimbo","lon":-69.78333,"lat":19.16667,"pop":0},{"id":3510822,"name":"Cachón","alt":["Cachon","El Cachon","El Cachón"],"lon":-71.18912,"lat":18.24833,"pop":1903},{"id":3510816,"name":"Cachón Claro","alt":["Cachon Claro","Cachon Viejo"],"lon":-71.41112,"lat":18.38035,"pop":0},{"id":3510815,"name":"Cachón Flaco","lon":-71.40761,"lat":18.38938,"pop":0},{"id":3510812,"name":"Cachón Seco","lon":-71.43333,"lat":18.46667,"pop":0},{"id":3510809,"name":"Cacique","lon":-70.48172,"lat":19.40777,"pop":0},{"id":3510810,"name":"Cacique","lon":-69.85679,"lat":18.81596,"pop":0},{"id":3510804,"name":"Cacique Enriquillo","lon":-71.81667,"lat":19.63333,"pop":0},{"id":3510803,"name":"Cacique Soledad","lon":-70.49047,"lat":19.38546,"pop":0},{"id":3510801,"name":"Caciquillo","lon":-69.05157,"lat":18.83772,"pop":0},{"id":3510802,"name":"Caciquillo","lon":-68.91251,"lat":18.77804,"pop":0},{"id":3510782,"name":"Cafemba","lon":-70.71892,"lat":19.80876,"pop":0},{"id":3510778,"name":"Caganche","lon":-69.48579,"lat":18.67962,"pop":0},{"id":3510779,"name":"Caganche","lon":-69.38353,"lat":18.58109,"pop":0},{"id":3510771,"name":"Cagüey","lon":-70.55142,"lat":19.32755,"pop":0},{"id":3510769,"name":"Cagüeyes","alt":["Caguelles","Cagueyes","Cagüelles","Los Caguelles","Los Cagueyes","Los Cagüelles","Los Cagüeyes"],"lon":-70.83446,"lat":19.28596,"pop":0},{"id":3510754,"name":"Caimito","lon":-71.28259,"lat":19.53211,"pop":0},{"id":3510755,"name":"Caimito","lon":-70.51553,"lat":19.38371,"pop":0},{"id":3510751,"name":"Caimito Mocho","lon":-70.19047,"lat":18.58006,"pop":0},{"id":3510746,"name":"Caimoníes","alt":["Caimonies","Los Caimonies"],"lon":-71.2067,"lat":19.47837,"pop":0},{"id":3510742,"name":"Cajero","lon":-68.75793,"lat":18.65688,"pop":0},{"id":3510737,"name":"Cajuil","alt":["El Cajuil"],"lon":-71.54138,"lat":18.88117,"pop":0},{"id":3510727,"name":"Cajuil Negro","alt":["Cajuil Prieto"],"lon":-71.53333,"lat":18.86667,"pop":0},{"id":3510731,"name":"Cajuiles","alt":["Batey Cajuiles"],"lon":-68.91667,"lat":18.41667,"pop":0},{"id":3510728,"name":"Cajuilito","lon":-71.60162,"lat":19.08538,"pop":0},{"id":3510729,"name":"Cajuilito","lon":-70.05899,"lat":18.43678,"pop":0},{"id":3510724,"name":"Calabacito","lon":-70.69414,"lat":19.73405,"pop":0},{"id":3510722,"name":"Calabaza","alt":["Calabazas","La Calabazas"],"lon":-70.39404,"lat":18.31738,"pop":0},{"id":3510714,"name":"Calampín","alt":["Calampin","Catampin"],"lon":-70.75,"lat":19.81667,"pop":0},{"id":3510707,"name":"Calderón","alt":["Calderon","Paraje Calderon","Paraje Calderón"],"lon":-70.53628,"lat":18.76667,"pop":0},{"id":3510708,"name":"Calderón","lon":-70.31667,"lat":18.58333,"pop":0},{"id":3510709,"name":"Calderón","alt":["Calderon","El Calderon","El Calderón"],"lon":-70.3434,"lat":18.4772,"pop":0},{"id":3510695,"name":"Calero","lon":-69.88333,"lat":18.48333,"pop":0},{"id":3510690,"name":"Caletón","lon":-71.20585,"lat":17.92473,"pop":0},{"id":3510676,"name":"Calimetal","alt":["El Calimete"],"lon":-70.94185,"lat":19.17909,"pop":0},{"id":3510673,"name":"Calimete","lon":-71.72294,"lat":18.75939,"pop":0},{"id":3510665,"name":"Calle Ancha","lon":-70.21667,"lat":19.58333,"pop":0},{"id":3510664,"name":"Calle Bonita","alt":["Calle Bonito"],"lon":-70.10016,"lat":18.44674,"pop":0},{"id":3510663,"name":"Callejón Javier","alt":["Callejon Javier","Callejon de Los Javier","Callejón de Los Javier","Javieles"],"lon":-69.36667,"lat":19.21667,"pop":0},{"id":3510655,"name":"Camarón","lon":-69.66293,"lat":18.86318,"pop":0},{"id":3510656,"name":"Camarón","lon":-70.01673,"lat":18.72321,"pop":0},{"id":3510650,"name":"Camarones","lon":-70.41667,"lat":19.45,"pop":0},{"id":3510645,"name":"Cambelén","lon":-68.73328,"lat":18.72512,"pop":0},{"id":3510646,"name":"Cambelén","lon":-70.06262,"lat":18.39893,"pop":0},{"id":3510641,"name":"Cambiaso","alt":["Soufflet"],"lon":-70.88091,"lat":19.89461,"pop":0},{"id":3510637,"name":"Cambita Garabitos","alt":["Cambita","Cambita Garabitas","Cambita Garabito"],"lon":-70.19907,"lat":18.45458,"pop":13382},{"id":3510636,"name":"Cambita Sterling","alt":["Cambita Esterlina","Cambita Esterling"],"lon":-70.14958,"lat":18.42232,"pop":0},{"id":3510635,"name":"Cambita Uribe","lon":-70.15256,"lat":18.40595,"pop":0},{"id":3510632,"name":"Cambronal","lon":-71.06837,"lat":19.90029,"pop":0},{"id":3510633,"name":"Cambronal","lon":-71.35,"lat":18.45,"pop":0},{"id":3510631,"name":"Cambutera","alt":["Cambutero"],"lon":-70.19774,"lat":18.60339,"pop":0},{"id":3510627,"name":"Caminero","lon":-70.28684,"lat":18.43708,"pop":0},{"id":3510622,"name":"Campeche","lon":-71.59378,"lat":19.51317,"pop":0},{"id":3510619,"name":"Campeche Abajo","lon":-70.07655,"lat":19.18734,"pop":0},{"id":3510618,"name":"Campeche Arriba","lon":-70.06667,"lat":19.21667,"pop":0},{"id":3510616,"name":"Campiña","lon":-69.69019,"lat":18.89753,"pop":0},{"id":3510610,"name":"Campo Alegre","lon":-69.18324,"lat":18.67471,"pop":0},{"id":3510611,"name":"Campo Alegre","lon":-69.49117,"lat":18.62799,"pop":0},{"id":3510612,"name":"Campo Alegre","alt":["Pampa Alegre"],"lon":-68.99838,"lat":18.46375,"pop":0},{"id":3510607,"name":"Campo Nuevo","alt":["Batey Campo Nuevo"],"lon":-68.62332,"lat":18.59287,"pop":0},{"id":3510605,"name":"Camú","lon":-70.71882,"lat":19.71198,"pop":0},{"id":3510606,"name":"Camú","lon":-70.62503,"lat":19.69311,"pop":0},{"id":3510602,"name":"Camunguí","lon":-70.06107,"lat":18.39119,"pop":0},{"id":3510598,"name":"Cana","lon":-71.25,"lat":19.63333,"pop":0},{"id":3510599,"name":"Caña","lon":-71.0832,"lat":19.44466,"pop":0},{"id":3510568,"name":"Caña Andrés","alt":["Cana Andres","Canada Andres","Cañada Andrés"],"lon":-70.11667,"lat":18.33333,"pop":0},{"id":3510560,"name":"Cana Bonita","alt":["Canada Bonita","Cañada Bonita"],"lon":-71.15841,"lat":19.34172,"pop":0},{"id":3510559,"name":"Caña Brava","lon":-68.54297,"lat":18.53873,"pop":0},{"id":3510555,"name":"Cana Caimito","alt":["Cana"],"lon":-71.2834,"lat":19.4971,"pop":0},{"id":3510553,"name":"Cana Chapetón","alt":["Cana Chapeton"],"lon":-71.25734,"lat":19.60703,"pop":1758},{"id":3510467,"name":"Cana de los Uveros","alt":["Cano de los Uveros","La Cana","Las Canas"],"lon":-71.41155,"lat":19.83499,"pop":0},{"id":3510464,"name":"Caña Félix","alt":["Cana Felez","Cana Felix","Caña Felez","Las Canas"],"lon":-69.4024,"lat":19.28581,"pop":0},{"id":3510451,"name":"Caña Mala","lon":-69.98247,"lat":19.60356,"pop":0},{"id":3510438,"name":"Caña Segura","lon":-71.52111,"lat":18.93056,"pop":0},{"id":3510566,"name":"Canabacoa","lon":-70.65105,"lat":19.41583,"pop":0},{"id":3510562,"name":"Cañabón","lon":-70.41628,"lat":19.05715,"pop":0},{"id":3510552,"name":"Cañada Amarga","lon":-70.75,"lat":19.08333,"pop":0},{"id":3510550,"name":"Cañada Arriba","lon":-69.65937,"lat":18.91159,"pop":0},{"id":3510549,"name":"Cañada Barrosa","alt":["Cana Barrosa","Canada Barrosa","Caña Barrosa"],"lon":-68.94743,"lat":18.67979,"pop":0},{"id":3510548,"name":"Cañada Blanca","lon":-70.18311,"lat":18.7334,"pop":0},{"id":3510547,"name":"Cañada Bonita","alt":["Canabonita","Canada Bonita","Cañabonita"],"lon":-70.84392,"lat":19.61947,"pop":0},{"id":3510545,"name":"Cañada Cadena","lon":-71.5,"lat":18.88333,"pop":0},{"id":3510544,"name":"Cañada Cimarrona","lon":-70.56667,"lat":18.46667,"pop":0},{"id":3510542,"name":"Cañada Clara","lon":-70.39528,"lat":19.48845,"pop":0},{"id":3510543,"name":"Cañada Clara","lon":-69.48885,"lat":19.2935,"pop":0},{"id":3510538,"name":"Cañada de Agua","alt":["Canada de Agua","Canada del Agua","Cañada del Agua"],"lon":-70.34988,"lat":18.58571,"pop":0},{"id":3505599,"name":"Cañada de Gabina","lon":-70.74005,"lat":18.6969,"pop":0},{"id":3510532,"name":"Cañada de la Jina","alt":["Canada","Canada de la Jina","Canada la Jina","Cañada","Cañada la Jina","La Gina"],"lon":-68.83982,"lat":18.46037,"pop":0},{"id":3510531,"name":"Cañada de la Palma","lon":-71.32289,"lat":19.40052,"pop":0},{"id":3510529,"name":"Cañada de La Vaca","alt":["Canada de La Vaca","Canada de Vaca","Cañada de Vaca"],"lon":-68.95139,"lat":18.7408,"pop":0},{"id":3510518,"name":"Cañada de Manacla","alt":["Cana Manacla","Canada de Manacla","Caña Manacla"],"lon":-70.40059,"lat":18.63524,"pop":0},{"id":3510516,"name":"Cañada de Palma","lon":-71.24727,"lat":18.69485,"pop":0},{"id":3510533,"name":"Cañada del Agua","lon":-71.09828,"lat":18.16344,"pop":0},{"id":3510527,"name":"Cañada del Cacao Abajo","alt":["Canada del Cacao","Canada del Cacao Abajo","Cañada del Cacao"],"lon":-68.96667,"lat":18.81667,"pop":0},{"id":3510526,"name":"Cañada del Cacao Arriba","alt":["Canada del Cacao","Canada del Cacao Arriba","Cañada del Cacao"],"lon":-69.01667,"lat":18.81667,"pop":0},{"id":3510525,"name":"Cañada del Caimito","lon":-70.96667,"lat":19.36667,"pop":0},{"id":3510511,"name":"Cañada Difunta","alt":["Canada Difunta","Canada Difunto","Canada de Difuntos","Cañada Difunto","Cañada de Difuntos"],"lon":-70.88333,"lat":18.73333,"pop":0},{"id":3510510,"name":"Cañada El Café","alt":["Canada El Cafe","Canada del Cafe","Canada del Café"],"lon":-71.44755,"lat":18.71046,"pop":0},{"id":3510505,"name":"Cañada Grande","lon":-71.04435,"lat":19.76678,"pop":0},{"id":3510506,"name":"Cañada Grande","lon":-71.16909,"lat":19.4376,"pop":0},{"id":3510507,"name":"Cañada Grande","lon":-71.04071,"lat":19.42166,"pop":0},{"id":3510508,"name":"Cañada Grande","lon":-70.38702,"lat":18.51506,"pop":0},{"id":3510493,"name":"Cañada Honda","alt":["Cana Honda","Canada Honda","Caña Honda"],"lon":-71.43333,"lat":18.95,"pop":0},{"id":3510494,"name":"Cañada Honda","lon":-71.51667,"lat":18.93333,"pop":0},{"id":3510495,"name":"Cañada Honda","lon":-68.69506,"lat":18.87475,"pop":0},{"id":3510496,"name":"Cañada Honda","lon":-70.19833,"lat":18.75119,"pop":0},{"id":3510497,"name":"Cañada Honda","lon":-68.93333,"lat":18.75,"pop":0},{"id":3510498,"name":"Cañada Honda","lon":-68.61124,"lat":18.71895,"pop":0},{"id":3510499,"name":"Cañada Honda","lon":-70.33333,"lat":18.38333,"pop":0},{"id":3510487,"name":"Cañada Jengibre","alt":["Canada Gengibre","Canada Jengibre","Canada de Jengibre","Cañada Gengibre","Cañada de Jengibre"],"lon":-69.10374,"lat":18.78836,"pop":0},{"id":3510480,"name":"Cañada Mala","lon":-69.19449,"lat":18.81819,"pop":0},{"id":3510481,"name":"Cañada Mala","lon":-70.39524,"lat":18.53042,"pop":0},{"id":3510476,"name":"Cañada Nueva","lon":-70.38333,"lat":18.46667,"pop":0},{"id":3510475,"name":"Cañada Prieta","alt":["Canada Prieta","Canada Prieto","Cañada Prieto","El Prieto"],"lon":-68.95,"lat":18.81667,"pop":0},{"id":3510474,"name":"Cañada Rincón","alt":["Canada Rincon","Canada del Rincon","Cañada del Rincón"],"lon":-70.26667,"lat":18.36667,"pop":0},{"id":3510473,"name":"Cañada Seca","alt":["Canada Seca","Canada Seco","Cañada Seco"],"lon":-70.7115,"lat":18.91245,"pop":0},{"id":3510471,"name":"Cañada Te Hundes","alt":["Canada Te Hunde","Canada Te Hundes","Cañada Té Hunde"],"lon":-68.98787,"lat":18.8532,"pop":0},{"id":3510470,"name":"Cañada Verde","lon":-71.23226,"lat":19.43574,"pop":0},{"id":3510462,"name":"Cañafistol","alt":["Canafistol","Canafistola","Cañafistola"],"lon":-71.0706,"lat":19.41786,"pop":0},{"id":3510463,"name":"Cañafistol","alt":["Canafistal","Canafisto","Canafistol","Cañafistal","Cañafisto","El Canafistol","El Cañafistol"],"lon":-70.3672,"lat":18.27905,"pop":0},{"id":3510458,"name":"Cañafístola","alt":["Canafistol","Canafistola","Canafistolo","Canafistula","Cañafistol","Cañafístolo","Cañafístula"],"lon":-71.25,"lat":18.9,"pop":0},{"id":3510459,"name":"Cañafístola","alt":["Canafistol","Canafistola","Canafistolo","Canafistula","Cañafistol","Cañafistula","Cañafístolo","La Canafistola"],"lon":-71.27336,"lat":18.63129,"pop":0},{"id":3510450,"name":"Canario","alt":["Canarios"],"lon":-69.50712,"lat":18.55436,"pop":0},{"id":3510436,"name":"Canasta","lon":-70.14697,"lat":18.40256,"pop":0},{"id":3510434,"name":"Canastica","lon":-70.12714,"lat":18.40666,"pop":0},{"id":3510431,"name":"Cañaveral","lon":-70.71514,"lat":19.30827,"pop":0},{"id":3510427,"name":"Canca Abajo","lon":-70.58838,"lat":19.4602,"pop":0},{"id":3510426,"name":"Canca Arriba","lon":-70.58132,"lat":19.49414,"pop":0},{"id":3510425,"name":"Canca La Piedra","alt":["Canca las Piedras"],"lon":-70.58427,"lat":19.4773,"pop":0},{"id":3510424,"name":"Canca Reina","alt":["Canca la Reina"],"lon":-70.58578,"lat":19.43727,"pop":0},{"id":3510423,"name":"Cancino","lon":-69.85,"lat":18.51667,"pop":0},{"id":3510422,"name":"Cancino Adentro","lon":-69.84636,"lat":18.53273,"pop":0},{"id":3510420,"name":"Candela","alt":["La Candela"],"lon":-69.86549,"lat":19.23992,"pop":0},{"id":3510419,"name":"Candelaria","lon":-69.08333,"lat":18.78333,"pop":0},{"id":3510416,"name":"Candelón","lon":-71.02828,"lat":19.90156,"pop":0},{"id":3510401,"name":"Cañeo","alt":["Caneo","Canero","Cañero"],"lon":-70.98041,"lat":19.56548,"pop":0},{"id":3510398,"name":"Canepa Verde","alt":["Canepa","Canepa Norte"],"lon":-69.52411,"lat":18.58247,"pop":0},{"id":3510395,"name":"Canete Arriba","alt":["Canete","Cañete"],"lon":-70.31684,"lat":19.4303,"pop":0},{"id":3510388,"name":"Cangagual","alt":["Cacagual","Carguagual"],"lon":-71.35,"lat":18.93333,"pop":0},{"id":3510354,"name":"Caño Abajo","alt":["Cano Abaja","Cano Abajo","Caño Abaja"],"lon":-69.77988,"lat":19.25016,"pop":0},{"id":3510350,"name":"Caño Azul","alt":["Cano Azul","Cano Azul Colorado","Caño Azul Colorado"],"lon":-69.9283,"lat":19.54096,"pop":0},{"id":3510347,"name":"Caño Azul de los Cacaos","alt":["Cano Azul","Cano Azul de los Cacaos","Caño Azul"],"lon":-70.03333,"lat":19.58333,"pop":0},{"id":3510343,"name":"Caño Claro","lon":-69.95,"lat":19.51667,"pop":0},{"id":3510344,"name":"Caño Claro","lon":-70.21292,"lat":19.46495,"pop":0},{"id":3510335,"name":"Caño de los Naranjos","alt":["Cano Naranjo","Cano de los Naranjos","Caño Naranjo","El Cano de Los Naranjos","El Caño de Los Naranjos"],"lon":-69.95,"lat":19.45,"pop":0},{"id":3510334,"name":"Caño de Miguel","lon":-71.10102,"lat":19.85086,"pop":0},{"id":3510332,"name":"Caño Dulce","lon":-70.3,"lat":19.63333,"pop":0},{"id":3510327,"name":"Caño Grande","lon":-70.38662,"lat":18.93282,"pop":0},{"id":3510322,"name":"Caño Hondo","lon":-71.53303,"lat":19.7609,"pop":0},{"id":3510323,"name":"Caño Hondo","lon":-69.4543,"lat":19.05693,"pop":0},{"id":3510317,"name":"Caño Mai Tomasina","alt":["Cano Mai Tomasina","Mai Tomasina","Mal Tomasina"],"lon":-69.7802,"lat":19.24459,"pop":0},{"id":3510313,"name":"Caño Piedra","lon":-70.45432,"lat":19.00031,"pop":0},{"id":3510310,"name":"Caño Prieto","lon":-68.67381,"lat":18.45462,"pop":0},{"id":3510303,"name":"Caño Seco","lon":-69.9242,"lat":19.64391,"pop":0},{"id":3510300,"name":"Caño Teloso","lon":-69.96333,"lat":19.37352,"pop":0},{"id":3510362,"name":"Canoa","lon":-70.16952,"lat":18.42393,"pop":0},{"id":3510363,"name":"Canoa","alt":["La Canoa"],"lon":-71.15851,"lat":18.35499,"pop":2371},{"id":3510314,"name":"Cañongo","lon":-71.69494,"lat":19.61649,"pop":0},{"id":3510294,"name":"Canta Maco","lon":-69.07256,"lat":18.96364,"pop":0},{"id":3510288,"name":"Canta Rana","lon":-70.32052,"lat":19.47153,"pop":0},{"id":3510298,"name":"Cantabria","alt":["Sampino","Sampiño"],"lon":-70.65,"lat":19.76667,"pop":0},{"id":3510297,"name":"Cantabria Abajo","alt":["Cantabria"],"lon":-70.67537,"lat":19.75204,"pop":0},{"id":3510296,"name":"Cantabria Arriba","lon":-70.69048,"lat":19.73721,"pop":0},{"id":3510280,"name":"Cañuelo","alt":["Canuela","Canuelo","Cañuela"],"lon":-69.69207,"lat":18.78656,"pop":0},{"id":3510278,"name":"Canutillo","alt":["Batey Canutillo"],"lon":-69.41286,"lat":18.58774,"pop":0},{"id":3510275,"name":"Caoba Adentro","lon":-71.24761,"lat":19.49128,"pop":0},{"id":3510274,"name":"Caobal","lon":-71.68919,"lat":18.96645,"pop":0},{"id":3510272,"name":"Caobanico","lon":-71.01222,"lat":19.36239,"pop":0},{"id":3510271,"name":"Caobanita","lon":-71.22928,"lat":19.44805,"pop":0},{"id":3510268,"name":"Caobete","alt":["Sabana Caobete"],"lon":-70.15098,"lat":19.18327,"pop":0},{"id":3510264,"name":"Caobita","lon":-71.21109,"lat":18.74105,"pop":0},{"id":3510265,"name":"Caobita","lon":-71.21555,"lat":18.64133,"pop":0},{"id":3510262,"name":"Caodal","lon":-71.22316,"lat":18.74513,"pop":0},{"id":3510261,"name":"Caonabo","lon":-69.46667,"lat":18.51667,"pop":0},{"id":3510260,"name":"Caonao","lon":-70.92709,"lat":19.75056,"pop":0},{"id":3510252,"name":"Capacito","alt":["Los Capacitos"],"lon":-70.59615,"lat":19.14601,"pop":0},{"id":3510244,"name":"Capitán","lon":-69.28405,"lat":19.0316,"pop":0},{"id":3510245,"name":"Capitán","lon":-69.00813,"lat":18.81638,"pop":0},{"id":3510238,"name":"Capote","lon":-69.41171,"lat":18.77505,"pop":0},{"id":3510236,"name":"Capote Adentro","lon":-69.41207,"lat":18.7872,"pop":0},{"id":3510235,"name":"Capote Arriba","lon":-69.40638,"lat":18.78822,"pop":0},{"id":3510233,"name":"Capotillo","lon":-69.9,"lat":18.5,"pop":0},{"id":3510234,"name":"Capotillo","lon":-71.66649,"lat":19.40864,"pop":0},{"id":3510231,"name":"Capotín","alt":["Capolin","Capolín","Capotin"],"lon":-71.28333,"lat":18.63333,"pop":0},{"id":3510230,"name":"Capuá","lon":-68.99822,"lat":18.9362,"pop":0},{"id":3510229,"name":"Capulín","alt":["Capulin","Capulina","Capullin","Capullín"],"lon":-71.30095,"lat":18.6439,"pop":0},{"id":3510196,"name":"Cara Linda","lon":-71.61241,"lat":18.91255,"pop":0},{"id":3510220,"name":"Carabela","lon":-71.82288,"lat":18.96954,"pop":0},{"id":3510221,"name":"Carabela","alt":["Carabelas"],"lon":-69.66604,"lat":18.67471,"pop":0},{"id":3510216,"name":"Carabela Abajo","lon":-69.68333,"lat":18.67862,"pop":0},{"id":3510217,"name":"Carabela Abajo","alt":["Carabela","La Carabela"],"lon":-69.70409,"lat":18.65,"pop":0},{"id":3510214,"name":"Caracol","lon":-70.40287,"lat":18.92016,"pop":0},{"id":3510202,"name":"Caracoles","alt":["Canal Caracoles","Las Charcas"],"lon":-70.63333,"lat":18.41667,"pop":0},{"id":3510197,"name":"Caralinda","lon":-69.81103,"lat":18.78207,"pop":0},{"id":3510194,"name":"Caraqueño","alt":["Caraqueno","Los Caraquenos","Los Caraqueños"],"lon":-70.08333,"lat":19.55,"pop":0},{"id":3510187,"name":"Carbonera","alt":["Colonia Carbonera"],"lon":-71.68811,"lat":19.64751,"pop":0},{"id":3510184,"name":"Carderón","lon":-69.33663,"lat":18.86274,"pop":0},{"id":3510181,"name":"Cardón","lon":-71.18628,"lat":18.70827,"pop":0},{"id":3510180,"name":"Carenero","lon":-69.29251,"lat":19.19857,"pop":0},{"id":3510174,"name":"Caribe","lon":-70.3831,"lat":18.96767,"pop":0},{"id":3510164,"name":"Carlos Díaz","lon":-70.57491,"lat":19.52421,"pop":0},{"id":3510161,"name":"Carlos Guerra","alt":["Carlos Guerro"],"lon":-69.93333,"lat":18.48333,"pop":0},{"id":3510157,"name":"Carmona","alt":["Batey Carmona"],"lon":-69.74616,"lat":18.94329,"pop":0},