[{"id":2508279,"name":"‘Aïn Ben Aïed","lon":5.07597,"lat":35.87076,"pop":0},{"id":2508157,"name":"‘Aïn el Hadjel","alt":["Ain el Hadjel","Aine el Hadjel","Aïne el Hadjel","Selamate","`Ain el Hadjel"],"lon":3.88153,"lat":35.67003,"pop":42527},{"id":2593169,"name":"‘Aïn el Turc","lon":-0.70139,"lat":35.73611,"pop":0},{"id":2508311,"name":"’Aïn Abessa","alt":["'Ain Abessa","Aine Abessa","Aïne Abessa"],"lon":5.29452,"lat":36.29837,"pop":0},{"id":2508309,"name":"’Aïn Abid","alt":["'Ain Abid","Aine Abid","Aïne Abid"],"lon":6.94333,"lat":36.23194,"pop":29486},{"id":2508299,"name":"’Aïn Amara","alt":["'Ain Amara","Aine Amara","Aïne Amara"],"lon":7.26943,"lat":36.4053,"pop":0},{"id":2508298,"name":"’Aïn Arko","alt":["'Ain Arko","Ain Arkou","Aine Arko","Aïn Arkou","Aïne Arko"],"lon":7.11444,"lat":36.09111,"pop":0},{"id":2508295,"name":"’Aïn Azel","alt":["'Ain Azel","Ajn-Azel'","Ampere","Ampère","Айн-Азель"],"lon":5.51115,"lat":35.81846,"pop":0},{"id":2508293,"name":"’Aïn Babouche","alt":["'Ain Babouche","Ain Babouch","Aine Babouche","Aïn Babouch","Aïne Babouche"],"lon":7.1875,"lat":35.94194,"pop":0},{"id":2508289,"name":"’Aïn Barbâr","alt":["'Ain Barba","'Ain Barbar","ʿyn brbr","عين بربر","’Aïn Barba"],"lon":7.55645,"lat":36.99134,"pop":0},{"id":2508286,"name":"’Aïn Beïda","alt":["'Ain Beida","Suffren"],"lon":3.28163,"lat":36.79889,"pop":0},{"id":2508277,"name":"’Aïn Ben Beïda","alt":["'Ain Ben Beida","Mechtet Ain Ben Beida","Mechtet Aïn Ben Beïda"],"lon":7.7,"lat":36.61667,"pop":0},{"id":2508272,"name":"’Aïn Ben Khelil","alt":["'Ain Ben Khelil","Ain Ben Kbellil","Ain Ben Khelhil","Ain Ben Krellil","Aïn Ben Kbellil","Aïn Ben Khelhil","Aïn Ben Krellil"],"lon":-0.76384,"lat":33.28789,"pop":0},{"id":2508275,"name":"’Aïn Benian","alt":["'Ain Benian","Ain Berrian","Bou Ismail","Castiglione","Cuyotville","Guyotville","Guyoville"],"lon":2.92185,"lat":36.80277,"pop":31102},{"id":2508271,"name":"’Aïn Berda","alt":["'Ain Berda","El Oued Berda","Penthievre","Penthièvre"],"lon":7.59104,"lat":36.6476,"pop":0},{"id":2508256,"name":"’Aïn Bou Ziane","lon":1.91667,"lat":36.51667,"pop":0},{"id":2508262,"name":"’Aïn Boucif","alt":["'Ain Boucif","Aine Boucif","Aïne Boucif","Bordj Ain Boucif","Bordj Aïn Boucif","ʿyn bwsyf","عين بوسيف"],"lon":3.1585,"lat":35.89123,"pop":11989},{"id":2508258,"name":"’Aïn Bourdeche","lon":5.08495,"lat":35.86263,"pop":0},{"id":2508255,"name":"’Aïn Bouziane","alt":["'Ain Bouziane","Col-des-Oliviers"],"lon":6.7508,"lat":36.59838,"pop":0},{"id":2508249,"name":"’Aïn Charchar","alt":["'Ain Charchar","Aine Cherchar","Auribeau","Aïne Cherchar"],"lon":7.2175,"lat":36.73139,"pop":0},{"id":2508246,"name":"’Aïn Chenia","lon":8,"lat":35.85,"pop":0},{"id":2508241,"name":"’Aïn Cheurfa","alt":["'Ain Cheurfa","Aine Cheurfa","Aïne Cheurfa"],"lon":-0.24534,"lat":35.42967,"pop":0},{"id":2508240,"name":"’Aïn Chouarh","lon":5.11667,"lat":35.86667,"pop":0},{"id":2508236,"name":"’Aïn Dalia","lon":2.60231,"lat":35.94725,"pop":0},{"id":2508229,"name":"’Aïn Defla","alt":["'Ain Defla","Aine Defla","Aïne Defla"],"lon":4.54932,"lat":36.06966,"pop":0},{"id":2508225,"name":"’Aïn Deheb","alt":["'Ain Deheb","El Ousseukh","El Ousseukhr","El Ousseukr","La Fontaine"],"lon":1.54697,"lat":34.84218,"pop":36146},{"id":2570511,"name":"’Aïn Djehifa","lon":7.97306,"lat":36.19194,"pop":0},{"id":2508213,"name":"’Aïn Dzarit","alt":["'Ain Dzarit","Ain Djarit","Aine Dzarit","Aïn Djarit","Aïne Dzarit"],"lon":1.6674,"lat":35.35325,"pop":0},{"id":2508210,"name":"’Aïn ed Defla","lon":5.46071,"lat":35.21322,"pop":0},{"id":2508206,"name":"’Aïn el Ahdjar","alt":["'Ain el Ahdjar","Ain Lahdjar","Behagle"],"lon":5.53917,"lat":35.93861,"pop":0},{"id":2508203,"name":"’Aïn el Alleg","lon":4.39701,"lat":34.67036,"pop":0},{"id":2508194,"name":"’Aïn el Arbaa","alt":["'Ain el Arbaa","Ain el Arba","Aine el Arba","Aïn el Arba","Aïne el Arba"],"lon":-0.88121,"lat":35.40603,"pop":0},{"id":2508191,"name":"’Aïn el Assel","alt":["'Ain el Assel","Aine Assef","Aïne Assef","Yusuf"],"lon":8.385,"lat":36.78694,"pop":0},{"id":2508185,"name":"’Aïn el Beïda","lon":2.29591,"lat":35.3196,"pop":0},{"id":2508186,"name":"’Aïn el Beïda","lon":5.39954,"lat":31.9377,"pop":0},{"id":2508184,"name":"’Aïn el Bell","alt":["'Ain el Bell","Ain el Ibel","Ajn-ehl'-Bella","Aïn el Ibel","Fontaine des Chameaux","Айн-эль-Белла"],"lon":3.22475,"lat":34.34381,"pop":31916},{"id":2508182,"name":"’Aïn el Benian","alt":["'Ain el Benian","Vesoul Beniane","Vesoul Beniare","Vesoul-Benian"],"lon":2.38778,"lat":36.35056,"pop":0},{"id":2508180,"name":"’Aïn el Berd","alt":["'Ain el Berd","Oued Imbert"],"lon":-0.51279,"lat":35.36395,"pop":16548},{"id":2508177,"name":"’Aïn el Bey","alt":["'Ain el Bey","Aine el Bey","Aïne el Bey"],"lon":8.31921,"lat":35.48668,"pop":0},{"id":2508172,"name":"’Aïn el Bordj","alt":["'Ain el Bordj","Aine el Bordj","Aïne el Bordj"],"lon":6.94539,"lat":36.11016,"pop":0},{"id":2508171,"name":"’Aïn el Boualek","lon":1.38765,"lat":35.07576,"pop":0},{"id":2508170,"name":"’Aïn el Bridj","lon":-1.15338,"lat":35.18135,"pop":0},{"id":2508166,"name":"’Aïn el Gaza","lon":3.36738,"lat":35.79417,"pop":0},{"id":2508161,"name":"’Aïn el Hadjar","lon":-1.36811,"lat":34.92963,"pop":0},{"id":2508162,"name":"’Aïn el Hadjar","alt":["'Ain el Hadjar","Aine el Hadjar","Aïne el Hadjar"],"lon":0.14528,"lat":34.75846,"pop":12996},{"id":2570503,"name":"’Aïn el Hadjar","lon":7.01667,"lat":36.36639,"pop":0},{"id":2508152,"name":"’Aïn el Hammam","alt":["'Ain el Hammam","Ain El Hamman","Ain-el-Hamam","Aine el Hammam","Ajn-ehl'-Khammam","Aïn El Hamman","Aïn-el-Hamam","Aïne el Hammam","Michelet","Айн-эль-Хаммам"],"lon":4.30619,"lat":36.56471,"pop":28029},{"id":2508153,"name":"’Aïn el Hammam","alt":["'Ain el Hammam","Guillaumet","Oued el Guelb"],"lon":1.13072,"lat":35.78117,"pop":0},{"id":2508149,"name":"’Aïn el Hanech","lon":4.15415,"lat":35.42148,"pop":0},{"id":2508146,"name":"’Aïn el Hoût","alt":["'Ain el Hout","Ain el Houtz","Aine el Hout","Aïn el Houtz","Aïne el Hout"],"lon":-1.32517,"lat":34.93208,"pop":0},{"id":2508145,"name":"’Aïn el Kebch","lon":6.10008,"lat":36.01704,"pop":0},{"id":2508144,"name":"’Aïn el Kebira","alt":["'Ain el Kebira","Ain el Khebira","Aine Kebira","Aïn el Khébira","Aïne Kebira","Perigotville"],"lon":5.50462,"lat":36.36779,"pop":0},{"id":2508138,"name":"’Aïn el Kerma","alt":["'Ain el Kerma","Ain Kerma"],"lon":3.18333,"lat":35.73333,"pop":0},{"id":2508136,"name":"’Aïn el Khachba","lon":4.5643,"lat":35.09018,"pop":0},{"id":2508133,"name":"’Aïn el Ksar","lon":5.19221,"lat":35.92179,"pop":0},{"id":2592677,"name":"’Ain el Mebnia","lon":2.38861,"lat":36.02639,"pop":0},{"id":2508130,"name":"’Aïn el Melh","alt":["'Ain el Melh","Ain Melah","Ain Melh","Ain Mellah","Aine Melah","Ajn-ehl'-Mel'kh","Aïn Melah","Aïn Melh","Aïne Melah","Айн-эль-Мельх"],"lon":4.16383,"lat":34.84146,"pop":39798},{"id":2508126,"name":"’Aïn el Orak","alt":["'Ain el Orak"],"lon":0.73854,"lat":33.41015,"pop":0},{"id":2508122,"name":"’Aïn el Rharbia","alt":["'Ain el Gharbia","'Ain el Rharbia","Aine el Rharbia","Aïne el Rharbia","’Aïn el Gharbia"],"lon":3.16408,"lat":35.79868,"pop":0},{"id":2508119,"name":"’Aïn el Turk","alt":["'Ain el Turk","Ain-et-Turk","Aine et Turk","Ajn-ehl'-Terk","Aïn-et-Turk","Aïne et Turk","ʿyn altrk","Айн-эль-Терк","عين الترك"],"lon":-0.7693,"lat":35.74381,"pop":45323},{"id":2508118,"name":"’Aïn en Nef","lon":1.58875,"lat":34.95836,"pop":0},{"id":2508116,"name":"’Aïn er Rouina","lon":1.48281,"lat":35.08042,"pop":0},{"id":2508109,"name":"’Aïn es Smara","alt":["'Ain es Smara","Aine es Smara","Aïne es Smara"],"lon":4.12166,"lat":34.96979,"pop":0},{"id":2508106,"name":"’Aïn et Teboucha","lon":4.22172,"lat":35.53513,"pop":0},{"id":2508104,"name":"’Aïn ez Zeïate","lon":1.38333,"lat":34.48333,"pop":0},{"id":2508095,"name":"’Aïn Fekan","alt":["'Ain Fekan","Ain Fekana","Ain Fekane","Aine Fekane","Aïn Fekana","Aïn Fekane","Aïne Fekane"],"lon":-0.00513,"lat":35.22382,"pop":0},{"id":2508092,"name":"’Aïn Fekirine","lon":3.35049,"lat":35.81475,"pop":0},{"id":2508091,"name":"’Aïn Fezza","alt":["'Ain Fezza","Aine Fezza","Aïne Fezza"],"lon":-1.23364,"lat":34.87775,"pop":0},{"id":2508088,"name":"’Aïn Franine","lon":-0.51667,"lat":35.78333,"pop":0},{"id":2508083,"name":"’Aïn Guelieb et Tsour","lon":3.21727,"lat":35.77802,"pop":0},{"id":2508074,"name":"’Aïn Hassainia","alt":["'Ain Hassainia","Ain-Hessainia","Aine Enchir Rayan","Aïn-Hessaïnia","Aïne Enchir Rayan","Clauzel"],"lon":7.28862,"lat":36.41536,"pop":0},{"id":2508071,"name":"’Aïn Houinia","alt":["'Ain Houinia","Aine Houinia","Aïne Houinia"],"lon":3.25,"lat":35.78333,"pop":0},{"id":2508070,"name":"’Aïn Ihanou","lon":2.21698,"lat":35.89287,"pop":0},{"id":2508060,"name":"’Aïn Kelba","lon":4.93996,"lat":35.4908,"pop":0},{"id":2508055,"name":"’Aïn Kerma","alt":["'Ain Kerma","Aine Kerma","Aïne Kerma","Munier"],"lon":8.2,"lat":36.58333,"pop":0},{"id":2508049,"name":"’Aïn Kermes","alt":["'Ain Kermes","Ain Tahir","Aine Kermes","Aïn Tahir","Aïne Kermès"],"lon":1.10882,"lat":34.91022,"pop":0},{"id":2508046,"name":"’Aïn Khadra","alt":["'Ain Khadra","Ouled Khadra"],"lon":4.96153,"lat":35.52763,"pop":0},{"id":2508044,"name":"’Aïn Khalfoun","alt":["'Ain Khalfoun","Aine Kralfoune","Aïne Kralfoune"],"lon":5.33836,"lat":36.17609,"pop":0},{"id":2508042,"name":"’Aïn Kheneg ed Defla","lon":3.44582,"lat":34.45046,"pop":0},{"id":2508041,"name":"’Aïn Khermane","alt":["'Ain Khermane","Ain Kermane","Aine Khermane","Aïn Kermane","Aïne Khermane"],"lon":4.14315,"lat":35.45339,"pop":0},{"id":2508038,"name":"’Aïn Khoumies","alt":["'Ain Khoumies","Oukrenies"],"lon":4.24271,"lat":35.42538,"pop":0},{"id":2508037,"name":"’Aïn Kihal","alt":["'Ain Kihal","Ain Khial","Ain Kial","Aïn Khial","Aïn Kial"],"lon":-1.19857,"lat":35.20261,"pop":0},{"id":2508027,"name":"’Aïn Lellou","alt":["'Ain Lellou","Ain Lelou","Aïn Lelou"],"lon":1.56094,"lat":35.93527,"pop":0},{"id":2508023,"name":"’Aïn Mabed","alt":["'Ain Mabed","Ain Maabed","Ain Mahbel","Ain Mahbet","Aine Mabed","Aïn Maabed","Aïn Mahbel","Aïn Mahbet","Aïne Mabed"],"lon":3.13333,"lat":34.8,"pop":0},{"id":2508022,"name":"’Aïn Mahdi","alt":["'Ain Mahdi","Ain Madhi","Aine Mahdi","Aïn Madhi","Aïne Mahdi"],"lon":2.30524,"lat":33.79559,"pop":0},{"id":2508020,"name":"’Aïn Makhlouf","alt":["'Ain Makhlouf","Remer","Renier","Rénier"],"lon":7.25056,"lat":36.24472,"pop":0},{"id":2508018,"name":"’Aïn Malah","alt":["'Ain Malah","Aine Malah","Aïne Malah"],"lon":5.41003,"lat":36.12099,"pop":0},{"id":2508017,"name":"’Aïn Marmora","lon":2.78787,"lat":36.68726,"pop":0},{"id":2508015,"name":"’Aïn Mdila","lon":7.41056,"lat":34.64185,"pop":0},{"id":2508011,"name":"’Aïn Melsa","alt":["'Ain Melsa","Aine Melsa","Aïne Melsa"],"lon":5.28032,"lat":36.12481,"pop":0},{"id":2508010,"name":"’Aïn Merane","alt":["'Ain Merane","Aine Merane","Aïne Merane","Rabelais","دائرة عين مران"],"lon":0.97037,"lat":36.16277,"pop":34413},{"id":2508008,"name":"’Aïn Mergoum","alt":["'Ain Mergoum","Aine Mergoum","Airgouin","Aïne Mergoum","Aïrgouin"],"lon":5.12498,"lat":36.41533,"pop":0},{"id":2508006,"name":"’Aïn Messaoud","alt":["'Ain Messaoud","Aine Messaoud","Aïne Messaoud","Messaoud"],"lon":5.26575,"lat":36.19742,"pop":0},{"id":2507999,"name":"’Aïn Moenchem","alt":["'Ain Moenchem","Douar Aine Moenchem","Douar Aïne Moenchem"],"lon":7.24198,"lat":36.78869,"pop":0},{"id":2507996,"name":"’Aïn Mouilah","alt":["'Ain Mouilah","Ain Houila","Aine Mouilah","Aïn Houila","Aïne Mouilah","Mouilah"],"lon":3.48078,"lat":34.76021,"pop":0},{"id":2507991,"name":"’Aïn Mzira","lon":1.02128,"lat":34.86777,"pop":0},{"id":2507983,"name":"’Aïn N’Sara","lon":3.61667,"lat":36.68333,"pop":0},{"id":2507982,"name":"’Aïn N’Sour","lon":2.26667,"lat":36.35,"pop":0},{"id":2507990,"name":"’Aïn Naga","alt":["'Ain Naga","Aine Naga","Aïne Naga"],"lon":6.09419,"lat":34.68762,"pop":0},{"id":2507988,"name":"’Aïn Nakhar","lon":5.0214,"lat":35.50864,"pop":0},{"id":2507981,"name":"’Aïn Oueba","lon":1.38926,"lat":34.95299,"pop":0},{"id":2507977,"name":"’Aïn Oum Chemel","lon":4.62266,"lat":35.13076,"pop":0},{"id":2507973,"name":"’Aïn Ousrhar","lon":3.96841,"lat":34.35536,"pop":0},{"id":2507965,"name":"’Aïn Regada","alt":["'Ain Regada","Aine Regada","Aïne Regada"],"lon":7.07389,"lat":36.25944,"pop":0},{"id":2507966,"name":"’Aïn Regada","lon":6.22928,"lat":35.3152,"pop":0},{"id":2507961,"name":"’Aïn Rhezal","alt":["'Ain Rhezal","Ain Rheza","Aïn Rheza"],"lon":4.66679,"lat":35.08547,"pop":0},{"id":2507954,"name":"’Aïn Roua","alt":["'Ain Roua","Aine Roua","Aïne Roua"],"lon":5.18333,"lat":36.33333,"pop":0},{"id":2507951,"name":"’Aïn Rous el Akrat","alt":["'Ain Rous el Akrat","Ain Rouss","Aine Rouss el Akrat","Aïn Rouss","Aïne Rouss el Akrat"],"lon":3.48105,"lat":34.98013,"pop":0},{"id":2507949,"name":"’Aïn Saïd","lon":8.25089,"lat":35.57706,"pop":0},{"id":2507935,"name":"’Aïn Seynour","alt":["'Ain Seynour","Ain Sennour","Aine Seinour","Aine Seynour","Aïn Sennour","Aïne Seinour","Aïne Seynour"],"lon":7.87022,"lat":36.31977,"pop":0},{"id":2507932,"name":"’Aïn Sfia","alt":["'Ain Sfia","Aine Sfia","Aïne Sfia"],"lon":5.39017,"lat":36.16586,"pop":0},{"id":2507930,"name":"’Aïn Sidi Ali","lon":5.45441,"lat":35.27243,"pop":0},{"id":2507931,"name":"’Aïn Sidi Ali","lon":1.54179,"lat":34.15691,"pop":0},{"id":2570510,"name":"’Aïn Sidi Djemaa","lon":8.00333,"lat":36.12778,"pop":0},{"id":2507918,"name":"’Aïn Taghrout","alt":["'Ain Taghrout","Ain Tagrount","Ain Tagrout","Aine Tagrout","Aïn Tagrount","Aïn Tagrout","Aïne Tagrout"],"lon":5.07721,"lat":36.13012,"pop":0},{"id":2507909,"name":"’Aïn Tebinet","alt":["'Ain Tebinet","Aine Tebinet","Aïne Tebinet"],"lon":5.43273,"lat":36.18569,"pop":0},{"id":2507908,"name":"’Aïn Teboucha","lon":4.83544,"lat":35.58947,"pop":0},{"id":2507905,"name":"’Aïn Tekbalet","alt":["'Ain Tekbalet","Tekbalet"],"lon":-1.20267,"lat":35.1434,"pop":0},{"id":2507903,"name":"’Aïn Tellout","alt":["'Ain Tellout","Aine Tellout"],"lon":-0.9571,"lat":34.92565,"pop":0},{"id":2507898,"name":"’Aïn Temsa","lon":3.90715,"lat":35.15961,"pop":0},{"id":2507894,"name":"’Aïn Tindamine","alt":["'Ain Tindamine"],"lon":-0.71972,"lat":34.68972,"pop":0},{"id":2507893,"name":"’Aïn Tinibaouine","lon":5.7267,"lat":35.56826,"pop":0},{"id":2507887,"name":"’Aïn Tolba","alt":["'Ain Tolba","Ain Tholba","Aine Tholba","Aïn Tholba","Aïne Tholba","Guiard"],"lon":-1.25049,"lat":35.24893,"pop":0},{"id":2507885,"name":"’Aïn Torki","alt":["'Ain Torki","Margueritte","Zaccar"],"lon":2.30182,"lat":36.33511,"pop":0},{"id":2507884,"name":"’Aïn Touhala","lon":1.56439,"lat":34.95736,"pop":0},{"id":2507883,"name":"’Aïn Touhalla","lon":2.25933,"lat":35.31163,"pop":0},{"id":2507882,"name":"’Aïn Touila","alt":["'Ain Touila","Mechta 'Ain Touila","Mechta ’Aïn Touila"],"lon":7.38286,"lat":35.43726,"pop":0},{"id":2507876,"name":"’Aïn Touta","lon":3.22778,"lat":35.78748,"pop":0},{"id":2507873,"name":"’Aïn Trab","alt":["'Ain Trab","Aine Trab","Aïne Trab"],"lon":7.13773,"lat":36.22947,"pop":0},{"id":2507872,"name":"’Aïn Trick","alt":["'Ain Trick","Ain Trik","Aine Trick","Aïn Trik","Aïne Trick"],"lon":5.44306,"lat":36.14781,"pop":0},{"id":2507871,"name":"’Aïn Trîd","alt":["'Ain Trid","Aine Trid","Aïne Trid","Bonnier"],"lon":-0.67585,"lat":35.28499,"pop":0},{"id":2507865,"name":"’Aïn Zada","alt":["'Ain Zada","Aine Zada","Aïne Zada"],"lon":5.20362,"lat":36.16657,"pop":0},{"id":2507861,"name":"’Aïn Zebda","lon":4.37639,"lat":36.44722,"pop":0},{"id":2507860,"name":"’Aïn Zerga","alt":["'Ain Zerga"],"lon":8.26179,"lat":35.64849,"pop":0},{"id":2507858,"name":"’Aïn Zia","alt":["'Ain Zia","ʿyn zya","عين زيا"],"lon":4.37852,"lat":35.1205,"pop":0},{"id":2507856,"name":"’Aïn Zmila","alt":["'Ain Zmila","S'Mila","Sidi Mila","S’Mila"],"lon":3.15134,"lat":34.78035,"pop":0},{"id":2507854,"name":"’Aïn ZoûîT","alt":["'Ain ZouiT","Zouit"],"lon":6.78543,"lat":36.88799,"pop":0},{"id":7377451,"name":"’Amer Abdelkader","lon":1.15118,"lat":36.19494,"pop":0},{"id":2485728,"name":"’Ouchba","lon":-1.21895,"lat":34.90187,"pop":0},{"id":2593161,"name":"‛Aïn Fekan","lon":0.00056,"lat":35.23278,"pop":0},{"id":2575724,"name":"Aaroun","lon":2.88611,"lat":36.32222,"pop":0},{"id":7115825,"name":"Ababsa","lon":0.72334,"lat":35.70697,"pop":80},{"id":2509271,"name":"Abadla","alt":["Ksar el Abadla","Абадла"],"lon":-2.72387,"lat":31.019,"pop":13544},{"id":2509264,"name":"Abalessa","alt":["Abelessa","Abêlessa"],"lon":4.84746,"lat":22.88937,"pop":0},{"id":7392191,"name":"Abane Ramdane","lon":0.09957,"lat":35.92764,"pop":0},{"id":2509252,"name":"Abbachene","lon":5.04388,"lat":36.53404,"pop":0},{"id":2573382,"name":"Abbaza","lon":1.51634,"lat":36.31211,"pop":0},{"id":2509245,"name":"Abbech","lon":4.39667,"lat":36.86034,"pop":0},{"id":2509215,"name":"Abd Allah Djemel","alt":["Abd Allah Jemel"],"lon":7.52505,"lat":36.88344,"pop":0},{"id":2509204,"name":"Abd el Djebar","lon":3.46957,"lat":36.53827,"pop":0},{"id":7430357,"name":"Abd el Kader Bel Biskhi","lon":2.10228,"lat":36.114,"pop":0},{"id":2509194,"name":"Abd el Kader Ben el Mokhtar","lon":2.66934,"lat":35.68207,"pop":0},{"id":2579773,"name":"Abd el Kader Berramda","lon":0.80306,"lat":35.665,"pop":0},{"id":2499546,"name":"Abd el Kader Ouled Barhdad","alt":["Douar Abd el Kader Ouled Barhdad"],"lon":0.49563,"lat":35.46691,"pop":0},{"id":2509185,"name":"Abd el Krîm","alt":["Abd el Kerim","Abd el Krim"],"lon":3.0356,"lat":36.37369,"pop":0},{"id":2509180,"name":"Abd el Malek Ramdane","alt":["Abdelmalek Ramdam","Abdelmalek Ramdan","Ouillis"],"lon":0.27731,"lat":36.10436,"pop":0},{"id":2509175,"name":"Abd el Moumene","lon":4.66285,"lat":36.81426,"pop":0},{"id":2509173,"name":"Abd el Ouiret Si Ali","lon":3.75,"lat":36.88333,"pop":0},{"id":2509156,"name":"Abd Ou Ben Diane","lon":1.55308,"lat":36.22425,"pop":0},{"id":2509218,"name":"Abdallah Ben Mohammed","lon":2.19913,"lat":36.14257,"pop":0},{"id":7407226,"name":"Abdallah Mâhieddine","lon":0.35695,"lat":35.73067,"pop":0},{"id":2509214,"name":"Abdallah Ou Amar","lon":2.30427,"lat":36.46996,"pop":0},{"id":2509206,"name":"Abdelaziz","lon":3.31379,"lat":36.12396,"pop":0},{"id":2509176,"name":"Abdelmoumen","alt":["Pomel"],"lon":1.43957,"lat":35.28963,"pop":0},{"id":2509160,"name":"Abdi","alt":["Ain-Larbi","Aïn-Larbi","Gounod"],"lon":7.39667,"lat":36.26611,"pop":0},{"id":2509143,"name":"Abeïd","lon":4.98795,"lat":36.59002,"pop":0},{"id":2570689,"name":"Aber el Ma","lon":5.06833,"lat":35.835,"pop":0},{"id":2509117,"name":"Abîd Chamlet","lon":4.08146,"lat":36.70462,"pop":0},{"id":2509035,"name":"Abizar","lon":4.21117,"lat":36.81529,"pop":0},{"id":2509034,"name":"Abla","alt":["Es Safsaf"],"lon":1.63802,"lat":36.3508,"pop":0},{"id":2509031,"name":"Abou el Hassan","alt":["Abou el Hassen","Beni Madoun","Bordj Abou el Hassen","Cavaignac","dayrt abw alhsn","دائرة أبو الحسن"],"lon":1.19616,"lat":36.41657,"pop":24022},{"id":2573246,"name":"Aboucha","lon":1.71829,"lat":36.41541,"pop":0},{"id":2509032,"name":"Aboud Ben Ayed","lon":0.33372,"lat":28.71414,"pop":0},{"id":10858636,"name":"Abourghès","lon":4.45942,"lat":36.55922,"pop":0},{"id":2509014,"name":"Achabou","lon":4.71968,"lat":36.32296,"pop":0},{"id":2509009,"name":"Achachda","lon":1.56101,"lat":35.7067,"pop":0},{"id":2573771,"name":"Achasta","lon":0.38556,"lat":36.01417,"pop":0},{"id":2508992,"name":"Achelouf","lon":4.85583,"lat":36.77591,"pop":0},{"id":2508990,"name":"Achem","lon":2.01973,"lat":36.54652,"pop":0},{"id":2508987,"name":"Achira","lon":5.67617,"lat":36.64612,"pop":0},{"id":2508982,"name":"Achouba","lon":4.3804,"lat":36.85105,"pop":0},{"id":2508961,"name":"Adaïdia","lon":0.12033,"lat":35.03543,"pop":0},{"id":7411232,"name":"Adda Ouled Kaddour","lon":0.25416,"lat":35.8146,"pop":0},{"id":2508924,"name":"Adekar Kebouche","alt":["Addekar-Kebouch","Adekar","Adekar-Kebouch","Kebouch"],"lon":4.67152,"lat":36.69314,"pop":0},{"id":2508909,"name":"Adeni","lon":4.13757,"lat":36.66389,"pop":0},{"id":2508905,"name":"Adeyane","alt":["Ayedan"],"lon":5.48168,"lat":36.59537,"pop":0},{"id":2508893,"name":"Adjahil","lon":9.47929,"lat":24.52936,"pop":0},{"id":2579949,"name":"Adjaïlia","alt":["Adjailia","Mechta Aimouch","Mechta Aïmouch"],"lon":0.78745,"lat":35.8006,"pop":0},{"id":2508850,"name":"Adjeroud","alt":["Daya Adjeroud"],"lon":-2.19503,"lat":35.0658,"pop":0},{"id":2508828,"name":"Admer","lon":-0.17139,"lat":27.18727,"pop":0},{"id":2508818,"name":"Adouia","lon":1.74873,"lat":36.40915,"pop":0},{"id":2508811,"name":"Adrar","lon":4.26608,"lat":36.86683,"pop":0},{"id":2508812,"name":"Adrar","lon":4.29338,"lat":36.81398,"pop":0},{"id":2508813,"name":"Adrar","alt":["AZR","Adraras","a de la er","adeulaleu","adrar","adrar  aljzayr","xa drar","Адрар","أدرار","ادرار، الجزائر","อาดราร์","阿德拉尔","아드라르"],"lon":-0.29388,"lat":27.87429,"pop":43903},{"id":2508806,"name":"Adrar Farnou","lon":5.01883,"lat":36.7792,"pop":0},{"id":2508772,"name":"Afarnou","lon":5.56667,"lat":36.63333,"pop":0},{"id":2508770,"name":"Afedj","lon":2.18642,"lat":36.54784,"pop":0},{"id":2508762,"name":"Affar","lon":-0.44977,"lat":28.02296,"pop":0},{"id":2508759,"name":"Affirou","lon":4.62536,"lat":36.24923,"pop":0},{"id":2508741,"name":"Afir","lon":3.98722,"lat":36.84444,"pop":0},{"id":2508742,"name":"Afir","lon":4.16717,"lat":36.80524,"pop":0},{"id":2508743,"name":"Afir","lon":3.86578,"lat":36.65449,"pop":0},{"id":2508744,"name":"Afir","lon":3.7933,"lat":36.65395,"pop":0},{"id":2508745,"name":"Afir","lon":4.38969,"lat":36.57095,"pop":0},{"id":2508740,"name":"Afir Imzourhene","lon":3.86699,"lat":36.61795,"pop":0},{"id":2508737,"name":"Aflou","alt":["Aflu"],"lon":2.10228,"lat":34.11279,"pop":84683},{"id":2508732,"name":"Afoud","lon":4.04015,"lat":36.38734,"pop":0},{"id":2508728,"name":"Afra","lon":6.82364,"lat":34.94742,"pop":0},{"id":2508722,"name":"Afras","lon":6.41678,"lat":35.3375,"pop":0},{"id":2508719,"name":"Afsil","lon":6.24541,"lat":34.93175,"pop":0},{"id":2508718,"name":"Aftis","lon":5.15308,"lat":36.50104,"pop":0},{"id":2508697,"name":"Agachene","lon":4.31673,"lat":36.83077,"pop":0},{"id":2585263,"name":"Agbet ech Chaïr","lon":8.30583,"lat":36.80028,"pop":0},{"id":11205098,"name":"Aghbalou","lon":4.3547,"lat":36.4212,"pop":0},{"id":2508670,"name":"Aghlal","alt":["Arhlal","De Malherbe"],"lon":-1.06958,"lat":35.20111,"pop":0},{"id":2508658,"name":"Agneb","lon":1.5831,"lat":33.96568,"pop":0},{"id":2508653,"name":"Agouilal","lon":4.1664,"lat":36.40361,"pop":0},{"id":2508639,"name":"Agouni Ouzemoun","lon":4.25218,"lat":36.58539,"pop":0},{"id":2508640,"name":"Agouni-n-Tsalent","alt":["Agouni-n'Taslennt","Agouni-n’Taslennt"],"lon":4.29766,"lat":36.54714,"pop":0},{"id":2508638,"name":"Agourbi","lon":4.82448,"lat":36.61523,"pop":0},{"id":2508637,"name":"Agoussim","lon":4.43333,"lat":36.55,"pop":0},{"id":2508632,"name":"Agraredj","lon":4.36238,"lat":36.80128,"pop":0},{"id":2508622,"name":"Aguedal","lon":-1.74872,"lat":29.80815,"pop":0},{"id":2508602,"name":"Aguemoun","lon":4.08364,"lat":36.65618,"pop":0},{"id":2508603,"name":"Aguemoun","alt":["Aqumun","Aqumūn","aqmwn","avmwn","أقمون","أڤمون"],"lon":5.37791,"lat":36.6247,"pop":0},{"id":2508604,"name":"Aguemoun","lon":4.63333,"lat":36.6,"pop":0},{"id":2508601,"name":"Aguemoun Izem","lon":4.27097,"lat":36.59981,"pop":0},{"id":2508599,"name":"Aguemoun Taïda","alt":["Aguemoun Taida","Taida","Taïda"],"lon":4.69417,"lat":36.86586,"pop":0},{"id":2508600,"name":"Aguemoun-n-Aït Aïssa","alt":["Aguemonne Nait Aissa","Aguemonne Naït Aïssa","Aguemoun-n-Ait Aissa"],"lon":4.77709,"lat":36.41336,"pop":0},{"id":2508598,"name":"Aguemount-n-Aït Amar","lon":4.72189,"lat":36.71125,"pop":0},{"id":2508588,"name":"Aguillal","lon":-1.64065,"lat":35.14126,"pop":0},{"id":2508585,"name":"Ahach","alt":["Ahache"],"lon":1.18574,"lat":34.68597,"pop":0},{"id":2508538,"name":"Ahl Bel Hadri","lon":-0.82512,"lat":35.41432,"pop":0},{"id":8281413,"name":"Ahl el Agha","lon":3.36846,"lat":36.18358,"pop":0},{"id":2499541,"name":"Ahl el Aïd","alt":["Ahl el Aid","Douar Ahl el Aid","Douar Ahl el Aïd"],"lon":-0.26861,"lat":35.58389,"pop":0},{"id":2508458,"name":"Ahmed Abd el Kader","lon":3.66433,"lat":35.91219,"pop":0},{"id":2508455,"name":"Ahmed Bel Hadj","alt":["Ahmed el Hadj","Ahmet Bel Hadj"],"lon":7.60811,"lat":36.80146,"pop":0},{"id":2580363,"name":"Ahmed Bel Hadj","lon":0.48806,"lat":35.83778,"pop":0},{"id":7434257,"name":"Ahmed Belhadj","lon":2.31605,"lat":36.13932,"pop":0},{"id":2508453,"name":"Ahmed Ben Abdallah","lon":3.08349,"lat":36.26047,"pop":0},{"id":2508449,"name":"Ahmed Ben Aïda","alt":["Ahmed Ben Aida","Douar Ahmed Ben Aida","Douar Ahmed Ben Aïda"],"lon":-0.86657,"lat":35.60891,"pop":0},{"id":2508446,"name":"Ahmed Ben el Badi","alt":["Douar Ahmed ben el Badi"],"lon":2.63627,"lat":36.0893,"pop":0},{"id":7430412,"name":"Ahmed Ben Tagar","lon":2.09348,"lat":36.1191,"pop":0},{"id":2508431,"name":"Ahmed Rachedi","alt":["Rhoumeriane","Richelieu"],"lon":6.13096,"lat":36.39095,"pop":0},{"id":2508427,"name":"Ahmer el ’Aïn","alt":["Ahmer el 'Ain","Ahmeur el Ain","Ahmeur el Aïn","Ameur el Ain","Ameur el Aine","Ameur el Aïn","Ameur el Aïne"],"lon":2.56593,"lat":36.47688,"pop":0},{"id":2508403,"name":"Ahourir","alt":["Aourir"],"lon":4.68945,"lat":36.34779,"pop":0},{"id":2565032,"name":"Ahrzerouftis","lon":5.34372,"lat":36.52912,"pop":0},{"id":7392962,"name":"Ahsounal","lon":0.09086,"lat":35.44589,"pop":0},{"id":2508349,"name":"Aïchouch","lon":5.08137,"lat":35.53923,"pop":0},{"id":2508335,"name":"Aïdem","alt":["Aidem","Dechra Aidem","Dechra Aïdem","Dechret Aidem","Dechret Aïdem"],"lon":6.15,"lat":36.53333,"pop":0},{"id":2508332,"name":"Aïdriss","lon":5.28173,"lat":36.568,"pop":0},{"id":2508331,"name":"Aïech","lon":3.84259,"lat":36.7071,"pop":0},{"id":2573220,"name":"Aïn Achache","lon":1.73306,"lat":36.35778,"pop":0},{"id":2508301,"name":"Aïn Allem","alt":["Ain Alem","Ain Allem","Aïn Alem","ʿyn alʿlam","عين العلام"],"lon":-1.3239,"lat":35.21903,"pop":0},{"id":2508297,"name":"Aïn Arnat","alt":["Ain Arnat","Aine Arnat","Arnat","Aïne Arnat","ʿyn arnat","عين أرنات"],"lon":5.31347,"lat":36.18683,"pop":35088},{"id":2573463,"name":"Ain Baadj","alt":["Baadj"],"lon":1.63861,"lat":35.22806,"pop":0},{"id":2508287,"name":"Aïn Beïda","alt":["Ain Beida","Aine Beida","Aïne Beïda","QBP"],"lon":7.39278,"lat":35.79639,"pop":105765},{"id":2573576,"name":"Aïn Benaâmane","lon":3.56111,"lat":36.77167,"pop":0},{"id":2508268,"name":"Aïn Bessem","alt":["Ain Bessem","ʿyn bsam","عين بسام"],"lon":3.67319,"lat":36.29333,"pop":29461},{"id":2508257,"name":"Aïn Bou Zennzene","lon":5.90508,"lat":35.04602,"pop":0},{"id":2508260,"name":"Aïn Boudinar","alt":["'Ain Boudinar","Ain Boudinar","Aine Bou Dinar","Aïne Bou Dinar","Belle Cote","Belle Côte","’Aïn Boudinar"],"lon":0.1872,"lat":36.00856,"pop":0},{"id":7490965,"name":"Aïn Bouras","lon":0.77582,"lat":35.44133,"pop":0},{"id":2484769,"name":"Ain Bouyahia","alt":["Ouled Yahia"],"lon":1.76697,"lat":36.28791,"pop":0},{"id":2572735,"name":"Aïn Bouzid","lon":1.31907,"lat":36.24931,"pop":0},{"id":2508252,"name":"Aïn Brahim","lon":0.45611,"lat":36.22,"pop":0},{"id":7432036,"name":"Aïn Chaïba","lon":2.32545,"lat":36.23105,"pop":0},{"id":2508228,"name":"Aïn Defla","alt":["Ain Defla","Duperre","Duperré","ʿyn aldfly‎","عين الدفلة","عين الدفلى","عين الدفلى‎"],"lon":1.9679,"lat":36.26405,"pop":52276},{"id":7429640,"name":"Aïn Defla Seghira","lon":2.02775,"lat":36.21138,"pop":0},{"id":2508221,"name":"Aïn Dhab","alt":["Ain Dhab","Damiette","Esmar"],"lon":2.78464,"lat":36.26342,"pop":0},{"id":2573244,"name":"Aïn Djasser","alt":["Ain Djasser"],"lon":6.29417,"lat":35.89333,"pop":0},{"id":2575361,"name":"Aïn ech Cherâya","lon":6.71806,"lat":36.85222,"pop":0},{"id":2573473,"name":"Aïn el Beïda","lon":1.705,"lat":35.18472,"pop":0},{"id":7490078,"name":"Aïn el Beïdha","lon":0.96128,"lat":35.2672,"pop":0},{"id":2508174,"name":"Aïn el Bya","alt":["'Ain el Bia","Ain el Bya","Damesme","’Aïn el Bia"],"lon":-0.30178,"lat":35.80389,"pop":37241},{"id":2508168,"name":"Aïn el Fritissa","lon":2.45341,"lat":35.22524,"pop":0},{"id":2508164,"name":"Ain el Hadid","alt":["Aïn el Hadid","Martimprey","Martinprey"],"lon":0.88479,"lat":35.05783,"pop":0},{"id":2508160,"name":"Aïn el Hadjar","alt":["Aboutville","Ain el Hadjar","Aine el Hadiar","Aïne el Hadiar"],"lon":3.80733,"lat":36.33889,"pop":0},{"id":2508200,"name":"Aïn el Hamra","alt":["'Ain el Amrah","Ain el Hamra","Aine el Amrah","Aïne el Amrah","’Aïn el Amrah"],"lon":3.7175,"lat":36.79778,"pop":0},{"id":2508135,"name":"Aïn el Khadra","alt":["Ain el Khadra","Ain el Kradra","Aïn el Kradra"],"lon":2.474,"lat":35.25669,"pop":0},{"id":2508134,"name":"Aïn el Ksar","alt":["Ain el Ksar","El Ksar"],"lon":6.33023,"lat":35.69025,"pop":0},{"id":2508113,"name":"Aïn es Saïd","alt":["Ain es Said"],"lon":1.50812,"lat":35.05738,"pop":0},{"id":7393683,"name":"Aïn es Serra","lon":-7.843,"lat":27.8835,"pop":0},{"id":2508102,"name":"Aïn Fakroun","alt":["Ain Fakroun","Aine Fakroun","Aïne Fakroun"],"lon":6.87374,"lat":35.97108,"pop":68433},{"id":2508099,"name":"Ain Fares","alt":["'Ain Fares","Aine Fares","Aine Faress","Aïn Fares","Aïne Fares","Aïne Faress","’Aïn Fares"],"lon":0.24539,"lat":35.48047,"pop":0},{"id":2508096,"name":"Aïn Feka","alt":["Ain Feka"],"lon":3.57212,"lat":35.42184,"pop":0},{"id":2578990,"name":"Ain Ferrah","alt":["El Hamri"],"lon":0.78396,"lat":35.38119,"pop":0},{"id":2508089,"name":"Aïn Fouchi","lon":5.93155,"lat":35.02639,"pop":0},{"id":2508068,"name":"Aïn Kaddour Ben Larbi","lon":1.55813,"lat":35.06095,"pop":0},{"id":2508062,"name":"Aïn Kechera","lon":6.43226,"lat":36.74831,"pop":0},{"id":2508059,"name":"Aïn Kercha","alt":["Ain Kercha","Ain Kercka","Aine Kercha","Aïn Kercka","Aïne Kercha"],"lon":6.69528,"lat":35.92472,"pop":32497},{"id":2508056,"name":"Aïn Kerma","alt":["Ain Kerma","Aine Kerma","Aïne Kerma"],"lon":6.4725,"lat":36.42444,"pop":0},{"id":2508057,"name":"Aïn Kerma","lon":6.84441,"lat":35.8352,"pop":0},{"id":2573472,"name":"Aïn Kerma","lon":1.70306,"lat":35.22083,"pop":0},{"id":2508040,"name":"Aïn Khîar","alt":["Ain Khiar","Aine Khiar","Aïne Khiar"],"lon":8.33091,"lat":36.79813,"pop":0},{"id":2508033,"name":"Aïn Laloui","alt":["Ain Laloui","Aine Bou Dib","Aïne Bou Dib","Bertville"],"lon":3.74799,"lat":36.32056,"pop":0},{"id":2508030,"name":"Aïn Lechiakh","alt":["'Ain Lechiakh","Ain Lechiakh","Voltaire","’Aïn Lechiakh"],"lon":2.40514,"lat":36.15848,"pop":0},{"id":2508002,"name":"Aïn M’Lila","alt":["Ain M'Lila","Aine Mlila","Aïne Mlila"],"lon":6.57219,"lat":36.03687,"pop":0},{"id":7489784,"name":"Ain Mansour","lon":0.57842,"lat":35.39338,"pop":0},{"id":2573621,"name":"Aïn Mansour","lon":3.69583,"lat":36.76111,"pop":0},{"id":2507986,"name":"Aïn Nouissy","alt":["'Ain Nouissy","Ain Nouissy","Aine Nouissy","Aïne Nouissy","Noisy-les-Bains","’Aïn Nouissy"],"lon":0.04529,"lat":35.80432,"pop":0},{"id":2507980,"name":"Aïn Ouled el Mahil","alt":["Ain Ouled el Mahil","Aine Ouled el Mahil","Aïne Ouled el Mahil"],"lon":3.61589,"lat":36.22323,"pop":0},{"id":2507979,"name":"Aïn Oulmene","alt":["Ain Oulmene","Colbert"],"lon":5.29604,"lat":35.92296,"pop":0},{"id":2507972,"name":"Aïn Oussera","alt":["Ain Oussera","El Oussera","Paul Cazelles","bwl kazyl","ʿyn wsart","بول كازيل","عين وسارة"],"lon":2.90583,"lat":35.45139,"pop":118687},{"id":7393244,"name":"Ain Rahma","lon":0.3929,"lat":35.62465,"pop":0},{"id":2507953,"name":"Aïn Roubaï","lon":3.97353,"lat":36.87541,"pop":0},{"id":2578541,"name":"Aïn Saffah","lon":0.99245,"lat":35.21563,"pop":0},{"id":2507943,"name":"Aïn Sefra","alt":["Ain Sefra","Aine Sefra","Aïne Sefra"],"lon":-0.58333,"lat":32.75,"pop":63420},{"id":2507928,"name":"Aïn Sidi Chélif","alt":["'Ain Sidi Cherif","Ain Sidi Chelif","Aine Sidi Cherif","Aïne Sidi Chérif","’Aïn Sidi Cherif"],"lon":0.12667,"lat":35.83417,"pop":0},{"id":7115823,"name":"Aïn Sidi Harrat","lon":0.71261,"lat":35.70112,"pop":40},{"id":2507926,"name":"Aïn Smara","alt":["Ain Smara","Aine Smara","Aïne Smara","ʿyn smart","عين سمارة"],"lon":6.50135,"lat":36.2674,"pop":28968},{"id":2507922,"name":"Ain Soltane","alt":["'Ain Sultan","Aine Sultan","Aïne Sultan","’Aïn Sultan"],"lon":2.29667,"lat":36.24889,"pop":0},{"id":2502498,"name":"Aïn Soltane","alt":["Ain Soltane","Bou Reguida"],"lon":1.12741,"lat":36.27216,"pop":0},{"id":7437390,"name":"Ain Taiba","lon":2.40775,"lat":35.71247,"pop":0},{"id":2478095,"name":"Aïn Tamezouine","lon":5.91592,"lat":35.44839,"pop":0},{"id":2571140,"name":"Aïn Tasta","lon":3.70295,"lat":36.25409,"pop":0},{"id":2507912,"name":"Aïn Taya","alt":["Ain Taya","Aine Taya","Aïne Taya","ʿyn tayt","عين طاية"],"lon":3.28694,"lat":36.79333,"pop":21815},{"id":2507907,"name":"Aïn Tedeles","alt":["Ain Tadles","Ain Tedeles","Ain Tedles","Aine Tedeles","Aïn Tadles","Aïn Tedles","Aïne Tedelès"],"lon":0.29676,"lat":35.99825,"pop":0},{"id":2507901,"name":"Aïn Temouchent","alt":["Aebura","Ain Temonchent","Ain Temoucheni","Ain Temouchent","Ain Temushent","Aine Temouchent","Albulae","Aïn Témoucheni","Aïne Temouchent","ʿyn tmwshnt","عين تموشنت","عین تموشنت"],"lon":-1.14037,"lat":35.29749,"pop":57354},{"id":2507892,"name":"Aïn Tinn","alt":["Ain Tine","Ain Tinn","Aine Tinn","Aïn Tine","Aïne Tinn","Belfort"],"lon":6.32401,"lat":36.39754,"pop":0},{"id":2507877,"name":"Aïn Touta","alt":["Ain Touta","Mac Mahon"],"lon":5.90001,"lat":35.37675,"pop":72280},{"id":2507870,"name":"Aïn Yagout","alt":["Ain Yagout","Aine Yagout","Aïne Yagout"],"lon":6.41644,"lat":35.77457,"pop":0},{"id":2507868,"name":"Aïn Youcef","alt":["Ain Youcef","Lavayssiere","Lavayssière","Sidi Youcef"],"lon":-1.37246,"lat":35.0481,"pop":0},{"id":2484202,"name":"Aïn Zaouïa","alt":["Ain Zaouia","Aine Zaouia","Aïn Zaouia","Aïne Zaouïa","Pirette","ai yin zi wa ye","ʿyn alzawyt","ʿyn zawyh","عين الزاوية","عین زاویه","艾因茲瓦耶"],"lon":3.89416,"lat":36.54828,"pop":0},{"id":2507862,"name":"Aïn Zaouïa","alt":["Ain Zaouia"],"lon":3.88124,"lat":36.53489,"pop":0},{"id":2489855,"name":"Aïn Zeroula","alt":["Ain Zeroula","Aine Zeroula","Aïne Zeroula","Mechouar el 'Arab","Mechouâr el ’Arab"],"lon":7.39375,"lat":37.02041,"pop":0},{"id":11239140,"name":"Aindouz","lon":-1.40411,"lat":34.85415,"pop":0},{"id":2579041,"name":"Aïne el Krarrouba","lon":0.29667,"lat":35.31111,"pop":0},{"id":2507845,"name":"Aïoun Aïcha","lon":4.46962,"lat":35.11333,"pop":0},{"id":2507844,"name":"Aïoun Allah","lon":4.27343,"lat":35.10623,"pop":0},{"id":2507799,"name":"Aït Abbas","lon":4.2108,"lat":36.54001,"pop":0},{"id":2507798,"name":"Aït Abdallah","lon":4.79085,"lat":36.75045,"pop":0},{"id":2507796,"name":"Aït Abid","lon":4.05744,"lat":36.55805,"pop":0},{"id":2507795,"name":"Aït Adja","alt":["Ait Adja","Ait Ajda","Aït Ajda"],"lon":4.01839,"lat":36.50727,"pop":0},{"id":2507794,"name":"Aït Ahlal","lon":4.11517,"lat":36.56256,"pop":0},{"id":2507791,"name":"Aït Ahmed","lon":4.5237,"lat":36.79679,"pop":0},{"id":2507792,"name":"Aït Ahmed","lon":3.88639,"lat":36.68474,"pop":0},{"id":2507793,"name":"Aït Ahmed","lon":3.98227,"lat":36.60481,"pop":0},{"id":2507790,"name":"Aït Aïcha","lon":4.50495,"lat":36.65013,"pop":0},{"id":2507788,"name":"Aït Aïssa Ou Yahia","lon":4.39659,"lat":36.51064,"pop":0},{"id":2507786,"name":"Aït Aïssi","lon":4.43612,"lat":36.7699,"pop":0},{"id":2507787,"name":"Aït Aïssi","lon":4.95275,"lat":36.53488,"pop":0},{"id":2507784,"name":"Aït Ali","lon":3.80019,"lat":36.62594,"pop":0},{"id":2507782,"name":"Aït Ali Abd Allah","lon":4.47972,"lat":36.78474,"pop":0},{"id":2507781,"name":"Aït Ali Ou Harzoun","lon":4.23308,"lat":36.52153,"pop":0},{"id":2507780,"name":"Aït Ali Ou Mohannd","alt":["Ait Ali","Ait Ali Ou Mohannd","Aït Ali"],"lon":4.44766,"lat":36.56958,"pop":0},{"id":11204426,"name":"Ait Ali Ouyahia","lon":4.38191,"lat":36.53977,"pop":0},{"id":2507778,"name":"Aït Aouana","lon":4.52932,"lat":36.73434,"pop":0},{"id":2507777,"name":"Aït Ariba","lon":5.46667,"lat":36.56667,"pop":0},{"id":2504730,"name":"Aït Arif","alt":["ayt ʿryf","ayth ʿryf","bny ʿryf","آيت عريف","آيث عريف","بني عريف","ⴰⵢⵜ ⵄⵔⵉⴼ"],"lon":3.14836,"lat":36.49992,"pop":0},{"id":2507775,"name":"Aït Atelli","lon":4.1855,"lat":36.6216,"pop":0},{"id":2507774,"name":"Aït Aziz","lon":4.42018,"lat":36.51436,"pop":0},{"id":2507772,"name":"Aït Berdjal","lon":4.12464,"lat":36.56972,"pop":0},{"id":2507771,"name":"Aït Bou Abd er Rahmane","lon":4.21667,"lat":36.53333,"pop":0},{"id":2507770,"name":"Aït Bou Madhi","lon":4.2,"lat":36.5,"pop":0},{"id":2507768,"name":"Aït Bou Slimane","lon":4.47457,"lat":36.82603,"pop":0},{"id":2507767,"name":"Aït Bou Yahia","lon":4.09808,"lat":36.61643,"pop":0},{"id":2507766,"name":"Aït Bou Ziit","alt":["Ait Bou Ziit","Ait Bou Zit","Aït Bou Zit"],"lon":4.97142,"lat":36.6676,"pop":0},{"id":2507765,"name":"Aït Braham","lon":4.14542,"lat":36.74967,"pop":0},{"id":2507764,"name":"Aït Chafa","lon":4.53358,"lat":36.81702,"pop":0},{"id":2507763,"name":"Aït de Khedara","lon":8.16667,"lat":36.35,"pop":0},{"id":2507762,"name":"Aït Djemaa","lon":4.05516,"lat":36.50369,"pop":0},{"id":2507761,"name":"Aït el ’Azîz","alt":["Ait el 'Aziz","Ait el Azis","Aït el Azis"],"lon":4.29934,"lat":36.52027,"pop":0},{"id":2507760,"name":"Aït el Hadj","lon":3.78925,"lat":36.70886,"pop":0},{"id":2507756,"name":"Aït el Mannsour","lon":4.37042,"lat":36.53347,"pop":0},{"id":2507754,"name":"Aït Fdila","lon":4.42851,"lat":36.44126,"pop":0},{"id":2507753,"name":"Aït Frah","lon":4.16412,"lat":36.61331,"pop":0},{"id":6698362,"name":"Aît Ghanem","lon":5.48655,"lat":36.5669,"pop":0},{"id":2507752,"name":"Aït Hag","lon":4.14834,"lat":36.64978,"pop":0},{"id":2507751,"name":"Aït Halli","lon":4.14034,"lat":36.65169,"pop":0},{"id":2507750,"name":"Aït Hamsi","lon":4.30344,"lat":36.53695,"pop":0},{"id":2507749,"name":"Aït Hassem","lon":4.18691,"lat":36.57651,"pop":0},{"id":2507748,"name":"Aït Hessane","lon":4.053,"lat":36.65606,"pop":0},{"id":2507747,"name":"Aït Hichem","lon":4.32534,"lat":36.57564,"pop":0},{"id":2507743,"name":"Aït Idir","lon":4.70783,"lat":36.73645,"pop":0},{"id":2507741,"name":"Aït Ikhlef","lon":4.91458,"lat":36.76294,"pop":0},{"id":2507742,"name":"Aït Ikhlef","alt":["Ait Ikhelef","Ait Ikhlef","Ait Ikrelef","Aït Ikhelef","Aït Ikrelef"],"lon":4.5,"lat":35.61667,"pop":0},{"id":10858980,"name":"Aït Ikhlef","lon":4.49088,"lat":36.61172,"pop":0},{"id":2507740,"name":"Aït Illoul","lon":4.38398,"lat":36.8617,"pop":0},{"id":2507739,"name":"Aït Khalfa","alt":["Ait Kalfa","Ait Khalfa","Ait Khalifat","Ait Kralfa","Aït Kalfa","Aït Khalifat","Aït Kralfa"],"lon":4.08087,"lat":36.51223,"pop":0},{"id":2507737,"name":"Aït Kheïr","lon":4.30961,"lat":36.63202,"pop":0},{"id":2507735,"name":"Aït Larba","lon":4.19526,"lat":36.57576,"pop":0},{"id":2507734,"name":"Aït Lerzel","lon":4.48374,"lat":36.85147,"pop":0},{"id":2507732,"name":"Aït Maamar","lon":4.72289,"lat":36.7505,"pop":0},{"id":2507731,"name":"Aït Mahiou","lon":4.63333,"lat":36.65,"pop":0},{"id":2507730,"name":"Aït Malek","lon":4.57985,"lat":36.73012,"pop":0},{"id":2507729,"name":"Aït Mannsour","lon":4.05638,"lat":36.67164,"pop":0},{"id":2507728,"name":"Aït Mellal","lon":4.33158,"lat":36.55951,"pop":0},{"id":2507727,"name":"Aït Menndil","lon":4.74443,"lat":36.87006,"pop":0},{"id":2507725,"name":"Aït Meraou","lon":4.26004,"lat":36.61333,"pop":0},{"id":2507723,"name":"Aït Mimoun","lon":4.22144,"lat":36.60646,"pop":0},{"id":2507722,"name":"Aït Mislaïn","alt":["Ait Mislain","Ait Mislaine","Aït Mislaïne"],"lon":4.30087,"lat":36.50799,"pop":0},{"id":2507711,"name":"Aït Ou Yaya","alt":["Ait Ou Yahya","Ait Ou Yaya","Aït Ou Yahya"],"lon":4.98378,"lat":36.57834,"pop":0},{"id":2507716,"name":"Aït Ouanech","lon":4.04202,"lat":36.64775,"pop":0},{"id":2507715,"name":"Aït Ouhalane","lon":4.18403,"lat":36.51985,"pop":0},{"id":2507709,"name":"Aït Raouna","lon":4.29784,"lat":36.89426,"pop":0},{"id":2507706,"name":"Aït Saada","lon":5.47518,"lat":36.61945,"pop":0},{"id":2507707,"name":"Aït Saada","lon":4.27827,"lat":36.52407,"pop":0},{"id":2507704,"name":"Aït Saïd","lon":4.75513,"lat":36.7535,"pop":0},{"id":2507705,"name":"Aït Saïd","alt":["Ait Said","Ait Sidi Amar","Aït Sidi Amar"],"lon":4.47609,"lat":36.61897,"pop":0},{"id":2507703,"name":"Aït Saïd Ou Zeggane","lon":4.16667,"lat":36.65,"pop":0},{"id":2507702,"name":"Aït Sellam","lon":4.46333,"lat":36.47683,"pop":0},{"id":2507701,"name":"Aït Sidi Ahmed Ou Ali","lon":4.5,"lat":35.6,"pop":0},{"id":2507700,"name":"Aït Sidi Amar Ou el Hadj","lon":4.47259,"lat":36.60542,"pop":0},{"id":2507698,"name":"Aït Slimane","lon":3.85805,"lat":36.6784,"pop":0},{"id":2507697,"name":"Aït Smaïl","alt":["Ait Smail","ath smaʿyl","ayt asmaʿyl","ayt smaʿyl","آث سماعيل","آيت إسماعيل","آيت سماعيل","ايت اسماعيل"],"lon":4.85,"lat":36.73333,"pop":0},{"id":2507696,"name":"Aït Temouchene","lon":4.35073,"lat":36.80899,"pop":0},{"id":9858858,"name":"Ait Yahia","lon":4.33505,"lat":36.58907,"pop":0},{"id":2507695,"name":"Aït Yahia Youssef","lon":4.56305,"lat":36.73106,"pop":0},{"id":2507694,"name":"Aït Yaïch","lon":4.2695,"lat":36.65901,"pop":0},{"id":2507693,"name":"Aït Zaïm","lon":3.97716,"lat":36.60769,"pop":0},{"id":2507692,"name":"Aït Zellal","lon":4.33108,"lat":36.65417,"pop":0},{"id":2507690,"name":"Aït Ziri","lon":4.34491,"lat":36.57718,"pop":0},{"id":2507679,"name":"Akabiou","lon":4.77138,"lat":36.62098,"pop":0},{"id":2507678,"name":"Akabli","lon":1.37528,"lat":26.70828,"pop":0},{"id":2507665,"name":"Akaoudj","lon":4.07378,"lat":36.74009,"pop":0},{"id":2507649,"name":"Akba Safra","lon":3.81667,"lat":35.36667,"pop":0},{"id":2507646,"name":"Akbou","alt":["Aqbu","Metz","aqbw","أقبو"],"lon":4.53494,"lat":36.4575,"pop":66654},{"id":2507640,"name":"Akbouch","lon":5.21667,"lat":36.61667,"pop":0},{"id":2507639,"name":"Akbour","lon":0.32637,"lat":28.72739,"pop":0},{"id":2507622,"name":"Akerroui","lon":4.31367,"lat":36.66311,"pop":0},{"id":2507621,"name":"Akfadou","alt":["Tizamourine"],"lon":4.6,"lat":36.63333,"pop":0},{"id":2507566,"name":"Akourma","lon":4.63387,"lat":36.4759,"pop":0},{"id":2507547,"name":"Al Aricha","lon":-1.26667,"lat":34.21667,"pop":0},{"id":2507551,"name":"Alaïlia","alt":["Alailia","Alalia","Douar Alalia"],"lon":0.99366,"lat":35.57484,"pop":0},{"id":2507546,"name":"Albani","lon":-0.33202,"lat":27.66273,"pop":0},{"id":2507539,"name":"Aleb el Brek","lon":6.82057,"lat":35.52084,"pop":0},{"id":2507486,"name":"Alexandre Dumas","lon":-0.35748,"lat":35.06596,"pop":0},{"id":2507481,"name":"Alfaville","lon":0.32096,"lat":33.86492,"pop":0},{"id":2507474,"name":"Alger Plage","alt":["shaty aljzayr","شاطئ الجزائر"],"lon":3.23569,"lat":36.78567,"pop":0},{"id":2507480,"name":"Algiers","alt":["ALG","Al Jazair","Al-jezair","Alcher","Alge","Algeirsborg","Alger","Algeri","Algero","Algier","Algir","Alg·èr","Algê","Algír","Alje","Aljer","Aljir","Alse","Alxer","Alzer","Alzhir","Alzhir khot","Alzhir shaary","Alzhyr","Alziir","Alzir","Alzira","Alzirs","Alzyras","Alĝero","Alžiir","Alžir","Alžyras","Alžír","Alžěr","Alžīra","Alžīrs","Argel","Argier","Argièr","Arhel","Arjel","Arxel","Caesair","Cathair na hAilgeire","Cathair na hAilgéire","Cezayir","Cäsair","Icosium","Jazoir","Zzayer","a er ji er","ala-jaza'ira","alajiyarsa","alje","alji'ersa","aljiyars","aljiyarsa","aljyrz","aljzayr","aljzayr (mdynt)","aljzayr alʿasmt","aljzyrh","alzhiri","aruje","jەzayyr","mdynt aljzayr","yaljyr","Əlcəzair","ʼlgyr","Αλγέρι","Алжир","Алжир хот","Алжир шаары","Алжыр","Алҷазоир","Ալժիր","אלגיר","אלזשירס","ئالجىر","الجزائر","الجزائر (مدينة)","الجزائر العاصمة","الجزائر شہر","الجزيره","الجزیره","الجیرز","جەزائیر","مدينة الجزائر","ܓܙܐܐܪ","अल्जीएर्स","अल्जीयर्स","আলজিয়ার্স","ਅਲ-ਜਜ਼ਾਇਰ","அல்ஜியர்ஸ்","അൾജിയേഴ്സ്","แอลเจียร์","ཨཱལ་ཇི་ཡར་སི།","အယ်လဂျီးယားမြို့","ალჟირი","አልጀርስ","アルジェ","阿爾及爾","알제"],"lon":3.08746,"lat":36.73225,"pop":1977663},{"id":2499533,"name":"Ali Bou Ameur","alt":["Douar Ali Bou 'Amar","Douar Ali Bou Ameur","Douar Ali Bou ’Amar"],"lon":0.13622,"lat":35.29904,"pop":0},{"id":11204500,"name":"Ali Mendjeli","lon":6.5671,"lat":36.2459,"pop":0},{"id":2507410,"name":"Ali Ou Mohammed","lon":5.22276,"lat":36.53461,"pop":0},{"id":2507413,"name":"Aliouene","alt":["Aliouen"],"lon":5.24568,"lat":36.61426,"pop":0},{"id":2507391,"name":"Allamellal Sidi Cherif","lon":0.2655,"lat":29.29587,"pop":0},{"id":2507386,"name":"Allarhane","lon":4.45026,"lat":36.40861,"pop":0},{"id":2507374,"name":"Allessa","alt":["Alleca","Alleça"],"lon":4.04323,"lat":36.19087,"pop":0},{"id":2507363,"name":"Allouchia","lon":-0.31509,"lat":27.65037,"pop":0},{"id":2507360,"name":"Alm Denane el Homadna","lon":3.73333,"lat":36.86667,"pop":0},{"id":11237635,"name":"Alma","lon":4.04147,"lat":36.63629,"pop":0},{"id":2507362,"name":"Alma Ou Hammane","lon":4.02451,"lat":36.84659,"pop":0},{"id":2507341,"name":"Amadene Foukam","lon":4.94003,"lat":36.69866,"pop":0},{"id":2507331,"name":"Amagaz","lon":4.71091,"lat":36.57263,"pop":0},{"id":11204087,"name":"Amagroud","lon":4.95889,"lat":36.72877,"pop":0},{"id":2507322,"name":"Amalou","lon":5.14518,"lat":36.61442,"pop":0},{"id":2507323,"name":"Amalou","alt":["Mahfouda","amalw","amhfwzn","amlw","أمالو","أملو","امحفوظن"],"lon":4.65,"lat":36.48333,"pop":0},{"id":2581069,"name":"Amamia","lon":0.18028,"lat":35.87083,"pop":0},{"id":2507316,"name":"Amamra","lon":2.1924,"lat":35.53774,"pop":0},{"id":7525643,"name":"Amamra","lon":1.65797,"lat":36.24062,"pop":0},{"id":7430162,"name":"Amarnia","lon":2.05343,"lat":36.10213,"pop":0},{"id":2507256,"name":"Amazoul","lon":4.26009,"lat":36.64509,"pop":0},{"id":2507225,"name":"Amentane","alt":["Amenntane"],"lon":5.94004,"lat":35.11794,"pop":0},{"id":2507222,"name":"Ameraoua","lon":1.38099,"lat":36.4427,"pop":0},{"id":2507218,"name":"Amerzoug","lon":4.92678,"lat":36.50709,"pop":0},{"id":2507189,"name":"Amguid","alt":["Bordi Amguid","Bordj Amguid"],"lon":5.34555,"lat":26.37817,"pop":0},{"id":2507184,"name":"Amiche","lon":6.9026,"lat":33.3052,"pop":0},{"id":11592961,"name":"Amirauté","lon":3.0672,"lat":36.7866,"pop":0},{"id":2507169,"name":"Amizour","alt":["Colmar","Oued Amizour","amyzwr","klmar","kwlmar","wady amyzwr","أميزور","كلمار","كولمار","وادي أميزور"],"lon":4.90131,"lat":36.64022,"pop":25825},{"id":2507165,"name":"Amkarta","lon":5.66122,"lat":36.61354,"pop":0},{"id":2507164,"name":"Amkrouz","lon":4.50535,"lat":36.56493,"pop":0},{"id":2507156,"name":"Ammes","lon":-1.80805,"lat":29.84337,"pop":0},{"id":2507155,"name":"Ammi Moussa","lon":1.11143,"lat":35.86781,"pop":23001},{"id":2574075,"name":"Ammour Achasta","lon":0.37972,"lat":36.02694,"pop":0},{"id":2507146,"name":"Amoucha","alt":["Amouchat"],"lon":5.41372,"lat":36.38735,"pop":0},{"id":2592683,"name":"Amoudd","lon":1.22833,"lat":36.23306,"pop":0},{"id":2485651,"name":"Amoura","alt":["Dolfusville","Dollfusville","Oued Cheurfa","Oued Chorfa","dlfwsfyl","wady alshrfaʾ","ʿmwrt","دلفوسفيل","عمورة","وادي الشرفاء"],"lon":2.50972,"lat":36.19667,"pop":0},{"id":2507129,"name":"Amoura","alt":["Amourah"],"lon":3.87148,"lat":34.34478,"pop":0},{"id":7442561,"name":"Amoura Centre","lon":2.51056,"lat":36.17864,"pop":0},{"id":2507088,"name":"Amsel","lon":5.44979,"lat":22.62118,"pop":0},{"id":2507076,"name":"Amsioun","alt":["Amssioun"],"lon":4.76086,"lat":36.60495,"pop":0},{"id":2507073,"name":"Amsthas","alt":["Amsthas Dechra Sidi Amrane"],"lon":3.47324,"lat":36.6766,"pop":0},{"id":2573409,"name":"Amzaïka","lon":1.64907,"lat":36.20902,"pop":0},{"id":2507069,"name":"Amzeourou","lon":4.0142,"lat":36.68873,"pop":0},{"id":2219608,"name":"Anāy","alt":["Anay","anay","أناي"],"lon":11.47471,"lat":24.16487,"pop":0},{"id":2572887,"name":"Anceur el Bia","lon":1.44074,"lat":36.01512,"pop":0},{"id":2507037,"name":"Andrièche","lon":5.25,"lat":36.63333,"pop":0},{"id":2507011,"name":"Anguellou","lon":0.34134,"lat":29.66951,"pop":0},{"id":2506999,"name":"Annaba","alt":["AAE","Aanavaen","Anaba","Annaba - syaht","Annaba - سياحة","Annába","Aânavaen","Bona","Bone","Bône","Hippo","Hippo Regius","an na ba","an'naba","annaba","Анаба","Аннаба","Аннаба қаласы","Աննաբա","عنابة","عنابه","عنابہ","আন্নাবা","アンナバ","安纳巴","안나바"],"lon":7.76667,"lat":36.9,"pop":206570},{"id":2506976,"name":"Annoual","alt":["Anroual"],"lon":5.24227,"lat":35.70311,"pop":0},{"id":2506969,"name":"Annseur el Abiod","lon":1.57108,"lat":35.81407,"pop":0},{"id":2506964,"name":"Annza Absa","lon":2.08419,"lat":36.55153,"pop":0},{"id":2506941,"name":"Anzeglouf","lon":-0.01804,"lat":26.88196,"pop":0},{"id":2506942,"name":"Anzeglouf","lon":0.02951,"lat":26.82219,"pop":0},{"id":2506939,"name":"Aokas","alt":["Cap Aokas","Oued Marsa","awqas","ras awqas","wady almrsy","أوقاس","اوقاس","رأس أوقاس","وادي المرسى"],"lon":5.25,"lat":36.63333,"pop":0},{"id":2506934,"name":"Aomar","lon":3.77396,"lat":36.501,"pop":0},{"id":2506931,"name":"Aouadja","lon":1.77813,"lat":36.11029,"pop":0},{"id":7416489,"name":"Aouaouda","lon":0.95061,"lat":35.52779,"pop":0},{"id":2506910,"name":"Aoubellil","lon":-0.99195,"lat":35.13735,"pop":0},{"id":2573211,"name":"Aoud Izzane","lon":1.66642,"lat":36.35112,"pop":0},{"id":2506856,"name":"Aouf","alt":["Les Aouf"],"lon":0.35601,"lat":35.09824,"pop":0},{"id":2506851,"name":"Aougrout","lon":0.33519,"lat":28.70289,"pop":0},{"id":2506846,"name":"Aouicha","lon":3.93919,"lat":36.76172,"pop":0},{"id":2506811,"name":"Aouinet el Mora","alt":["Anouinet Mora"],"lon":7.88463,"lat":35.67957,"pop":0},{"id":2573279,"name":"Aouinia","lon":1.62336,"lat":36.25808,"pop":0},{"id":2506800,"name":"Aoulad Badis","lon":5.62778,"lat":36.49167,"pop":0},{"id":2506795,"name":"Aoulef","alt":["Aoulef el Arab","awlf","awlf alʿrb","آولف","أولف","أولف العرب"],"lon":1.08333,"lat":26.96667,"pop":24812},{"id":2506773,"name":"Aoungal","lon":3.13692,"lat":36.40315,"pop":0},{"id":2573210,"name":"Aouraï","lon":1.67331,"lat":36.34519,"pop":0},{"id":2506759,"name":"Aourir","lon":4.42801,"lat":36.66305,"pop":0},{"id":2506760,"name":"Aourir","lon":4.63333,"lat":36.63333,"pop":0},{"id":2506754,"name":"Aourir Akbour","alt":["Akbour"],"lon":0.02656,"lat":28.76828,"pop":0},{"id":2506753,"name":"Aourir Ouelmi","alt":["Aourir Ou Eulmi"],"lon":4.80852,"lat":36.35898,"pop":0},{"id":2503711,"name":"Arago","alt":["Bordj Ali","Ras el Oued"],"lon":6.3588,"lat":36.68483,"pop":0},{"id":7489720,"name":"Araifia","lon":0.74301,"lat":35.30513,"pop":0},{"id":2582461,"name":"Aranim","lon":6.31972,"lat":37.02833,"pop":0},{"id":2506660,"name":"Arassa","alt":["Arraca","Arrassa","Arraça"],"lon":4.8228,"lat":36.42506,"pop":0},{"id":2506656,"name":"Arba","lon":6.07814,"lat":35.3094,"pop":0},{"id":2506639,"name":"Arba Foukani","lon":0.59804,"lat":33.1063,"pop":0},{"id":2506641,"name":"Arbacha","lon":6.86378,"lat":34.91545,"pop":0},{"id":2506631,"name":"Arbala","lon":4.78634,"lat":36.57276,"pop":0},{"id":2506628,"name":"Arbaouat","alt":["Arba","Arba Tachtani","Arba Tahtani","Arba Tahtania","Arba Tathani","Les Arbaouats"],"lon":0.58035,"lat":33.08805,"pop":0},{"id":2504954,"name":"Arbaoun","alt":["Ben Aziz","Beni Aziz","Chevreul"],"lon":5.64806,"lat":36.46278,"pop":0},{"id":2506623,"name":"Arbatache","alt":["Arbatach","L'Arbatach","L'Arbetache","Larbatache","L’Arbatach","L’Arbetache","Marechal Foch","Maréchal Foch"],"lon":3.37127,"lat":36.63773,"pop":17481},{"id":2506615,"name":"Arbia","lon":6.12177,"lat":35.21545,"pop":0},{"id":2506611,"name":"Arbos Ville","alt":["Arbes Ville"],"lon":-0.61667,"lat":35.7,"pop":0},{"id":7467235,"name":"Arch Beni Merzoug","lon":1.12623,"lat":36.28959,"pop":0},{"id":2506597,"name":"Ardîkh","alt":["Ardikh","Dechra Aredir","Dechret Aredir"],"lon":6.13722,"lat":36.8773,"pop":0},{"id":2506582,"name":"Areg Gamra","lon":5.33788,"lat":32.06211,"pop":0},{"id":2506566,"name":"Arezzou","lon":5.55753,"lat":36.66117,"pop":0},{"id":7429623,"name":"Argaguide","lon":2.05146,"lat":36.21939,"pop":0},{"id":2577249,"name":"Argoub Aïssa","lon":0.71736,"lat":35.54104,"pop":0},{"id":7468895,"name":"Argoub el Hargua","lon":0.50399,"lat":35.17279,"pop":0},{"id":2506539,"name":"Arhbâl","alt":["Ain Arbel","Arhbal","Aïn Arbel"],"lon":6.52665,"lat":36.97024,"pop":0},{"id":2506531,"name":"Arhil","lon":-0.23202,"lat":27.35262,"pop":0},{"id":2506529,"name":"Arhlad","lon":0.18152,"lat":29.37002,"pop":0},{"id":2506519,"name":"Arhribs","alt":["Aghribs"],"lon":4.31158,"lat":36.79361,"pop":23958},{"id":2506514,"name":"Ariane er Râs","lon":-0.26344,"lat":28.41597,"pop":0},{"id":2506512,"name":"Arib","alt":["El-Arrib","Les Aribs","Littre","Littré"],"lon":2.06961,"lat":36.29167,"pop":0},{"id":2506457,"name":"Armandville","lon":-0.29447,"lat":35.87429,"pop":0},{"id":2506427,"name":"Arouled","lon":4.53481,"lat":36.72256,"pop":0},{"id":2506404,"name":"Arris","lon":6.34706,"lat":35.25881,"pop":36641},{"id":2506385,"name":"Arzew","alt":["Arzen","Arzeu","QAE","Saint-Leu","arzyw","san lw","أرزيو","سان لو"],"lon":-0.318,"lat":35.85048,"pop":0},{"id":2506350,"name":"Asfour","alt":["Combes","Merdes","Merdess"],"lon":7.97421,"lat":36.67273,"pop":0},{"id":2506346,"name":"Asga","lon":4.76983,"lat":36.307,"pop":0},{"id":2506321,"name":"Asla","lon":-0.07755,"lat":33.00902,"pop":0},{"id":2506316,"name":"Aslellef","lon":6.94252,"lat":35.05193,"pop":0},{"id":2506312,"name":"Asloun","lon":4.97356,"lat":36.60321,"pop":0},{"id":2506250,"name":"Asselbou","alt":["Aselbou"],"lon":5.72163,"lat":36.65787,"pop":0},{"id":2494082,"name":"Assi Ameur","alt":["Hassi 'Amer","Hassi Ameur","Hassi ’Amer"],"lon":-0.47272,"lat":35.70391,"pop":0},{"id":2494065,"name":"Assi Bou Nif","alt":["Hassi Bou Nif"],"lon":-0.49944,"lat":35.69222,"pop":0},{"id":2494069,"name":"Assi-Ben Okba","alt":["Hassi Ben 'Okba","Hassi Ben ’Okba"],"lon":-0.46716,"lat":35.72964,"pop":0},{"id":2506242,"name":"Assiak Bou Adda","lon":4.41667,"lat":36.7,"pop":0},{"id":2583233,"name":"Assila","lon":3.61139,"lat":35.88972,"pop":0},{"id":2506236,"name":"Assouaf","lon":3.88692,"lat":36.90864,"pop":0},{"id":2506228,"name":"Assoumat","lon":4.89074,"lat":36.83706,"pop":0},{"id":2573129,"name":"At el Kef","lon":1.70969,"lat":36.51784,"pop":0},{"id":11549817,"name":"At Isguen","lon":3.41,"lat":32.28,"pop":0},{"id":11549818,"name":"At Isguen","lon":3.6961,"lat":32.47454,"pop":0},{"id":2506214,"name":"Atalla","lon":4.90304,"lat":36.77618,"pop":0},{"id":7433953,"name":"Ataylia","lon":2.49428,"lat":36.1643,"pop":0},{"id":7425849,"name":"Athmania","lon":1.16012,"lat":36.0194,"pop":0},{"id":2506129,"name":"Atrouch","lon":4.64282,"lat":36.83205,"pop":0},{"id":2506098,"name":"Attatba","alt":["Atatba"],"lon":2.67694,"lat":36.57278,"pop":0},{"id":2506088,"name":"Attouch","lon":4.02781,"lat":36.7914,"pop":0},{"id":2506076,"name":"Ayallalaoun","alt":["Ayllalaoun"],"lon":6.08333,"lat":35.20279,"pop":0},{"id":2506074,"name":"Ayata","lon":5.99275,"lat":33.48333,"pop":0},{"id":2506071,"name":"Ayet el ’Arbi Ben Lemhidi","alt":["Ayet el 'Arbi Ben Lemhidi","Faubourg Gambetta","Larbi Ben M'Hidi","Larbi Ben M’Hidi"],"lon":-0.64667,"lat":35.20393,"pop":0},{"id":2506070,"name":"Ayet Mustapha Ben Boû La’ïd","alt":["Ayet Mustapha Ben Bou La'id","Faubourg Negrier","Faubourg Négrier","Mustapha Ben Boulaid"],"lon":-0.6418,"lat":35.18381,"pop":0},{"id":2506069,"name":"Ayouch","lon":2.22187,"lat":35.92066,"pop":0},{"id":2506063,"name":"Azaïna","alt":["Azaina","Aznaina","Aznaïna"],"lon":-1.58782,"lat":35.10287,"pop":0},{"id":2582339,"name":"Azakour","lon":6.34417,"lat":37.00639,"pop":0},{"id":2575720,"name":"Azati","lon":2.89167,"lat":36.31583,"pop":0},{"id":7392669,"name":"Azayza","lon":0.04363,"lat":35.36103,"pop":0},{"id":2506043,"name":"Azazga","alt":["Agagza","Agazza","ZZA","Азазга"],"lon":4.37222,"lat":36.74472,"pop":40623},{"id":2506038,"name":"Azeba","alt":["Delacroix"],"lon":6.32141,"lat":36.42635,"pop":0},{"id":2506034,"name":"Azeffoun","alt":["Azeffun","Azetfoun","Azzefoun","Aẓeffun","Port Guedon","Port Gueydon","azfwn","أزفون"],"lon":4.42,"lat":36.89306,"pop":0},{"id":2506030,"name":"Azekkour","lon":0.29845,"lat":29.31098,"pop":0},{"id":2506011,"name":"Azelouaz","lon":9.47366,"lat":24.56412,"pop":0},{"id":2506000,"name":"Azerou","lon":3.42803,"lat":36.39657,"pop":0},{"id":2571500,"name":"Azerou","lon":3.94472,"lat":36.83972,"pop":0},{"id":2505994,"name":"Azerou Bahar","lon":4.07239,"lat":36.83736,"pop":0},{"id":2505993,"name":"Azerou Kellat","lon":4.28604,"lat":36.5873,"pop":0},{"id":2505980,"name":"Azib","lon":5.20363,"lat":36.49953,"pop":0},{"id":2505973,"name":"Azib Aboudaou","alt":["Aboudaou"],"lon":5.05647,"lat":36.70068,"pop":0},{"id":2505970,"name":"Azib Bou Yadif","lon":3.94367,"lat":36.71647,"pop":0},{"id":2505969,"name":"Azib Cheïkh","lon":3.91514,"lat":36.55178,"pop":0},{"id":2491526,"name":"Azib el Kouafa","lon":3.98826,"lat":36.85888,"pop":0},{"id":2505968,"name":"Azib Takhlicht","lon":4.71667,"lat":36.83333,"pop":0},{"id":2579052,"name":"Azimat Mahiedine","alt":["Ouled Sidi Mohammed ech Chergui"],"lon":0.31652,"lat":35.32639,"pop":0},{"id":2482183,"name":"Aziz","alt":["Es Sebt","Sebt Aziz"],"lon":2.45154,"lat":35.82331,"pop":0},{"id":2575800,"name":"Aziza","lon":2.84833,"lat":36.33222,"pop":0},{"id":2505957,"name":"Azloua","lon":1.1859,"lat":35.62704,"pop":0},{"id":2505955,"name":"Azoua","lon":-0.13752,"lat":27.11381,"pop":0},{"id":2573298,"name":"Azouia","lon":1.60967,"lat":36.48972,"pop":0},{"id":2572973,"name":"Azouna","lon":1.87799,"lat":36.55036,"pop":0},{"id":2505946,"name":"Azouza","lon":4.1628,"lat":36.63824,"pop":0},{"id":2505927,"name":"Azrou","alt":["Azerou"],"lon":4.4658,"lat":36.70932,"pop":0},{"id":2505924,"name":"Azrou Bou Ammar","lon":4.93664,"lat":36.65513,"pop":0},{"id":2505915,"name":"Azzaba","alt":["Jemmapes","jmab","ʿzabt","Аззаба","جماب","عزابة"],"lon":7.10528,"lat":36.73944,"pop":75317},{"id":2505668,"name":"Ba Messaoud","lon":-0.49493,"lat":28.04493,"pop":0},{"id":7407110,"name":"Baâtioh","lon":0.47946,"lat":35.65031,"pop":0},{"id":2505860,"name":"Bab el Assa","alt":["Bab el Hassa"],"lon":-2.0307,"lat":34.96683,"pop":0},{"id":2505857,"name":"Bab el Oued","alt":["Bab al-Wadi","Bāb al-Wādī","Faubourg Bab el Oued","bab alwad","bab alwady","باب الواد","باب الوادي"],"lon":3.05217,"lat":36.79239,"pop":0},{"id":2505854,"name":"Bab Ezzouar","alt":["Le Retour de la Chasse","bab alzwar","bab‌alzwar","باب الزوار","باب‌الزوار"],"lon":3.18291,"lat":36.72615,"pop":275630},{"id":2505870,"name":"Baba Ali","lon":3.05527,"lat":36.66228,"pop":0},{"id":2505871,"name":"Baba Ali","alt":["Douar Baba Ali"],"lon":6.34622,"lat":36.36498,"pop":0},{"id":2505872,"name":"Baba Ali","lon":3.75946,"lat":36.64554,"pop":0},{"id":7429991,"name":"Baba Driss Laouaidia","lon":2.11351,"lat":36.19814,"pop":0},{"id":2505865,"name":"Baba Hassen","lon":2.9725,"lat":36.69556,"pop":0},{"id":2505861,"name":"Babar","lon":7.10379,"lat":35.16747,"pop":0},{"id":6698360,"name":"BABOR - VILLE","alt":["Babur","Baladiyyat Babur","Baladiyyat Bābūr","Bābūr","babwr","bldyt babwr","بابور","بلدية بابور"],"lon":5.5393,"lat":36.48994,"pop":33000},{"id":2505830,"name":"Bades","lon":6.66131,"lat":34.74668,"pop":0},{"id":2505824,"name":"Badjerou","lon":5.41327,"lat":35.68453,"pop":0},{"id":2505822,"name":"Badriane","lon":0.34044,"lat":29.33824,"pop":0},{"id":7407099,"name":"Baghadid","lon":0.46989,"lat":35.6785,"pop":0},{"id":2505815,"name":"Baghaï","alt":["Auguste-Comte","Baghai"],"lon":7.11194,"lat":35.52306,"pop":0},{"id":7467314,"name":"Baghdoura","lon":1.19797,"lat":36.3371,"pop":0},{"id":2505812,"name":"Baghlia","alt":["Raghlia","Rebeval"],"lon":3.85722,"lat":36.81694,"pop":0},{"id":2505755,"name":"Bahata","lon":3.11046,"lat":36.3632,"pop":0},{"id":2573241,"name":"Bahla","lon":1.74861,"lat":36.40861,"pop":0},{"id":2505742,"name":"Bahlalla","alt":["Douar Bahlalla"],"lon":-1.81961,"lat":35.05845,"pop":0},{"id":2505737,"name":"Bahmer","lon":-0.28675,"lat":27.49396,"pop":0},{"id":2505732,"name":"Bahra","alt":["Douar Bahra"],"lon":0.96219,"lat":35.3096,"pop":0},{"id":7418279,"name":"Baïguia","lon":0.93062,"lat":35.91903,"pop":0},{"id":2505708,"name":"Baïnem Falaise","lon":2.97047,"lat":36.81334,"pop":0},{"id":2505707,"name":"Bains Romains","lon":2.99072,"lat":36.81322,"pop":0},{"id":2505696,"name":"Baïz","lon":1.18578,"lat":35.60476,"pop":0},{"id":2505690,"name":"Bakhalla","lon":-0.44793,"lat":28.01759,"pop":0},{"id":2573424,"name":"Bakla","lon":1.65806,"lat":36.13583,"pop":0},{"id":2505259,"name":"Balaroui","alt":["Belaraoui","Douar Balaroui"],"lon":0.95984,"lat":35.51813,"pop":0},{"id":2505681,"name":"Balbal","lon":1.98132,"lat":36.26604,"pop":0},{"id":2505675,"name":"Balloul","alt":["Ain Balloul","Aine Balloul","Aïn Balloul","Aïne Balloul"],"lon":0.47727,"lat":34.98937,"pop":0},{"id":2577710,"name":"Baltache","lon":0.15868,"lat":35.64231,"pop":0},{"id":2505663,"name":"Baniane","lon":6.0576,"lat":34.99015,"pop":0},{"id":2505661,"name":"Baniou","alt":["Bordj Baniou"],"lon":4.34417,"lat":35.41528,"pop":0},{"id":2505653,"name":"Baraki","alt":["braqy","براقي"],"lon":3.09606,"lat":36.66655,"pop":105402},{"id":2505651,"name":"Barbacha","alt":["Souk et Tleta","Souk et Tléta","brbasht","mrbasht mrbasht","swq althlathaʾ","برباشة","سوق الثلاثاء","مرباشة مرباشة"],"lon":4.96667,"lat":36.56667,"pop":31983},{"id":2504589,"name":"Barbouche","alt":["Beni Rached"],"lon":2.48185,"lat":36.10589,"pop":0},{"id":2506455,"name":"Bardi Boudjemaa","alt":["Armee Francaise","Armèe Française"],"lon":6.74005,"lat":36.5731,"pop":0},{"id":2505640,"name":"Barekache","alt":["Bourekache"],"lon":6.97363,"lat":34.96103,"pop":0},{"id":7513972,"name":"Barghout","lon":1.77173,"lat":36.45414,"pop":0},{"id":2505630,"name":"Barhla","lon":6.42218,"lat":35.35549,"pop":0},{"id":2505629,"name":"Barika","alt":["ZZB","brykt","Барика","بريكة"],"lon":5.36584,"lat":35.38901,"pop":98846},{"id":2505599,"name":"Barral","lon":7.77667,"lat":36.6475,"pop":0},{"id":6806620,"name":"Base Sonarem","lon":5.1193,"lat":23.93775,"pop":0},{"id":2505572,"name":"Batna","alt":["BLJ","Batina","Batna City","Batnah","Tbatent","Wilaya de Batna","ba te na","bateuna","batnh  aljzayr","batnt","batona","wlayt batnt","Батна","Батна қаласы","باتنة","باتنه، الجزایر","باتنہ","باتنہ، الجزائر","ولاية باتنة","バトナ","巴特纳","바트나"],"lon":6.17414,"lat":35.55597,"pop":280798},{"id":7441671,"name":"Batti","lon":2.7421,"lat":36.24803,"pop":0},{"id":2505557,"name":"Bayard","alt":["Ahmed Ben Ali"],"lon":7.07915,"lat":36.71489,"pop":0},{"id":2505556,"name":"Bayou","lon":5.1,"lat":36.56667,"pop":0},{"id":2505549,"name":"Bazer Sakra","lon":5.70972,"lat":36.11778,"pop":0},{"id":7407092,"name":"Bazid","lon":0.44566,"lat":35.6551,"pop":0},{"id":2505543,"name":"Baziz Haouari","lon":2.69934,"lat":36.32558,"pop":0},{"id":2505542,"name":"Bazouka","lon":2.16085,"lat":36.1974,"pop":0},{"id":11204062,"name":"Bazoul","lon":5.911,"lat":36.813,"pop":0},{"id":7430386,"name":"Bazria","lon":2.06599,"lat":36.09633,"pop":0},{"id":7438084,"name":"Bdaidia","lon":2.37722,"lat":35.6416,"pop":0},{"id":2505539,"name":"Bdeaoua","lon":1.32647,"lat":35.70323,"pop":0},{"id":7428888,"name":"Bdidi","lon":2.38904,"lat":35.73018,"pop":0},{"id":2505538,"name":"Beaulieu","lon":3.16667,"lat":36.71667,"pop":0},{"id":2505537,"name":"Beauprêtre","alt":["Beauprete","Beaupretre","Beauprête","Bou Faima"],"lon":3.80708,"lat":36.55164,"pop":0},{"id":2505536,"name":"Beauséjour","lon":7.76667,"lat":36.91667,"pop":0},{"id":2505530,"name":"Béchar","alt":["Basyar","Baszszar","Bechar","Besaras","Beshar","Beshare","Bexar","Bešaras","CBH","Colomb-Bechar","Colomb-Béchar","Wilaya de Beshar","bei sha er","besharu","besyaleu","bshar","bshar  aljzayr","Бешар","Бешаре","بشار","بشار، الجزایر","ベシャール","贝沙尔","베샤르"],"lon":-2.21667,"lat":31.61667,"pop":143382},{"id":2505524,"name":"Béchar-Djedid","alt":["Bechar-Djedid","Nouveau-Bechar"],"lon":-2.23195,"lat":31.56306,"pop":0},{"id":2505519,"name":"Bechilga","lon":4.58268,"lat":35.68459,"pop":0},{"id":2505518,"name":"Bechir","lon":-1.97452,"lat":29.94347,"pop":0},{"id":2505514,"name":"Bechloul","lon":4.07348,"lat":36.30964,"pop":0},{"id":2505481,"name":"Bedrabine","lon":-0.85039,"lat":35.0095,"pop":0},{"id":2505447,"name":"Behima","lon":6.88817,"lat":33.46746,"pop":0},{"id":2505346,"name":"Beïda Bordj","alt":["Beida Bordj"],"lon":5.66528,"lat":35.89444,"pop":0},{"id":2505334,"name":"Beït Aïssia","lon":3.65941,"lat":35.87239,"pop":0},{"id":2505329,"name":"Bejaïa","alt":["BJA","Bedzaja","Bedzhaja","Bejaia","Bidschaya","Bidschāya","Bigaya","Bijaya","Bijāya","Biǧāya","Bougie","Bugia","Bugía","Béjaïa","bjayh","bjayt","bjayہ","Беджая","Беџаја","بجاية","بجایه","بجایہ"],"lon":5.08433,"lat":36.75587,"pop":164103},{"id":2505321,"name":"Bekaïria","lon":1.55218,"lat":35.65953,"pop":0},{"id":2505311,"name":"Bekhata","lon":1.22691,"lat":35.55079,"pop":0},{"id":2505308,"name":"Bekkaria","lon":8.24076,"lat":35.37361,"pop":0},{"id":2505304,"name":"Bekkouche Lakhdar","alt":["Bekkouche Laid","Bekkouche Laïd","Gastu","Zit Emba"],"lon":7.30667,"lat":36.69861,"pop":0},{"id":2505278,"name":"Bel Aïba","alt":["Bel Aiba"],"lon":5.15572,"lat":35.52555,"pop":0},{"id":2583255,"name":"Bel Arba","lon":3.68556,"lat":35.92361,"pop":0},{"id":2505255,"name":"Bel Aroug","lon":3.77415,"lat":35.42575,"pop":0},{"id":2505236,"name":"Bel Ayel","lon":4.55529,"lat":36.32537,"pop":0},{"id":2505233,"name":"Bel Bachir","lon":2.87994,"lat":30.60757,"pop":0},{"id":2505178,"name":"Bel Hadri","lon":-0.79888,"lat":35.41842,"pop":0},{"id":2505173,"name":"Bel Haouari","alt":["Metameur Bel Haouari"],"lon":0.85685,"lat":35.11306,"pop":0},{"id":2505153,"name":"Bel Imour","alt":["Cerez"],"lon":4.87889,"lat":35.98111,"pop":0},{"id":2505116,"name":"Bel Kreït","lon":2.86667,"lat":36.43333,"pop":0},{"id":7411235,"name":"Bel Laghouati","lon":0.29067,"lat":35.81874,"pop":0},{"id":2505094,"name":"Bel Lezhar","lon":2.15531,"lat":36.55343,"pop":0},{"id":2505062,"name":"Bel Resli","alt":["Bel Rezli"],"lon":4.33215,"lat":36.64888,"pop":0},{"id":7467242,"name":"Belaaifa","lon":1.16374,"lat":36.2797,"pop":0},{"id":2505185,"name":"Belaassel Bouzagza","alt":["Bel Hacel"],"lon":0.4989,"lat":35.84067,"pop":0},{"id":2573242,"name":"Belahcene","lon":1.74158,"lat":36.40485,"pop":0},{"id":2505258,"name":"Belarbi","alt":["Baudens","Belarbi Abdelkader","Daudens","El Ksar"],"lon":-0.45717,"lat":35.15257,"pop":0},{"id":2480169,"name":"Belcourt","alt":["Sayyidi Imhammad","Sayyidī Imḥammad","Sidi M'Hamed","Sidi M’Hamed","blkwr","sydy amhmd","sydy mhmd","بلكور","سيدي امحمد","سيدي محمد","سیدی امحمد"],"lon":3.05268,"lat":36.74453,"pop":0},{"id":7422078,"name":"Belghraïeb","lon":0.62124,"lat":35.99867,"pop":0},{"id":2505161,"name":"Belhiout","alt":["Bellihoud"],"lon":6.30479,"lat":35.20876,"pop":0},{"id":2570455,"name":"Belkassem","lon":7.31444,"lat":36.82846,"pop":0},{"id":2505134,"name":"Belkheir","alt":["Millesimo","Millésimo"],"lon":7.47508,"lat":36.46182,"pop":0},{"id":2505112,"name":"Bellaa","alt":["Belaa"],"lon":5.85372,"lat":36.20241,"pop":0},{"id":2505099,"name":"Bellevue","lon":6.59505,"lat":36.35388,"pop":0},{"id":2505100,"name":"Bellevue","lon":2.96809,"lat":36.72827,"pop":0},{"id":2576038,"name":"Bellevue Supérieur","lon":6.60389,"lat":36.34861,"pop":0},{"id":2574775,"name":"Bellia","lon":2.98222,"lat":36.06861,"pop":0},{"id":2505015,"name":"Ben ’Aknoûn","alt":["Ben 'Aknoun"],"lon":3.01667,"lat":36.76667,"pop":0},{"id":11204545,"name":"Ben Abdelmalek Ramdan","lon":0.26552,"lat":36.10328,"pop":0},{"id":2573607,"name":"Ben Abid","lon":3.6475,"lat":36.80306,"pop":0},{"id":7490944,"name":"Ben Allou Ben Aouda","lon":0.93759,"lat":35.45642,"pop":0},{"id":2504997,"name":"Ben Amara","lon":3.93109,"lat":36.86985,"pop":0},{"id":2578141,"name":"Ben Amara","lon":0.86688,"lat":35.09234,"pop":0},{"id":7511318,"name":"Ben Amara","lon":1.90328,"lat":36.36362,"pop":0},{"id":2504989,"name":"Ben Amoun","lon":2.17623,"lat":36.1094,"pop":0},{"id":7490598,"name":"Ben Aouda Abd el Kader","lon":0.93082,"lat":35.43591,"pop":0},{"id":7434270,"name":"Ben Atala","lon":2.49112,"lat":36.14124,"pop":0},{"id":2504960,"name":"Ben Attali","lon":2.75082,"lat":36.31348,"pop":0},{"id":2504950,"name":"Ben Badis","alt":["Descartes"],"lon":-0.91609,"lat":34.95234,"pop":0},{"id":2504934,"name":"Ben Chabane","alt":["Ben Chaabane","Ben Chaâbane"],"lon":2.87639,"lat":36.62024,"pop":0},{"id":2577825,"name":"Ben Chenine","lon":0.01194,"lat":35.61222,"pop":0},{"id":2504915,"name":"Ben Chicao","alt":["Ben Chikao"],"lon":2.84865,"lat":36.19962,"pop":0},{"id":2499519,"name":"Ben Daoud","alt":["Douar Ben Daoud"],"lon":0.52024,"lat":35.71914,"pop":0},{"id":2504860,"name":"Ben Draou","lon":-0.42381,"lat":28.00329,"pop":0},{"id":2593167,"name":"Ben el Djir","lon":4.19414,"lat":35.63365,"pop":0},{"id":2504816,"name":"Ben Griba","alt":["Douar Ben Griba"],"lon":6.93532,"lat":36.38134,"pop":0},{"id":2504811,"name":"Ben Guemmez","lon":5.27548,"lat":35.76952,"pop":0},{"id":2504805,"name":"Ben Guermout","alt":["Ben Guermont","Douar Ben Guermout"],"lon":-0.54061,"lat":35.72275,"pop":0},{"id":2573442,"name":"Ben Halima","lon":1.55499,"lat":36.14099,"pop":0},{"id":2504788,"name":"Ben Hammam","lon":1.26196,"lat":35.96709,"pop":0},{"id":2573631,"name":"Ben Hammouda","lon":3.67139,"lat":36.77944,"pop":0},{"id":2504779,"name":"Ben Hamza","lon":3.89326,"lat":36.83215,"pop":0},{"id":2504775,"name":"Ben Haroun","lon":3.77523,"lat":36.45019,"pop":0},{"id":2504764,"name":"Ben Hebal","lon":5.57643,"lat":35.43703,"pop":0},{"id":2504760,"name":"Ben Henni","lon":-0.30419,"lat":27.62734,"pop":0},{"id":2573317,"name":"Ben Houria","lon":1.60556,"lat":36.42194,"pop":0},{"id":2504539,"name":"Ben Kadach Salah","lon":6.76699,"lat":35.68415,"pop":0},{"id":2573633,"name":"Ben Ksir","lon":3.68,"lat":36.80139,"pop":0},{"id":2504490,"name":"Ben Mannsour","lon":4.91618,"lat":36.71133,"pop":0},{"id":2504486,"name":"Ben Mehidi","alt":["Morris"],"lon":7.90641,"lat":36.76967,"pop":28398},{"id":2504483,"name":"Ben Mered","lon":3.22879,"lat":36.75751,"pop":0},{"id":2504473,"name":"Ben Moktar","alt":["Douar Ben Moktar"],"lon":7.23875,"lat":36.7426,"pop":0},{"id":2504453,"name":"Ben N’Choud","alt":["Ben N'Choud","Ben Nchodd"],"lon":3.88035,"lat":36.86318,"pop":0},{"id":2504455,"name":"Ben Nasseur","lon":6.43333,"lat":33.11667,"pop":0},{"id":2504445,"name":"Ben Nessah","alt":["Ben Nessali"],"lon":2.70991,"lat":36.59499,"pop":0},{"id":7468820,"name":"Ben Nirane","lon":0.66956,"lat":35.1183,"pop":0},{"id":2504426,"name":"Ben Ouadâa","lon":7.21149,"lat":36.18375,"pop":0},{"id":7490931,"name":"Ben Ouis Rabah","lon":0.97043,"lat":35.48959,"pop":0},{"id":2504359,"name":"Ben S’Rour","alt":["Ain Ben Srour","Aine Ben Srour","Aïn Ben Srour","Aïne Ben Srour","Ben S'Rour"],"lon":4.56333,"lat":35.03778,"pop":0},{"id":2593170,"name":"Ben S’rourr","lon":4.56229,"lat":35.04053,"pop":0},{"id":2573185,"name":"Ben Saâd","lon":1.74036,"lat":36.28065,"pop":0},{"id":7379696,"name":"Ben Saïd","lon":1.10957,"lat":36.19377,"pop":0},{"id":2504397,"name":"Ben Salah","lon":2.80614,"lat":36.57363,"pop":0},{"id":2504392,"name":"Ben Saoucha","lon":4.72085,"lat":35.62974,"pop":0},{"id":2504369,"name":"Ben Smih","alt":["Fesli Rabah","Lapaine"],"lon":7.52639,"lat":36.36868,"pop":0},{"id":2504344,"name":"Ben Talah","lon":-0.23956,"lat":28.31252,"pop":0},{"id":2475087,"name":"Ben Tazerit","alt":["Village Ben Tezerhrit"],"lon":3.73087,"lat":36.58396,"pop":0},{"id":2504317,"name":"Ben Thious","alt":["Ben Thiouss"],"lon":5.4804,"lat":34.64566,"pop":0},{"id":2504301,"name":"Ben Turkia","lon":3.40534,"lat":36.73933,"pop":0},{"id":2504293,"name":"Ben Yakoub","alt":["Ben Jakoub","Ben Yacoub"],"lon":2.7862,"lat":34.46444,"pop":0},{"id":2496901,"name":"Ben Zahni","alt":["Ez Zourek","Ez Zoûrek"],"lon":-1.92238,"lat":35.04181,"pop":0},{"id":8280612,"name":"Ben Zeghaïmi","lon":3.29555,"lat":36.1965,"pop":0},{"id":2583029,"name":"Ben Zemlane","lon":3.51083,"lat":35.87333,"pop":0},{"id":2504275,"name":"Ben Zerga","lon":3.25009,"lat":36.76516,"pop":0},{"id":2504265,"name":"Ben Zireg","lon":-1.83848,"lat":31.91914,"pop":0},{"id":2496392,"name":"Benairia","alt":["Ben Naria","Benaria","Flatters"],"lon":1.37403,"lat":36.3539,"pop":0},{"id":7392541,"name":"Benatia","lon":0.18031,"lat":35.26009,"pop":0},{"id":2504883,"name":"Bendida","lon":-0.65549,"lat":35.0571,"pop":0},{"id":2504823,"name":"Benfreha","alt":["Assi Ben Fereah","Legrand"],"lon":-0.41847,"lat":35.69337,"pop":0},{"id":2573570,"name":"Benhammouch","lon":3.54917,"lat":36.77861,"pop":0},{"id":2504755,"name":"Béni Abbès","alt":["Beni Abbes","Beni Abbès","BeniAbbes","بني عباس"],"lon":-2.16611,"lat":30.13306,"pop":11416},{"id":2504750,"name":"Beni Abdallah","lon":5.22656,"lat":36.54106,"pop":0},{"id":2504749,"name":"Beni Abdi","lon":2.98333,"lat":36.66667,"pop":0},{"id":2504743,"name":"Beni Aïssi","alt":["Beni Aissi","Ouled Aissa","Ouled Aïssa"],"lon":0.25233,"lat":29.59496,"pop":0},{"id":2504742,"name":"Beni Akil","lon":1.59085,"lat":36.48169,"pop":0},{"id":2573249,"name":"Beni Amar","lon":1.7062,"lat":36.42871,"pop":0},{"id":2504739,"name":"Beni Amrane","alt":["Ait Belaid","Ait Bélaid","At Ɛemran","Beni Amran","بني عمران"],"lon":3.59115,"lat":36.66774,"pop":18414},{"id":2504728,"name":"Beni Attah","alt":["Douar Beni Attah"],"lon":0.84515,"lat":35.39308,"pop":0},{"id":2504725,"name":"Beni Bahdel","alt":["Beni Babdel"],"lon":-1.51595,"lat":34.70982,"pop":0},{"id":2504723,"name":"Beni Bechîr","alt":["Beni Bechir"],"lon":6.93333,"lat":36.78333,"pop":0},{"id":2504721,"name":"Beni Belaaz","lon":3.25123,"lat":36.40965,"pop":0},{"id":2573184,"name":"Beni Berri","lon":1.72931,"lat":36.26501,"pop":0},{"id":2573281,"name":"Beni Berri","lon":1.6307,"lat":36.26987,"pop":0},{"id":2504720,"name":"Beni Bezzez","lon":5.5,"lat":36.51667,"pop":0},{"id":2504718,"name":"Beni Bou Aïch","lon":1.82436,"lat":36.44667,"pop":0},{"id":2504717,"name":"Beni Bou Atmane","lon":2.01109,"lat":36.52804,"pop":0},{"id":2575887,"name":"Beni Bou Bekh","lon":2.80361,"lat":36.33222,"pop":0},{"id":2573248,"name":"Beni Bou Chichem","lon":1.69553,"lat":36.42587,"pop":0},{"id":2504716,"name":"Beni Bou Hanou","lon":1.77194,"lat":36.45999,"pop":0},{"id":7525164,"name":"Beni Bou Setour","lon":1.63983,"lat":36.00188,"pop":0},{"id":7525124,"name":"Beni Bouateb","lon":1.5372,"lat":36.05169,"pop":0},{"id":2504715,"name":"Beni Bouhelf","lon":1.79475,"lat":36.41324,"pop":0},{"id":2504714,"name":"Beni Brahim","alt":["Douar Beni Brahim"],"lon":7.24426,"lat":36.44021,"pop":0},{"id":2579962,"name":"Beni Dergoun","alt":["bldyt bny drqn","bny drqn","بلدية بني درقن","بني درقن"],"lon":0.80351,"lat":35.79623,"pop":0},{"id":2504705,"name":"Beni Dja’âd","alt":["Beni Dja'ad","Beni Djiad"],"lon":4.70783,"lat":36.49813,"pop":0},{"id":2504703,"name":"Beni Douala","alt":["Beni Doula"],"lon":4.08282,"lat":36.61954,"pop":33611},{"id":2504701,"name":"Beni el Maï","lon":5.31684,"lat":35.7073,"pop":0},{"id":2504700,"name":"Beni Embarek","alt":["Beni M'Bareck","Beni M’Bareck"],"lon":5.00261,"lat":36.69893,"pop":0},{"id":2504699,"name":"Beni Enntas","lon":3.69708,"lat":36.60197,"pop":0},{"id":2504697,"name":"Beni Ferah","lon":5.83223,"lat":35.14407,"pop":0},{"id":2504694,"name":"Beni Fouda","lon":3.48914,"lat":36.71371,"pop":0},{"id":2504695,"name":"Beni Fouda","alt":["Sillegue","Sillègue"],"lon":5.60722,"lat":36.28611,"pop":0},{"id":2504690,"name":"Beni Guecha","alt":["Lucet"],"lon":5.9928,"lat":36.39267,"pop":0},{"id":2504688,"name":"Beni Guenndourz","lon":5.10673,"lat":36.56928,"pop":0},{"id":2500913,"name":"Beni Hachem","alt":["Dar Beni Hachem"],"lon":0.37544,"lat":35.57528,"pop":0},{"id":2504684,"name":"Beni Hafod","alt":["Beni Hafedh"],"lon":4.81054,"lat":36.39729,"pop":0},{"id":2504680,"name":"Beni Hammou","lon":-1.53752,"lat":34.64364,"pop":0},{"id":2504679,"name":"Beni Hamou","alt":["Beni Hammou"],"lon":3.88444,"lat":36.72572,"pop":0},{"id":2504674,"name":"Beni Haoua","alt":["Béni Haoua","Francis","Francis-Garnier","Port Brierer","بنى حواء"],"lon":1.56891,"lat":36.5311,"pop":0},{"id":2504664,"name":"Beni Ikhlef","alt":["Beni Iklef"],"lon":4.23497,"lat":36.36361,"pop":0},{"id":2504665,"name":"Beni Ikhlef","alt":["At Ixlef","Béni Ikhlef","Ikrlef","bny ykhlf","بني يخلف"],"lon":-1.613,"lat":29.57488,"pop":0},{"id":2504662,"name":"Beni Isguen","alt":["at ayzjn","at yzjn","bny yzjn","bny yzqn","qsr bny yzjn","آت إيزجن","أت يزجن","بني يزجن","بني يزقن","قصر بني يزجن"],"lon":3.70111,"lat":32.47484,"pop":0},{"id":2504659,"name":"Beni Isouid","lon":6.08333,"lat":33.1,"pop":0},{"id":2504657,"name":"Beni Kati","lon":5.47945,"lat":36.616,"pop":0},{"id":2504655,"name":"Beni Khalifa","lon":2.84309,"lat":36.28158,"pop":0},{"id":2504652,"name":"Beni Khannous","lon":1.5859,"lat":36.12715,"pop":0},{"id":2575786,"name":"Beni Kheddi","lon":2.84861,"lat":36.30278,"pop":0},{"id":2504649,"name":"Beni Kina","lon":2.92008,"lat":36.53048,"pop":0},{"id":2504645,"name":"Beni Lalem","lon":4.78079,"lat":36.29163,"pop":0},{"id":2504642,"name":"Beni Mafer","lon":7.75,"lat":36.91667,"pop":0},{"id":2504641,"name":"Beni Mahmoud","lon":4.31634,"lat":36.52556,"pop":0},{"id":2504638,"name":"Beni Maloum","lon":3.45105,"lat":36.25711,"pop":0},{"id":2504633,"name":"Beni Matas","lon":3.89199,"lat":36.49888,"pop":0},{"id":2582323,"name":"Beni Mdas","lon":6.26583,"lat":37.00972,"pop":0},{"id":2504630,"name":"Beni Mehlal","alt":["ath mhlal","bny mhlal","آث مهلال","بني مهلال"],"lon":0.2029,"lat":29.23295,"pop":0},{"id":2504628,"name":"Beni Mêlek","lon":6.88333,"lat":36.88333,"pop":0},{"id":2504625,"name":"Beni Melloul","lon":1.72175,"lat":36.0756,"pop":0},{"id":2504624,"name":"Beni Melouk","alt":["ath amlwk","bny mlwk","آث أملوك","بني ملوك"],"lon":0.18605,"lat":29.18236,"pop":0},{"id":2573214,"name":"Beni Merahba","lon":1.69936,"lat":36.35112,"pop":0},{"id":2504623,"name":"Beni Meraz","lon":5.73985,"lat":36.65403,"pop":0},{"id":2504622,"name":"Beni Mered","lon":2.86131,"lat":36.52389,"pop":92749},{"id":2504616,"name":"Beni Mester","lon":-1.42319,"lat":34.87045,"pop":19808},{"id":7512530,"name":"Beni Mhoussen","lon":1.78879,"lat":36.3747,"pop":0},{"id":2573263,"name":"Beni Mileuk","lon":1.71698,"lat":36.44469,"pop":0},{"id":7467257,"name":"Beni Moussi","lon":1.1608,"lat":36.29621,"pop":0},{"id":2504602,"name":"Beni Nasseur","lon":1.8565,"lat":36.40964,"pop":0},{"id":2504599,"name":"Beni Ou ’Ammar","lon":4.4,"lat":36.45,"pop":0},{"id":2504600,"name":"Beni Ouaggag","alt":["Beni Ouagag","Beni Ouagueg"],"lon":4.24695,"lat":36.17785,"pop":0},{"id":2577463,"name":"Beni Ouendjel","lon":0.90382,"lat":35.03413,"pop":0},{"id":2504595,"name":"Beni Ouidene","alt":["Beni Ouiden"],"lon":4.4374,"lat":36.33273,"pop":0},{"id":2504594,"name":"Beni Ounif","alt":["At Winifen","Béni Ounif","Revoil-Beni-Ounif","Révoil-Beni-Ounif","bny wnyf","بني ونيف"],"lon":-1.24878,"lat":32.04875,"pop":0},{"id":2504588,"name":"Beni Rached","alt":["Village des Beni Rached"],"lon":1.52185,"lat":36.27679,"pop":0},{"id":2504587,"name":"Beni Rhanane","lon":-1.41877,"lat":35.25349,"pop":0},{"id":2504414,"name":"Beni Rhazi","lon":3.10166,"lat":36.68639,"pop":0},{"id":2504582,"name":"Beni Saâd","alt":["Beni Saad","Beni Sad"],"lon":1.64449,"lat":36.42167,"pop":0},{"id":2504581,"name":"Beni Saf","alt":["Bani Saf","Bani Ṣāf","Beni Sat","bny saf","بني صاف","ⴱⵏⵉ ⵙⴰⴼ"],"lon":-1.38226,"lat":35.30099,"pop":46382},{"id":2504578,"name":"Beni Saïd","alt":["Beni Said","Zaouia des Beni Said","Zaouia des Beni Saïd"],"lon":6.52799,"lat":37.01746,"pop":0},{"id":2504569,"name":"Beni Sellam","lon":4.47957,"lat":36.45384,"pop":0},{"id":2504564,"name":"Beni Slimane","lon":2.75472,"lat":36.34889,"pop":0},{"id":2504565,"name":"Beni Slimane","lon":3.30596,"lat":36.22703,"pop":0},{"id":2504558,"name":"Beni Souk","alt":["Beni Souik"],"lon":5.86322,"lat":35.08905,"pop":0},{"id":2504557,"name":"Beni Soula","lon":4.51667,"lat":36.6,"pop":0},{"id":2504555,"name":"Beni Tamer","lon":-0.27042,"lat":27.82814,"pop":0},{"id":2504553,"name":"Beni Tamou","lon":2.82174,"lat":36.53833,"pop":0},{"id":2504552,"name":"Beni Thour","lon":5.32814,"lat":31.96309,"pop":0},{"id":2504550,"name":"Beni Tokaï","lon":1.78111,"lat":36.41381,"pop":0},{"id":2504544,"name":"Beni Ya’koûb","alt":["Beni Ya'koub","Douar Beni Yacoub"],"lon":-1.49727,"lat":34.96248,"pop":0},{"id":2499511,"name":"Beni Yahi","alt":["Benihi","Douar Beni Yahi","Douar Benihi"],"lon":0.03378,"lat":35.76741,"pop":0},{"id":2499512,"name":"Beni Yahi","alt":["Douar Beni Yahi"],"lon":0.50833,"lat":35.61694,"pop":0},{"id":2578138,"name":"Beni Yahi","alt":["Douar Essentahia"],"lon":0.4473,"lat":35.62746,"pop":0},{"id":2504545,"name":"Beni Yakoub","alt":["Douar Beni Yakoub"],"lon":-1.20812,"lat":34.81943,"pop":0},{"id":2499228,"name":"Beni Zhana","alt":["Douar Sidi La'radj","Douar Sidi La’radj"],"lon":-1.48256,"lat":35.27078,"pop":0},{"id":2504541,"name":"Beni Znassene","alt":["Dechret Beni Znassene"],"lon":-0.95493,"lat":34.84323,"pop":0},{"id":2504735,"name":"Beniane","alt":["Benian","Bénian"],"lon":0.22967,"lat":35.09972,"pop":0},{"id":2578855,"name":"Benihi","alt":["Douar Benihi"],"lon":0.03556,"lat":35.77083,"pop":0},{"id":2504603,"name":"Benina","lon":5.1251,"lat":36.11305,"pop":0},{"id":2573662,"name":"Bennabri","lon":3.74917,"lat":36.84278,"pop":0},{"id":2504452,"name":"Benndou","lon":2.5325,"lat":36.4364,"pop":0},{"id":2573660,"name":"Benouali","lon":3.73278,"lat":36.83861,"pop":0},{"id":2504385,"name":"Bensekrane","alt":["Ben Sokrane","Pont de l'Isser","Pont de l’Isser"],"lon":-1.22431,"lat":35.07465,"pop":21283},{"id":2580203,"name":"Bent Doudi","lon":0.50553,"lat":35.84993,"pop":0},{"id":7452068,"name":"Bentrad","lon":2.8474,"lat":36.1367,"pop":0},{"id":2504295,"name":"Benyahia Abderrahmane","alt":["Aziz Ben Tellis"],"lon":6.01332,"lat":36.23266,"pop":0},{"id":7392088,"name":"Benzekri Ben Allou","lon":0.14378,"lat":35.84253,"pop":0},{"id":2504257,"name":"Benzouh","lon":4.02034,"lat":35.42084,"pop":0},{"id":2504247,"name":"Berafaï","lon":3.66604,"lat":36.73882,"pop":0},{"id":2504244,"name":"Bérard","lon":2.60926,"lat":36.60293,"pop":0},{"id":2504234,"name":"Berbessa","lon":2.74825,"lat":36.61265,"pop":0},{"id":2504199,"name":"Berdoun","lon":4.88233,"lat":36.59866,"pop":0},{"id":2504184,"name":"Berhaoun","alt":["Beraoun"],"lon":-1.87711,"lat":35.0584,"pop":0},{"id":2504175,"name":"Berhoum","alt":["Berhoun","Souk Ouled Nadja","Souk des Ouled Nadja"],"lon":5.03386,"lat":35.65455,"pop":0},{"id":2504168,"name":"Berkaïs","alt":["Berkais","Berkaiss","Berkaïss"],"lon":4.5,"lat":36.56667,"pop":0},{"id":2504151,"name":"Berkoussa","alt":["Douar Berkoussa"],"lon":-1.78878,"lat":35.08962,"pop":0},{"id":2504150,"name":"Bermafou","lon":4.66667,"lat":36.61667,"pop":0},{"id":12149332,"name":"Berrahab","lon":7.10265,"lat":36.20798,"pop":1000},{"id":2504136,"name":"Berrahal","alt":["Ain Mokra","Aine Mokra","Aïn Mokra","Aïne Mokra"],"lon":7.45333,"lat":36.83528,"pop":19294},{"id":2504110,"name":"Berriane","alt":["Berrian","ZBI"],"lon":3.76689,"lat":32.82648,"pop":44580},{"id":2504107,"name":"Berriche","alt":["Beridj","Jean-Rigal"],"lon":7.37667,"lat":35.91444,"pop":0},{"id":2504099,"name":"Berrouaghia","alt":["Berrouarhia"],"lon":2.91085,"lat":36.13516,"pop":80573},{"id":2504072,"name":"Besbes","alt":["Randon"],"lon":7.84722,"lat":36.70222,"pop":66287},{"id":7442413,"name":"Betam","lon":2.71683,"lat":36.1411,"pop":0},{"id":7407081,"name":"Betioua","lon":0.39689,"lat":35.68887,"pop":0},{"id":2504001,"name":"Betteka","lon":5.4603,"lat":32.61487,"pop":0},{"id":2503998,"name":"Bettioua","alt":["Bat'tiwa","Bethioua","Bethioua ed Douamis","QBT","Saint-Leu","Saint-Leu-d' Algerie","Saint-Leu-d’ Algérie","Sainte Leu"],"lon":-0.2651,"lat":35.80058,"pop":0},{"id":2503979,"name":"Beymouth","lon":0.08424,"lat":35.91723,"pop":0},{"id":2503977,"name":"Bezaïr","lon":1.46788,"lat":36.12034,"pop":0},{"id":2503971,"name":"Bezit","lon":4.72122,"lat":36.81292,"pop":0},{"id":2503965,"name":"Bezzit","lon":3.9069,"lat":36.4443,"pop":0},{"id":2503949,"name":"Bichara","alt":["Mechta Bichara","Mechtat Bichara"],"lon":4.79891,"lat":35.81355,"pop":0},{"id":2503948,"name":"Bicher","lon":4.63574,"lat":36.39297,"pop":0},{"id":2503946,"name":"Bida","lon":5.57278,"lat":36.56194,"pop":0},{"id":2503936,"name":"Bigou","lon":5.53947,"lat":34.66229,"pop":0},{"id":2573126,"name":"Bihtita","lon":1.7061,"lat":36.51303,"pop":0},{"id":2499505,"name":"Bilouma","alt":["Douar Bilouma"],"lon":0.14705,"lat":35.72377,"pop":0},{"id":2503900,"name":"Bir Aïssa","alt":["Bir Aissa","La Barbinais"],"lon":4.96536,"lat":36.06064,"pop":0},{"id":8281890,"name":"Bir Ayad","lon":3.46822,"lat":36.04833,"pop":0},{"id":8281418,"name":"Bir Ben Laabed","lon":3.42111,"lat":36.18923,"pop":0},{"id":2503894,"name":"Bir Besbes","lon":4.99318,"lat":34.1448,"pop":0},{"id":2503892,"name":"Bir Braïch","lon":5.23952,"lat":35.93437,"pop":0},{"id":2503891,"name":"Bir Chaham","lon":5.03697,"lat":35.91915,"pop":0},{"id":2503890,"name":"Bir Cheham","alt":["Ban Cheham"],"lon":7.07161,"lat":35.96477,"pop":0},{"id":2503889,"name":"Bir Chouhada","alt":["Azlet el Beilek","Azlet el Beïlek","Levasseur"],"lon":6.39556,"lat":35.89583,"pop":0},{"id":2570502,"name":"Bir Draaes Souk","lon":6.57722,"lat":35.99278,"pop":0},{"id":2503881,"name":"Bir el Arbi","lon":4.65247,"lat":35.32649,"pop":0},{"id":2503880,"name":"Bir el Arche","alt":["Bir el Arch","Bir-Lahrech","Navarin"],"lon":5.83904,"lat":36.13083,"pop":0},{"id":2503878,"name":"Bir el Ater","alt":["byr alʿatr","بئر العاتر","بير العاتر"],"lon":8.06024,"lat":34.74488,"pop":68703},{"id":2503874,"name":"Bir el Djir","alt":["Arcole"],"lon":-0.545,"lat":35.72,"pop":68032},{"id":2503871,"name":"Bir el Hamia","lon":4.50921,"lat":35.35696,"pop":0},{"id":2503870,"name":"Bir el Keraa","lon":4.64691,"lat":35.35262,"pop":0},{"id":2503869,"name":"Bir el Khoubbana","lon":4.55888,"lat":35.34656,"pop":0},{"id":2503867,"name":"Bir el M’Kaddem","alt":["Bir Mokaddem","Bir el M'Kaddem","Troubia"],"lon":7.80136,"lat":35.447,"pop":0},{"id":2503864,"name":"Bir er Raïane","lon":6.25643,"lat":35.88941,"pop":0},{"id":2503863,"name":"Bir ez Zrof","lon":6.5222,"lat":35.81422,"pop":0},{"id":2503862,"name":"Bir Fodda","lon":3.75599,"lat":34.81643,"pop":0},{"id":2503861,"name":"Bir Ghbalou","alt":["Bir Rabalou"],"lon":3.58523,"lat":36.26317,"pop":0},{"id":2503859,"name":"Bir Ghellalia","alt":["Bir Guellalia","Guelalia"],"lon":4.79082,"lat":35.32811,"pop":0},{"id":2503857,"name":"Bir Haddada","lon":5.43306,"lat":35.96333,"pop":0},{"id":2503856,"name":"Bir Hamoudi","lon":4.99978,"lat":35.90724,"pop":0},{"id":2503855,"name":"Bir Hanate","lon":4.64067,"lat":35.5343,"pop":0},{"id":2503854,"name":"Bir Heni","lon":4.40707,"lat":35.32264,"pop":0},{"id":2503849,"name":"Bir Kasdali","lon":5.02762,"lat":36.14447,"pop":0},{"id":2503845,"name":"Bir Khenafis","alt":["Mechtat Bir Khenafes","Mechtat Bir Khenafis"],"lon":7.92403,"lat":35.55879,"pop":0},{"id":2503844,"name":"Bir Louksia","lon":5.2775,"lat":35.8775,"pop":0},{"id":2503842,"name":"Bir Messaoud","lon":3.08405,"lat":35.73614,"pop":0},{"id":2497460,"name":"Bir Mourad Raïs","alt":["Bir Mourad Rais","Birmandreis","El Mouradia","La Redoute","Le Redoute","bldyt byr mrad rays","byr mrad rays","بئر مراد رايس","بئر مراد رایس","بلدية بئر مراد رايس","بير مراد رايس","بیر مراد رایس"],"lon":3.03916,"lat":36.7458,"pop":0},{"id":7525638,"name":"Bir Nhass","lon":1.64166,"lat":36.21771,"pop":0},{"id":2592668,"name":"Bir Ould Khelifa","alt":["Bir Ouled Khelifa"],"lon":2.23028,"lat":36.18028,"pop":0},{"id":8280584,"name":"Bir Ouled Aïcha","lon":3.33954,"lat":36.24338,"pop":0},{"id":2574606,"name":"Bir Rakkâd","lon":6.67778,"lat":36.74917,"pop":0},{"id":2503837,"name":"Bir Roubeï","lon":4.44282,"lat":35.33083,"pop":0},{"id":2475097,"name":"Bir Safsaf","alt":["Bir Saf Saf","Bokat ez Zekateia","Vauban","byr sfsaf","بئر صفصاف","بير صفصاف"],"lon":1.59364,"lat":36.20279,"pop":0},{"id":2503836,"name":"Bir Salem","lon":8.05476,"lat":35.39813,"pop":0},{"id":2503834,"name":"Bir Sidi el Hadi","lon":6.50793,"lat":35.77933,"pop":0},{"id":2503832,"name":"Bir Souid","lon":4.43515,"lat":35.60578,"pop":0},{"id":2478942,"name":"Bir Tachema","lon":5.89588,"lat":35.90178,"pop":0},{"id":11203972,"name":"Bir Tandja","lon":6.82007,"lat":36.11647,"pop":0},{"id":2573588,"name":"Bir Zaâtra","lon":3.60556,"lat":36.75333,"pop":0},{"id":2589457,"name":"Bir Zlas","lon":8.26107,"lat":35.70322,"pop":0},{"id":2503852,"name":"Birine","alt":["Birin"],"lon":3.225,"lat":35.635,"pop":51209},{"id":2503847,"name":"Birkhadem","alt":["Birkadem","byr khadm","بئر خادم"],"lon":3.05002,"lat":36.71499,"pop":71722},{"id":2503829,"name":"Birtouta","lon":3,"lat":36.64515,"pop":0},{"id":2503826,"name":"Biskra","alt":["BSK","Biskira","Briskra","Tibeskert","bi si ke la","bisakra","biseukeula","bisukura","bskrh","bskrt","wlayt bskrt","Бискра","Біскра","بسكرة","بسکره","بسکرہ","ولاية بسكرة","বিসক্রা","ビスクラ","比斯克拉","비스크라"],"lon":5.72805,"lat":34.85038,"pop":307987},{"id":2503818,"name":"Bissy","lon":7.01667,"lat":36.76667,"pop":0},{"id":2503809,"name":"Bit el Kheïr","lon":3.12664,"lat":35.88485,"pop":0},{"id":7429617,"name":"Bit Esselah","lon":2.03782,"lat":36.23897,"pop":0},{"id":2503816,"name":"Bitam","lon":5.3,"lat":35.3,"pop":0},{"id":2503813,"name":"Bitaoua","lon":6.1013,"lat":35.16825,"pop":0},{"id":2503802,"name":"Bizarga","lon":4.45155,"lat":36.89749,"pop":0},{"id":8281468,"name":"Bled el Hamadia","lon":3.48931,"lat":36.13922,"pop":0},{"id":7438368,"name":"Bled el Harigua","lon":2.38512,"lat":35.50597,"pop":0},{"id":7525392,"name":"Bled el M’hada","lon":1.62383,"lat":36.09214,"pop":0},{"id":2503778,"name":"Bled es Sahel","lon":2.5,"lat":36.46667,"pop":0},{"id":2503776,"name":"Bled Rhaffar","alt":["Bled Chafiar","Bled Ghaffar","Bled Ghafiar"],"lon":7.51932,"lat":36.38963,"pop":0},{"id":8281338,"name":"Bled Sidi el Mergueb","lon":3.39933,"lat":36.14356,"pop":0},{"id":7525157,"name":"Bled Soualah","alt":["Beni Bouateb","Beni Bouâteb"],"lon":1.58959,"lat":36.04981,"pop":0},{"id":2503772,"name":"Bled Youssef","alt":["Ribeauville"],"lon":6.26639,"lat":36.31417,"pop":0},{"id":2503769,"name":"Blida","alt":["Al-Bulajda","Bilda","Buleyde","Dilida","El Bouleida","QLD","alblydh","alblydt","b li da","beullida","bo li da","burida","Блида","Бліда","البليدة","البلیده","بلیدہ","บลีดา","ブリダ","卜利达","블리다"],"lon":2.8277,"lat":36.47004,"pop":182447},{"id":2503763,"name":"Blidet Amor","alt":["Bled et Amor"],"lon":5.9728,"lat":32.94305,"pop":0},{"id":2503762,"name":"Blondel","alt":["Aine Soltane","Aïne Soltane"],"lon":4.73333,"lat":36.13333,"pop":0},{"id":2503761,"name":"Bloumet","alt":["Arrem Bloumet"],"lon":6.1,"lat":23.45,"pop":0},{"id":2503756,"name":"Boghar","lon":2.71667,"lat":35.91139,"pop":0},{"id":2503755,"name":"Boghni","alt":["Boghari","Borhni","Bughni","Bugni","Būghnī","Būġnī","bwghny","بوغني"],"lon":3.95306,"lat":36.54222,"pop":54666},{"id":2503746,"name":"Bois Sacré","lon":2.30911,"lat":36.5658,"pop":0},{"id":2503745,"name":"Boka’et Chouîyât","alt":["Boka'et Chouiyat","Mechta Chouiat","Mechta Chouïat"],"lon":1.35878,"lat":36.20505,"pop":0},{"id":2503734,"name":"Boka’et Ouled Hammadi","alt":["Boka'et Ouled Hammadi","Oulad Hammadji"],"lon":1.12804,"lat":36.15491,"pop":0},{"id":2573402,"name":"Bokat","lon":1.52266,"lat":36.24121,"pop":0},{"id":2503728,"name":"Bokat Habazane","lon":1.51667,"lat":36.3,"pop":0},{"id":2503724,"name":"Bologhine","alt":["Bologuine Ibnou Ziri","Bologuine Ihnouziri","Bulughin","Bulugin","Būlūghīn","Būlūġīn","Saint-Eugene","Saint-Eugène","Sainte Eugene","Sainte Eugène","bldyt bwlwghyn","blkyn","blkyn bn zyry","blqyn","blqyn bn zyry","bwlwghyn","sant awjyn","بلدية بولوغين","بلقين","بلقين بن زيري","بلكين","بلكين بن زيري","بولوغين","بولوغین","سانت أوجين"],"lon":3.04016,"lat":36.80673,"pop":0},{"id":2503723,"name":"Bondjih","lon":4.90321,"lat":36.46042,"pop":0},{"id":2572569,"name":"Bordi el Mathen","lon":1.38349,"lat":36.40377,"pop":0},{"id":2570508,"name":"Bordiel el Hassane","lon":7.70194,"lat":36.1175,"pop":0},{"id":2503718,"name":"Bordj","lon":2.61591,"lat":34.64017,"pop":0},{"id":7392179,"name":"Bordj Amar","lon":0.09113,"lat":35.92479,"pop":0},{"id":2596771,"name":"Bordj Badji Mokhtar","alt":["BMW","brj bajy mkhtar","برج باجي مختار","برج باجی مختار"],"lon":0.94791,"lat":21.3292,"pop":0},{"id":2503706,"name":"Bordj Ben Ali Cherif","lon":5.15313,"lat":36.22757,"pop":0},{"id":2503704,"name":"Bordj Ben Embarek","alt":["Bordj Ben Embareck"],"lon":6.57164,"lat":36.48213,"pop":0},{"id":2503703,"name":"Bordj Ben Zeggouta","lon":6.2697,"lat":36.30166,"pop":0},{"id":2503702,"name":"Bordj Bou Akkaz","lon":5.9,"lat":36.45,"pop":0},{"id":2503701,"name":"Bordj Bou Arréridj","alt":["Bordj Bou Arerridj","Bordj Bou Arreridj","Bordj-Bou-Arreridj","BordjBouArreridj","Borj Bu Arrerij","Burdz Bu Urajridz","Burdż Bu Urajridż","QBJ","برج بوعريريج"],"lon":4.76139,"lat":36.07389,"pop":168346},{"id":2503697,"name":"Bordj Bou Harket","alt":["Bordj Bou Harkett"],"lon":0.96546,"lat":34.84578,"pop":0},{"id":2503696,"name":"Bordj Bou Lakkhas Ben Gannah","alt":["Bordj Bou Lakkras Ben Gannah"],"lon":6.34671,"lat":36.34153,"pop":0},{"id":2503694,"name":"Bordj Bou Rerhda","alt":["Bordj Bou Rerhan"],"lon":5.37529,"lat":36.13635,"pop":0},{"id":2503693,"name":"Bordj Bou Rougaa","lon":7.22967,"lat":36.21889,"pop":0},{"id":2503695,"name":"Bordj Bounaama","alt":["Bordj Chahid Bounaama","Moliere","Molière"],"lon":1.61806,"lat":35.85167,"pop":0},{"id":2503692,"name":"Bordj Brahim Ben el Kassem","alt":["Bordj Brahim Ben el Kacem"],"lon":7.60546,"lat":36.36069,"pop":0},{"id":2503691,"name":"Bordj Caïd Tahar","lon":7.36497,"lat":36.83904,"pop":0},{"id":2503690,"name":"Bordj Chabet Zekkar","lon":5.66401,"lat":36.44195,"pop":0},{"id":2503689,"name":"Bordj Chandez","lon":5.31006,"lat":31.95422,"pop":0},{"id":2503686,"name":"Bordj de Chegga","alt":["Bordj Chegga","Borj Chegga","Chegga"],"lon":5.90894,"lat":34.4264,"pop":0},{"id":2503667,"name":"Bordj du Caïd","alt":["Bordj du Caid","Bordj el Caid","Bordj el Caïd"],"lon":6.50451,"lat":36.82411,"pop":0},{"id":2503677,"name":"Bordj du Caïd","lon":4.96366,"lat":36.19217,"pop":0},{"id":2503678,"name":"Bordj du Caïd","alt":["Bordj du Caid","Bordj du Kaid","Bordj du Kaïd"],"lon":5.48829,"lat":36.06881,"pop":0},{"id":2503679,"name":"Bordj du Caïd","lon":7.00449,"lat":35.91485,"pop":0},{"id":2503680,"name":"Bordj du Caïd","lon":8.23028,"lat":35.72701,"pop":0},{"id":2503681,"name":"Bordj du Caïd","lon":3.7611,"lat":34.70506,"pop":0},{"id":2503676,"name":"Bordj du Caïd Ahmed Lakhdar","alt":["Bordj du Caid Ahmed Lakhdar","Bordj du Kaid Hamed Lakrdar","Bordj du Kaïd Hamed Lakrdar","Bordj el Caid","Bordj el Caïd"],"lon":8.18702,"lat":35.58698,"pop":0},{"id":2503675,"name":"Bordj du Caïd Lakhdar","alt":["Beni du Caid Lakhdar","Bordj du Caid Lakdar","Bordj du Caid Lakhdar","Bordj du Caïd Lakdar"],"lon":7.29226,"lat":36.86013,"pop":0},{"id":2503674,"name":"Bordj du Cheïkh","alt":["Bordj du Cheikh","Bordj du Cheikr","Bordj du Cheïkr"],"lon":8.17013,"lat":36.22924,"pop":0},{"id":2503673,"name":"Bordj du Keskes","alt":["Bordj Ben Keskess","Bordj Ben Keskèss"],"lon":5.49083,"lat":36.09051,"pop":0},{"id":2503672,"name":"Bordj du Marabout","lon":7.33604,"lat":36.81295,"pop":0},{"id":2503671,"name":"Bordj ech Cheikh ed Daïf","alt":["Bordj ech Cheikh","Bordj ech Cheikh ed Daif"],"lon":6.97269,"lat":36.70813,"pop":0},{"id":2503669,"name":"Bordj el Bahri","alt":["Cap Matifou","Matifou","brj albhry","kab matyfw","matyfw","ras matyfw","برج البحري","رأس ماتيفو","كاب ماتيفو","ماتيفو"],"lon":3.24952,"lat":36.79068,"pop":0},{"id":2503668,"name":"Bordj el Caïd","lon":4.04599,"lat":35.66857,"pop":0},{"id":2503666,"name":"Bordj el Emir Abdelkader","alt":["Bordj Emir Abdelkader","Trolard-Taza"],"lon":2.27028,"lat":35.86583,"pop":0},{"id":2503663,"name":"Bordj el Hadj el Arbi","lon":1.03892,"lat":36.30999,"pop":0},{"id":2503662,"name":"Bordj el Hadjer","lon":3.30904,"lat":35.70934,"pop":0},{"id":2503661,"name":"Bordj el Kiffan","alt":["Bordj El Kifan","Fort de l'Eau","Fort de l’Eau","brj alkyfan","برج الكيفان"],"lon":3.19249,"lat":36.74871,"pop":123246},{"id":2503657,"name":"Bordj Emir Khaled","alt":["General Gouraud","Général Gouraud","Pont du Caid","Pont du Caïd","Pont du Kaid","Pont du Kaïd"],"lon":2.20444,"lat":36.12139,"pop":0},{"id":2503654,"name":"Bordj Ghdir","alt":["Bordj R'dir","Bordj Redir","Bordj Rhedir","Bordj Rédir","Bordj R’dir"],"lon":4.89806,"lat":35.90111,"pop":34136},{"id":2503652,"name":"Bordj Hamaoui","alt":["Borj Hamaoui"],"lon":7.93344,"lat":36.7109,"pop":0},{"id":2503649,"name":"Bordj Karaïa","lon":6.36953,"lat":36.22707,"pop":0},{"id":2503648,"name":"Bordj Kerma","lon":7.67962,"lat":36.75703,"pop":0},{"id":2503647,"name":"Bordj Khemkam","lon":3.00335,"lat":35.96098,"pop":0},{"id":2503644,"name":"Bordj Lutaud","lon":5.35276,"lat":31.94438,"pop":0},{"id":2503636,"name":"Bordj M’Raou","alt":["Barj M'raou","Barj M’raou","Bordj M'Raou","Mraou"],"lon":8.32062,"lat":36.28371,"pop":0},{"id":2503643,"name":"Bordj Malek","lon":2.20935,"lat":36.47029,"pop":0},{"id":2503642,"name":"Bordj Mehiris","lon":6.9471,"lat":36.17579,"pop":0},{"id":2503641,"name":"Bordj Menaïel","alt":["Bordj Menaiel","ZZM"],"lon":3.7173,"lat":36.74328,"pop":0},{"id":2503638,"name":"Bordj Mezarzou","lon":4.36859,"lat":34.94146,"pop":0},{"id":2503635,"name":"Bordj Okhriss","alt":["Bordj Oued Okris","Bordj d'Oued Okris","Bordj d’Oued Okris"],"lon":3.97381,"lat":36.0833,"pop":0},{"id":2503633,"name":"Bordj Omar Driss","alt":["Fort Flatters","Temassinine","Zaouia el Kahla"],"lon":6.81856,"lat":28.12024,"pop":0},{"id":2503631,"name":"Bordj Oultem","alt":["brj awltam","brj wltam","برج أولتام","برج ولتام"],"lon":4.37407,"lat":35.11812,"pop":0},{"id":2503624,"name":"Bordj Sidi Hassein","lon":6.3,"lat":36.36667,"pop":0},{"id":2503622,"name":"Bordj Tiaoumine","lon":5.85038,"lat":36.46343,"pop":0},{"id":2503620,"name":"Bordj Zemoura","alt":["Zemmoura","Zemmours","Zemoura","Zemours"],"lon":4.85668,"lat":36.27462,"pop":19782},{"id":2593190,"name":"Bordjel El Hassane","lon":7.69167,"lat":36.60278,"pop":0},{"id":2503650,"name":"Bordjia","lon":0.06716,"lat":35.75135,"pop":0},{"id":2573488,"name":"Borj el Kradra","lon":2.49639,"lat":35.23833,"pop":0},{"id":2593202,"name":"Borj Scander","lon":7.70139,"lat":36.83472,"pop":0},{"id":2503564,"name":"Bou ’Adâl","alt":["Bou 'Adal","Bou Addal"],"lon":-2.00483,"lat":35.02456,"pop":0},{"id":2503450,"name":"Bou ’Asli","alt":["Bou 'Asli","Mechtat Ben Azli"],"lon":5.67252,"lat":36.70546,"pop":0},{"id":2503571,"name":"Bou Abed","lon":5.38816,"lat":36.43467,"pop":0},{"id":2503563,"name":"Bou Adda","alt":["Taddart bou Adda"],"lon":4.24099,"lat":36.62601,"pop":0},{"id":2503561,"name":"Bou Adenane","lon":4.24925,"lat":36.50291,"pop":0},{"id":2503554,"name":"Bou Adjem","alt":["Bou Hdjem","Mechta Bou Adjem","Mechtat Bou Ajem"],"lon":5.57316,"lat":36.71623,"pop":0},{"id":2503546,"name":"Bou Agba","lon":1.23126,"lat":36.07083,"pop":0},{"id":2503543,"name":"Bou Ahmar","alt":["Mechta Bou Ammar"],"lon":6.41258,"lat":35.43543,"pop":0},{"id":2503541,"name":"Bou Aïch","lon":4.94359,"lat":36.58302,"pop":0},{"id":2503522,"name":"Bou Aker","alt":["Douar Bou Aker"],"lon":1.0092,"lat":35.61852,"pop":0},{"id":2503513,"name":"Bou Alem","lon":2.45,"lat":36.25,"pop":0},{"id":2503509,"name":"Bou Ali","lon":-0.13885,"lat":27.1538,"pop":0},{"id":2582459,"name":"Bou Alkma","lon":6.33444,"lat":37.03028,"pop":0},{"id":2503502,"name":"Bou Allah","lon":3.98965,"lat":36.55178,"pop":0},{"id":7430359,"name":"Bou Allouch","lon":2.09894,"lat":36.10788,"pop":0},{"id":2503498,"name":"Bou Alloufa","alt":["Bou Halloufa"],"lon":0.88762,"lat":36.12078,"pop":0},{"id":2503490,"name":"Bou Amara","lon":5.62691,"lat":36.57684,"pop":0},{"id":2503489,"name":"Bou Amoud","lon":3.9081,"lat":35.77985,"pop":0},{"id":2503474,"name":"Bou Aoun","alt":["Bou Anoun"],"lon":4.50873,"lat":36.67513,"pop":0},{"id":2503473,"name":"Bou Arara","lon":2.28333,"lat":36.5,"pop":0},{"id":7494143,"name":"Bou Ardha","lon":1.93528,"lat":36.11355,"pop":0},{"id":2503468,"name":"Boû Arfa","alt":["Bou Arfa"],"lon":2.81464,"lat":36.46298,"pop":44143},{"id":2503459,"name":"Bou Aroua","lon":2.29561,"lat":36.57894,"pop":0},{"id":2503451,"name":"Bou Asli","alt":["Bou Asseli"],"lon":1.72419,"lat":36.30318,"pop":0},{"id":2503446,"name":"Bou Assem","lon":4.02762,"lat":36.62884,"pop":0},{"id":2503435,"name":"Bou Aziz","lon":7.10254,"lat":36.88744,"pop":0},{"id":2503433,"name":"Bou Aziza","lon":1.86667,"lat":36.53333,"pop":0},{"id":2503420,"name":"Bou Ballouta","alt":["Bou Bellouta"],"lon":7.19804,"lat":36.90649,"pop":0},{"id":2577665,"name":"Bou Barnas","lon":0.07608,"lat":35.57014,"pop":0},{"id":2503416,"name":"Bou Beïada","lon":6.78294,"lat":33.45394,"pop":0},{"id":2503412,"name":"Bou Beker","lon":5.39408,"lat":36.63905,"pop":0},{"id":2503406,"name":"Bou Berka","lon":4.88476,"lat":36.745,"pop":0},{"id":2503392,"name":"Bou Caïd","alt":["Bou Caid","Bou Gaid"],"lon":1.61972,"lat":35.89111,"pop":0},{"id":2503371,"name":"Boû Châref","lon":6.37405,"lat":36.70856,"pop":0},