[{"id":11669696,"name":"'Izbet al Atmur al Mustajada","alt":["'Ezbet Al Amtur Al Mustajaddah","Al-'Atmur al-Bahri","alʿtmwr albhry","ʿzbt alʿtmwr almstjdt","العتمور البحري","عزبة العتمور المستجدة"],"lon":32.99924,"lat":24.52358,"pop":0},{"id":363126,"name":"‘Abbād Shārūnah","alt":["`Abbad Sharuna","`Abbad Sharunah","عباد شارونة","‘Abbâd Shârûna"],"lon":30.8298,"lat":28.59629,"pop":0},{"id":408925,"name":"‘Abbās al ‘Aqqād","alt":["`Abbas al `Aqqad","`Abbas el-`Aqqad","عباس العقاد","‘Abbâs el-‘Aqqâd"],"lon":30.21686,"lat":30.72911,"pop":0},{"id":363122,"name":"‘Abbāsah","alt":["Abbasa","Abbâsa","`Abbasah"],"lon":32.78333,"lat":25.9,"pop":0},{"id":408922,"name":"‘Abd al ‘Az̧īm Abū al ‘Aţā","alt":["`Abd al `Azim Abu al `Ata","`Abd al-`Azim Abu al-`Ata","`Abd el-`Azim Abu el-`Ata","عبد العظيم أبو العطا","‘Abd al-‘Aẓīm Abū al-‘Aṭá","‘Abd el-‘Azîm Abu el-‘Aṭa"],"lon":30.10977,"lat":30.70766,"pop":0},{"id":443408,"name":"‘Abd al Ḩalīm Maḩmūd","alt":["`Abd al Halim Mahmud","`Abd al-Halim Mahmud","عبد الحليم محمود","‘Abd al-Ḥalīm Maḥmūd"],"lon":29.99667,"lat":30.64697,"pop":0},{"id":433893,"name":"‘Abd al Ḩamīd ‘Ayyāsh","alt":["`Abd al Hamid `Ayyash","`Abd al-Hamid `Ayyash","عبد الحميد عياش","‘Abd al-Ḥamīd ‘Ayyāsh"],"lon":29.84844,"lat":30.79953,"pop":0},{"id":363023,"name":"‘Abd el-Gilîl","alt":["`Abd el-Gilil"],"lon":31.23333,"lat":29.38333,"pop":0},{"id":363007,"name":"‘Abd el-Wahhâb","lon":30.33333,"lat":31.15,"pop":0},{"id":408937,"name":"‘Alī Ibn Abī Ţālib","alt":["`Ali Bin Abi Talib","`Ali Ibn Abi Talib","علي بن أبي طالب","‘Alī Bin Abī Ṭālib","‘Alī Ibn Abī Ṭālib"],"lon":30.25015,"lat":30.73845,"pop":0},{"id":347126,"name":"‘Alīm","alt":["Heim","`Alim","`Ileim","`Ulaym","عليم","‘Ileim","‘Ulaym"],"lon":31.63589,"lat":30.54214,"pop":0},{"id":360619,"name":"‘Alqām","alt":["`Alqam","علقام"],"lon":30.81112,"lat":30.55162,"pop":0},{"id":10495942,"name":"‘Ammūrah","alt":["`Ammurah","`Imurah","`Umurah","عمورة","‘Imūrah","‘Umūrah"],"lon":30.13709,"lat":31.22041,"pop":0},{"id":434525,"name":"‘Amr Ibn al ‘Āşş","alt":["`Amr Ibn al `As","`Amr Ibn al `Ass","`Amr Ibn al-`As","عمرو بن العاص","‘Amr Ibn al ‘Āş","‘Amr Ibn al-‘Āṣ"],"lon":32.74724,"lat":25.0357,"pop":0},{"id":360411,"name":"‘Amrīţ","alt":["`Amrit","عمريط"],"lon":31.61097,"lat":30.51349,"pop":0},{"id":360407,"name":"‘Amrūs","alt":["`Amrus","عمروس","‘Amrûs"],"lon":30.80507,"lat":30.66467,"pop":0},{"id":360373,"name":"‘Ank","lon":30.64696,"lat":29.14521,"pop":0},{"id":360374,"name":"‘Ank","lon":30.76667,"lat":27.41667,"pop":0},{"id":360261,"name":"‘Arab ‘Abābidah","alt":["`Arab `Ababda","`Arab `Ababidah","‘Arab ‘Abâbda"],"lon":32.85,"lat":25.98333,"pop":0},{"id":8200005,"name":"‘Arab Abū Dhakrī","alt":["`Arab Abu Dhakri","عرب أبو ذكري"],"lon":31.18527,"lat":30.52821,"pop":0},{"id":360260,"name":"‘Arab Abū Sā‘id","lon":31.31111,"lat":29.74833,"pop":0},{"id":360259,"name":"‘Arab Abū Ţawīlah","alt":["`Arab Abu Tawila","`Arab Abu Tawilah","‘Arab Abu Ṭawîla"],"lon":31.31667,"lat":30.13333,"pop":0},{"id":360251,"name":"‘Arab al ‘Abābidah","alt":["`Arab `Abayda","`Arab al `Ababidah","`Arab el `Ababda","‘Arab el ‘Abâbda","‘Arab ‘Abâyda"],"lon":32.6,"lat":26.21667,"pop":0},{"id":360252,"name":"‘Arab al ‘Abābidah","alt":["`Arab al `Ababidah","`Arab el `Ababda","‘Arab el ‘Abâbda"],"lon":32.85,"lat":25.91667,"pop":0},{"id":360249,"name":"‘Arab al ‘Alīqāt","alt":["`Arab al `Aliqat","`Arab el `Aliqat el Bahariya","`Arab el- `Aliqat","‘Arab el ‘Alîqât el Baḥarîya","‘Arab el- ‘Alîqât"],"lon":31.34902,"lat":30.29,"pop":0},{"id":360248,"name":"‘Arab al ‘Alīqāt al Baḩrīyah","lon":31.34689,"lat":30.27877,"pop":0},{"id":360247,"name":"‘Arab al ‘Amārinah","alt":["`Arab al `Amarinah","`Arab el `Amarna","‘Arab el ‘Amârna"],"lon":31.21667,"lat":29.25,"pop":0},{"id":444476,"name":"‘Arab al ‘Aţīyāt","alt":["`Arab al `Atiyat","`Arab al-`Atiyyat","عرب العطيات","‘Arab al-‘Atiyyāt"],"lon":32.05726,"lat":26.30697,"pop":0},{"id":360246,"name":"‘Arab al ‘Aţīyāt al Baḩrīyah","alt":["`Arab al `Atiyat al Bahriyah","`Arab al-`Atiyyat al-Bahariyya","`Arab el `Atiyat el Bahariya","عرب العطيات البحرية","‘Arab al-‘Aṭiyyāt al-Bahariyya","‘Arab el ‘Atîyât el Baḥarîya"],"lon":31.06691,"lat":27.32797,"pop":0},{"id":360241,"name":"‘Arab al ‘Itwah","alt":["`Arab al `Itwah","`Arab el-`Itwa","‘Arab el-‘Itwa"],"lon":31.3,"lat":29.75,"pop":0},{"id":12108539,"name":"‘Arab al Aţawlah","alt":["`Arab al Atawlah","عرب الاطاولة"],"lon":31.2171,"lat":27.24578,"pop":0},{"id":360245,"name":"‘Arab al Bakhā’itah","alt":["`Arab al Bakha'itah","`Arab el Bakhayta","‘Arab el Bakhâyta"],"lon":31.22108,"lat":29.24286,"pop":0},{"id":360244,"name":"‘Arab al Fawārisah wa al ‘Itwah","alt":["Arab el-Fawarsa and el-` Itwa","Arab el-Fawârsa and el-‘ Itwa","`Arab al Fawarisah wa al `Itwah"],"lon":31.3,"lat":29.76667,"pop":0},{"id":360243,"name":"‘Arab al Ḩanafī","alt":["`Arab al Hanafi","`Arab el-Hanafi","‘Arab el-Ḥanafi"],"lon":30.84167,"lat":31.5375,"pop":0},{"id":360227,"name":"‘Arab al Ḩişār","alt":["`Arab al Hisar","`Arab el-Hlaar","‘Arab el-Hlaâr"],"lon":31.32222,"lat":29.65333,"pop":0},{"id":360242,"name":"‘Arab al Ḩişār","alt":["`Arab al Hisar","`Arab el-Hisar","‘Arab el-Ḥiṣâr"],"lon":31.31667,"lat":29.6,"pop":0},{"id":433463,"name":"‘Arab al Ḩişār","lon":31.27889,"lat":29.42583,"pop":0},{"id":360240,"name":"‘Arab al Jabāyrah","alt":["`Arab al Jababirah","`Arab al Jabayrah","`Arab el-Gababra","‘Arab al Jabābirah","‘Arab el-Gabâbra"],"lon":31.31639,"lat":29.73389,"pop":0},{"id":434292,"name":"‘Arab al Ma‘‘āzah","lon":31.30722,"lat":29.54117,"pop":0},{"id":433462,"name":"‘Arab al Ma‘āzī","lon":31.27083,"lat":29.37417,"pop":0},{"id":12039785,"name":"‘Arab al Maḩāsinah","alt":["`Arab al Mahasinah","`Arab al-Mahasnah","عرب المحاسنة","‘Arab al-Maḥāsnah"],"lon":32.21702,"lat":31.07327,"pop":0},{"id":360224,"name":"‘Arab al Muqābilah","alt":["`Arab al Muqabilah","`Arab el-Muqabla","‘Arab el-Muqâbla"],"lon":31.29656,"lat":30.40044,"pop":0},{"id":351186,"name":"‘Arab al Qadādīḩ","alt":["Nazlat al Qadadih","Nazlat al Qadādīḩ","Nazlet Qadadih","Nazlet Qadâdîḥ","Nazlet el-Qadadih","Nazlet el-Qadâdîḥ","`Arab al Qadadih","`Arab al-Qadadih","عرب القداديح","‘Arab al-Qādadīh"],"lon":31.14087,"lat":27.31334,"pop":0},{"id":443388,"name":"‘Arab al Yaman","alt":["`Arab al Yaman","عرب اليمن"],"lon":32.05161,"lat":30.86226,"pop":0},{"id":360239,"name":"‘Arab an Namā’irah","alt":["`Arab an Nama'irah","`Arab el-Namayra","‘Arab el-Namâyra"],"lon":31.28333,"lat":29.58333,"pop":0},{"id":360238,"name":"‘Arab ar Raml","alt":["`Arab ar Raml","`Arab el-Raml","`Arab er-Raml","‘Arab el-Raml","‘Arab er-Raml"],"lon":31.20917,"lat":30.51667,"pop":0},{"id":9261053,"name":"‘Arab ar Raml","alt":["`Arab ar Raml","ʿrb alrml","عرب الرمل"],"lon":31.15048,"lat":30.51075,"pop":0},{"id":360235,"name":"‘Arab aş Şaff","alt":["`Arab as Saff","`Arab el-Saff","‘Arab el-Ṣaff"],"lon":31.29642,"lat":29.57706,"pop":0},{"id":360234,"name":"‘Arab as Salmānīyah","alt":["Qabilat al Huwaytat","Qabilet el Huweitat","Qabîlet el Ḥuweitat","Qabīlat al Ḩuwayţāt","`Arab as Salmaniyah","`Arab el Salmaniya","‘Arab el Salmânîya"],"lon":31.21667,"lat":29.25,"pop":0},{"id":360233,"name":"‘Arab aş Şawāliḩah","alt":["`Arab as Sawalihah","`Arab el Sawalha","‘Arab el Ṣawâlḥa"],"lon":31.35094,"lat":30.2961,"pop":0},{"id":360236,"name":"‘Arab ash Shaykh Zāyid","alt":["`Arab ash Shaykh Zayd","`Arab ash Shaykh Zayid","`Arab el-Sheikh Zeid","`Izbat ash Shaykh Zayd","‘Arab ash Shaykh Zayd","‘Arab el-Sheikh Zeid","‘Izbat ash Shaykh Zayd"],"lon":31.29248,"lat":29.5311,"pop":0},{"id":434289,"name":"‘Arab aţ Ţarabīn","lon":31.32194,"lat":29.6825,"pop":0},{"id":434376,"name":"‘Arab at Tatālīyah","alt":["`Arab at Tataliyah","`Arab at-Tatalyah","عرب التتالية","‘Arab at-Tatālyah"],"lon":30.8292,"lat":27.32849,"pop":0},{"id":360232,"name":"‘Arab at Turbah","alt":["`Arab at Turbah","`Arab el Tirba","`Arab el-Turba","‘Arab el Tirba","‘Arab el-Turba"],"lon":31.36609,"lat":30.30727,"pop":0},{"id":360231,"name":"‘Arab Bikhwâg","lon":31.48333,"lat":26.8,"pop":0},{"id":360230,"name":"‘Arab Bikhwāj","lon":31.5,"lat":26.81667,"pop":0},{"id":357566,"name":"‘Arab Darwīsh","alt":["`Arab Darwish","`Ezbet Darwish Ahmad","عرب درويش","‘Ezbet Darwîsh Aḥmad"],"lon":31.8295,"lat":30.86133,"pop":0},{"id":349812,"name":"‘Arab Ghammāzah al Kubrá","alt":["Sakanat `Arab Ghammazah al Kubra","Sakanāt ‘Arab Ghammāzah al Kubrá","`Arab Ghammazah al Kubra"],"lon":31.3225,"lat":29.69806,"pop":0},{"id":360223,"name":"‘Arab Juhaynah wa aş Şawāliḩ","alt":["`Arab Giheina Wa el-Sawalih","`Arab Juhaynah wa as Sawalih","‘Arab Giheina Wa el-Sawâliḥ"],"lon":31.35645,"lat":30.29898,"pop":0},{"id":360221,"name":"‘Arab Mūsá Yūsuf","alt":["`Arab Musa Yusef","`Arab Musa Yusuf","‘Arab Mûsa Yusef"],"lon":30.78333,"lat":28.86667,"pop":0},{"id":360220,"name":"‘Arab Muţayr","alt":["`Arab Hatim","`Arab Mitayr","`Arab Miteir","`Arab Mutayr","عرب مطير","‘Arab Hatīm","‘Arab Mitayr","‘Arab Miteir"],"lon":31.23672,"lat":27.26551,"pop":0},{"id":360219,"name":"‘Arab Najm Ḩamad","alt":["`Arab Najm Hamad","`Arab Nigm Hamad","‘Arab Nigm Hamad"],"lon":30.63333,"lat":28.48333,"pop":0},{"id":443382,"name":"‘Arab Şaqr","alt":["`Arab Saqr","عرب صقر","‘Arab Ṣaqr"],"lon":32.03638,"lat":30.8093,"pop":0},{"id":360138,"name":"‘Arrāmīyat ad Dīwān","alt":["Nazlat Sulayman","Nazlat Sulaymān","Nazlet Suliman","Nazlet Sulîmân","`Arramiyat ad Diwan","`Arramiyet el Diwan","‘Arrâmîyet el Dîwân"],"lon":30.73333,"lat":27.48333,"pop":0},{"id":433977,"name":"‘Arrāqat Ḩāmid","lon":30.42466,"lat":30.79569,"pop":0},{"id":360049,"name":"‘Ashmā","alt":["Ashma","Ashmā","`Ashma","عشما","‘Ashma"],"lon":30.89812,"lat":30.57083,"pop":0},{"id":359767,"name":"‘Atāminat al Ja‘āfirah","alt":["Atamna el Ga`afra","Atamna el Ga‘afra","`Ataminat al Ja`afirah","`Atamnet el Ga`afra","‘Atâmnet el Ga‘âfra"],"lon":30.78333,"lat":29.23333,"pop":0},{"id":359765,"name":"‘Atāqah","alt":["`Ataqa","`Ataqah","ʿtaqt","عتاقة","‘Atâqa"],"lon":32.45784,"lat":29.89645,"pop":0},{"id":359752,"name":"‘Aţf Abū Jundī","alt":["`Atf Abu Gindi","`Atf Abu Jundi","ʿtf abw jndy","عطف ابو جندى","‘Aṭf Abu Gindi"],"lon":30.92204,"lat":30.90477,"pop":0},{"id":359750,"name":"‘Aţf Ifwah","alt":["Atf Ifwa","Aṭf Ifwa","`Atf Ifwah"],"lon":31.2,"lat":29.36667,"pop":0},{"id":359751,"name":"‘Aţfat Ḩaydar","alt":["`Atf Haydar","`Atf Heidar","`Atfat Haydar","عطفة حيدر","‘Aţf Ḩaydar","‘Aṭf Ḥeidar","‘Aṭfat Ḥaydar"],"lon":30.74689,"lat":28.74758,"pop":0},{"id":359720,"name":"‘Aţţāf","alt":["`Attaf","ʿtaf","عطاف","‘Aṭṭāf"],"lon":31.15636,"lat":31.0707,"pop":0},{"id":433283,"name":"‘Awaḑ Abū Dujayjah","alt":["`Awad Abu Dujayjah","`Izbat `Awad Abu Dujayjah","عوض أبو دجيجة","‘Awaḍ Abū Dujayjah","‘Izbat ‘Awaḑ Abū Dujayjah"],"lon":30.70643,"lat":30.9324,"pop":0},{"id":359653,"name":"‘Awājah","alt":["Awaga","Awâga","`Awajah","عواجة","‘Awajah"],"lon":30.73456,"lat":27.49636,"pop":0},{"id":359651,"name":"‘Awāmir al ‘Asīrāt","alt":["`Awamir al `Asirat","`Awamir el `Asirat","عوامر العسيرات","‘Awâmir el ‘Asîrât"],"lon":31.80047,"lat":26.41532,"pop":0},{"id":7913034,"name":"‘Ayn aş Şīrah","alt":["`Ayn as Sirah","عين الصيرة"],"lon":31.24307,"lat":30.01326,"pop":0},{"id":8356587,"name":"‘Ayn Shams","alt":["`Ayn Shams","عين شمس"],"lon":31.3168,"lat":30.12994,"pop":0},{"id":8026353,"name":"‘Ayn Shams ash Sharqīyah","alt":["`Ayn Shams ash Sharqiyah","عين شمس الشرقية"],"lon":31.331,"lat":30.12876,"pop":0},{"id":357707,"name":"‘Ezab ‘Arab el-Tahâwiya","lon":31.63333,"lat":30.45,"pop":0},{"id":357704,"name":"‘Ezab Galâla","lon":30.95,"lat":29.48333,"pop":0},{"id":357702,"name":"‘Ezab Ḥusein Muṣṭata","lon":30.95,"lat":29.33333,"pop":0},{"id":357699,"name":"‘Ezbet ‘Abbâs Ṭûsûn","lon":30.87639,"lat":31.18889,"pop":0},{"id":357691,"name":"‘Ezbet ‘Abd el-‘Aziz Diyasil","lon":31.37444,"lat":31.405,"pop":0},{"id":357687,"name":"‘Ezbet ‘Abd el-Ḥamîd","lon":31.11667,"lat":29.95,"pop":0},{"id":357686,"name":"‘Ezbet ‘Abd el-Kirim","lon":30.73333,"lat":29.16667,"pop":0},{"id":357685,"name":"‘Ezbet ‘Abd el-Nabl el-Naggâr","lon":31.61667,"lat":30.43333,"pop":0},{"id":357683,"name":"‘Ezbet ‘Abd el-Qâdir el-Sa‘îd Gum’a","lon":31.13333,"lat":31.4,"pop":0},{"id":357681,"name":"‘Ezbet ‘Abd el-Rahmân el-Qawâtîhl","lon":30.7,"lat":31.48333,"pop":0},{"id":357680,"name":"‘Ezbet ‘Abd el-Wâḥid Ḥamdi","lon":31.78556,"lat":30.56861,"pop":0},{"id":357697,"name":"‘Ezbet ‘Abdalla el-Wakîl","lon":31.16667,"lat":29.26667,"pop":0},{"id":357695,"name":"‘Ezbet ‘Abdalla Khalîl","lon":30.65,"lat":29.15,"pop":0},{"id":357637,"name":"‘Ezbet ‘Aîn Barqas","lon":30.59065,"lat":24.72213,"pop":0},{"id":357625,"name":"‘Ezbet ‘Alî ‘Âshûr","lon":30.92661,"lat":29.37991,"pop":0},{"id":357628,"name":"‘Ezbet ‘Ali Abu Ḥas","lon":31.21667,"lat":31.31667,"pop":0},{"id":357627,"name":"‘Ezbet ‘Ali Abû Ḥimeid","lon":30.65,"lat":28.16667,"pop":0},{"id":357626,"name":"‘Ezbet ‘Ali Abu Shinâf","lon":31.1,"lat":31.03333,"pop":0},{"id":357620,"name":"‘Ezbet ‘Ali Isma","lon":31.41667,"lat":30.83333,"pop":0},{"id":357617,"name":"‘Ezbet ‘Ali Pasha","lon":30.13333,"lat":31.16667,"pop":0},{"id":357613,"name":"‘Ezbet ‘Alî Sha’râwî","lon":30.81667,"lat":28.03333,"pop":0},{"id":357610,"name":"‘Ezbet ‘Allâq Bakr","lon":31.595,"lat":30.97139,"pop":0},{"id":357606,"name":"‘Ezbet ‘Amr & el-Quni","lon":30.60806,"lat":31.28111,"pop":0},{"id":357602,"name":"‘Ezbet ‘Asim","lon":30.66667,"lat":28.13333,"pop":0},{"id":357601,"name":"‘Ezbet ‘Atwa","lon":31.01667,"lat":29.4,"pop":0},{"id":357600,"name":"‘Ezbet ‘Atwa Abu Sâlim","lon":31.35,"lat":31.31667,"pop":0},{"id":357599,"name":"‘Ezbet ‘Awaḍ","lon":31.08333,"lat":29.11667,"pop":0},{"id":357367,"name":"‘Ezbet ‘Elwâni","lon":30.43896,"lat":30.88461,"pop":0},{"id":357285,"name":"‘Ezbet ‘Iteiba","lon":30.95,"lat":31.23333,"pop":0},{"id":357163,"name":"‘Ezbet ‘Omar Fadil Bey","lon":30.41667,"lat":31.08333,"pop":0},{"id":357162,"name":"‘Ezbet ‘Omar Sulṭân","lon":30.73333,"lat":28.23333,"pop":0},{"id":357693,"name":"‘Ezbet Abd el-‘Al Baiyûmi","lon":32.56002,"lat":30.13285,"pop":0},{"id":357688,"name":"‘Ezbet Abd el-Hâdi ‘Afîfi","lon":32.25,"lat":30.61667,"pop":0},{"id":357677,"name":"‘Ezbet Abu Bakr ‘Allâm","lon":31.22424,"lat":29.5996,"pop":0},{"id":357672,"name":"‘Ezbet Abu el-Gheir Himeida","lon":30.93333,"lat":31.25,"pop":0},{"id":357670,"name":"‘Ezbet Abu el-Qâsim","lon":30.99354,"lat":29.42062,"pop":0},{"id":357669,"name":"‘Ezbet Abu el-Sûba","lon":31.95472,"lat":30.54,"pop":0},{"id":357664,"name":"‘Ezbet Abu Keifu","lon":30.01224,"lat":30.90591,"pop":0},{"id":357663,"name":"‘Ezbet Abu Khaṭîb","lon":30.02306,"lat":30.95444,"pop":0},{"id":357659,"name":"‘Ezbet Abû Seit","lon":31.01667,"lat":29.41667,"pop":0},{"id":357658,"name":"‘Ezbet Abu Shabâna","lon":30.95,"lat":31.3,"pop":0},{"id":357654,"name":"‘Ezbet Abu Zeid","lon":30.46167,"lat":30.77444,"pop":0},{"id":357651,"name":"‘Ezbet Aflâṭôn Pasha","lon":30.82639,"lat":31.12722,"pop":0},{"id":357647,"name":"‘Ezbet Aḥmad Bey Mâzin","lon":31.91667,"lat":30.81667,"pop":0},{"id":357645,"name":"‘Ezbet Aḥmad el-Qinawâwi","lon":31.11667,"lat":31.3,"pop":0},{"id":357644,"name":"‘Ezbet Aḥmad Ḥamdi","lon":30.76667,"lat":29.21667,"pop":0},{"id":357643,"name":"‘Ezbet Aḥmad Ḥamdî","lon":30.76667,"lat":29.41667,"pop":0},{"id":409303,"name":"‘Ezbet Aḥmad Mâzin","lon":31.93167,"lat":30.83,"pop":0},{"id":357642,"name":"‘Ezbet Ahmad Râshîd","lon":30.96667,"lat":29.3,"pop":0},{"id":357641,"name":"‘Ezbet Aḥmad Râshid","lon":30.5,"lat":31.23333,"pop":0},{"id":357640,"name":"‘Ezbet Ahmad Talat","lon":30.8,"lat":28.43333,"pop":0},{"id":357639,"name":"‘Ezbet Aḥmad Wâli","lon":30.85,"lat":29.16667,"pop":0},{"id":357631,"name":"‘Ezbet Akhnûkh Fanûs","lon":31.2,"lat":27.26667,"pop":0},{"id":357630,"name":"‘Ezbet Algeir","lon":30.55,"lat":25.1,"pop":0},{"id":357609,"name":"‘Ezbet Amin","lon":30.9,"lat":28.73333,"pop":0},{"id":357608,"name":"‘Ezbet Amîn Mûsa","lon":30.13917,"lat":30.93306,"pop":0},{"id":357605,"name":"‘Ezbet Anṭônyûs","lon":31.11667,"lat":29.16667,"pop":0},{"id":357596,"name":"‘Ezbet Badawi Bey Muḥammad","lon":31.15,"lat":31.21667,"pop":0},{"id":357594,"name":"‘Ezbet Badrân","lon":31.05,"lat":29.45,"pop":0},{"id":357591,"name":"‘Ezbet Baiyûmi Bey Abû Zikri","lon":31.18333,"lat":30.51667,"pop":0},{"id":357590,"name":"‘Ezbet Bakîr","lon":31.21667,"lat":29.38333,"pop":0},{"id":357588,"name":"‘Ezbet Banâyûs","lon":31.56917,"lat":30.92861,"pop":0},{"id":357573,"name":"‘Ezbet Bûgti","lon":31.39467,"lat":30.17441,"pop":0},{"id":357572,"name":"‘Ezbet Bûlâd","lon":30.71667,"lat":29.25,"pop":0},{"id":357570,"name":"‘Ezbet Buṭrus Sa‘d","lon":30.58333,"lat":29.35,"pop":0},{"id":357569,"name":"‘Ezbet Costi Straphatis","lon":31.61667,"lat":31.31667,"pop":0},{"id":357565,"name":"‘Ezbet Dâwûd Namiq","lon":31.06667,"lat":29.15,"pop":0},{"id":357458,"name":"‘Ezbet Ḍeif Alla el-Lâfi","alt":["`Ezbet Deif Alla el-Lafi","`Ezbet el-Laf Quddahi","‘Ezbet el-Lâf Quddâḥî"],"lon":30.47542,"lat":30.75925,"pop":0},{"id":357563,"name":"‘Ezbet Deif Alla Sulṭân","lon":30.40083,"lat":30.78361,"pop":0},{"id":357561,"name":"‘Ezbet Disûqi ‘Abdalla","lon":31.15,"lat":31.03333,"pop":0},{"id":357560,"name":"‘Ezbet Doctor Hannal Timbll","lon":30.8,"lat":30.46667,"pop":0},{"id":357559,"name":"‘Ezbet Doctor Zeifal","lon":30.48333,"lat":30.9,"pop":0},{"id":357558,"name":"‘Ezbet Dôma","lon":30.33556,"lat":31.18389,"pop":0},{"id":357531,"name":"‘Ezbet el Baron de Menascha","lon":31.03333,"lat":31.21667,"pop":0},{"id":357526,"name":"‘Ezbet el Bûsa","lon":32.96667,"lat":24.41667,"pop":0},{"id":357519,"name":"‘Ezbet el Darâwsha","lon":30.53333,"lat":30.86667,"pop":0},{"id":357510,"name":"‘Ezbet el Fayayha","lon":31.85,"lat":31.21667,"pop":0},{"id":357505,"name":"‘Ezbet el Gabawânîya","lon":31.5,"lat":31.28333,"pop":0},{"id":357475,"name":"‘Ezbet el Ibrâhimiya","lon":32.95,"lat":24.51667,"pop":0},{"id":357441,"name":"‘Ezbet el Nâdi","lon":31.85,"lat":31.21667,"pop":0},{"id":357427,"name":"‘Ezbet el Qunn","lon":30.76253,"lat":31.28911,"pop":0},{"id":357406,"name":"‘Ezbet el Saiyd Abû ‘Ali","lon":31.96667,"lat":31.06667,"pop":0},{"id":357409,"name":"‘Ezbet el- Sa‘da el-Baharîya","lon":30.83333,"lat":29.18333,"pop":0},{"id":357556,"name":"‘Ezbet el-‘Abd","lon":31.11667,"lat":31.31667,"pop":0},{"id":357554,"name":"‘Ezbet el-‘Adli","lon":30.73333,"lat":29.36667,"pop":0},{"id":357551,"name":"‘Ezbet el-‘Aleiga","lon":31.91667,"lat":31,"pop":0},{"id":357548,"name":"‘Ezbet el-‘Arab","lon":31.18333,"lat":31.33333,"pop":0},{"id":357545,"name":"‘Ezbet el-‘Atârsa","lon":31.03333,"lat":31.58333,"pop":0},{"id":357476,"name":"‘Ezbet el-‘Ibeidî Muḥammad Sobḥ","lon":31.9,"lat":31.08333,"pop":0},{"id":357469,"name":"‘Ezbet el-‘Îsawîya","lon":30.79167,"lat":31.25111,"pop":0},{"id":357557,"name":"‘Ezbet el-Ab‘adiya","lon":31.25,"lat":31.3,"pop":0},{"id":357543,"name":"‘Ezbet el-Aṭṭa","lon":30.20667,"lat":31.02417,"pop":0},{"id":357542,"name":"‘Ezbet el-Auqât","lon":31.30526,"lat":29.86534,"pop":0},{"id":357539,"name":"‘Ezbet el-Badârwa","lon":31.18333,"lat":31.36667,"pop":0},{"id":357538,"name":"‘Ezbet el-Badrâwi Pasha","lon":31.25,"lat":31.11667,"pop":0},{"id":357534,"name":"‘Ezbet el-Bank","lon":30.53333,"lat":29.36667,"pop":0},{"id":357532,"name":"‘Ezbet el-Barâlsa","lon":31.16667,"lat":31.41667,"pop":0},{"id":410739,"name":"‘Ezbet el-Dabdûba","lon":31.84167,"lat":31.51667,"pop":0},{"id":357522,"name":"‘Ezbet el-Dank","lon":31.38333,"lat":30.21667,"pop":0},{"id":357520,"name":"‘Ezbet el-Daramâlli Pasha","lon":31,"lat":31.3,"pop":0},{"id":357512,"name":"‘Ezbet el-Fawâyda","lon":31.76667,"lat":31.05,"pop":0},{"id":357509,"name":"‘Ezbet el-Fazz","lon":30.39611,"lat":31.43306,"pop":0},{"id":357508,"name":"‘Ezbet el-Fouâdîya No. 3","lon":30.41083,"lat":31.33361,"pop":0},{"id":357506,"name":"‘Ezbet el-Gabâbsa","lon":30.61667,"lat":30.73333,"pop":0},{"id":357504,"name":"‘Ezbet el-Gâhari","lon":31.31667,"lat":31.26667,"pop":0},{"id":357500,"name":"‘Ezbet el-Gambîhi","lon":30.40623,"lat":30.90015,"pop":0},{"id":357494,"name":"‘Ezbet el-Gezîra","lon":31,"lat":30.23333,"pop":0},{"id":357493,"name":"‘Ezbet el-Ghalâba","lon":30.4,"lat":30.98333,"pop":0},{"id":357491,"name":"‘Ezbet el-Ghazâli","lon":30.98286,"lat":29.37177,"pop":0},{"id":357490,"name":"‘Ezbet el-Gindi","lon":30.96667,"lat":29.31667,"pop":0},{"id":357488,"name":"‘Ezbet el-Hagg Yûsef","lon":30.81667,"lat":27.66667,"pop":0},{"id":357487,"name":"‘Ezbet el-Haghâma","lon":30.95,"lat":31.25,"pop":0},{"id":357486,"name":"‘Ezbet el-Ḥakîm","lon":30.78333,"lat":28.05,"pop":0},{"id":357482,"name":"‘Ezbet el-Hasanât","lon":31.66667,"lat":30.46667,"pop":0},{"id":357481,"name":"‘Ezbet el-Ḥaṣâwi","lon":30.32972,"lat":31.0125,"pop":0},{"id":357479,"name":"‘Ezbet el-Hawâwi","lon":30.68333,"lat":29.2,"pop":0},{"id":357478,"name":"‘Ezbet el-Higâra","lon":30.73333,"lat":28.3,"pop":0},{"id":357472,"name":"‘Ezbet el-Insha","lon":31.46667,"lat":30.26667,"pop":0},{"id":408693,"name":"‘Ezbet el-Isha","lon":31.48056,"lat":30.36194,"pop":0},{"id":357468,"name":"‘Ezbet el-Isma‘iliya","lon":32.95,"lat":24.43333,"pop":0},{"id":357467,"name":"‘Ezbet el-Ismâ‘îlîya No. 1","lon":30.48361,"lat":31.29194,"pop":0},{"id":413640,"name":"‘Ezbet el-Kahhâl el-‘Ali","lon":31.79772,"lat":31.40854,"pop":0},{"id":357466,"name":"‘Ezbet el-Kâshif","lon":30.66845,"lat":29.20593,"pop":0},{"id":357465,"name":"‘Ezbet el-Khabati","lon":30.30861,"lat":30.87667,"pop":0},{"id":413283,"name":"‘Ezbet el-Khaîyâṭa","lon":31.81639,"lat":31.45611,"pop":0},{"id":357462,"name":"‘Ezbet el-Khâṣṣa","lon":31.23333,"lat":29.76667,"pop":0},{"id":357460,"name":"‘Ezbet el-Khorsa","lon":30.68333,"lat":30.86667,"pop":0},{"id":413306,"name":"‘Ezbet el-Labbâna","lon":31.80655,"lat":31.43302,"pop":0},{"id":357454,"name":"‘Ezbet el-Mailâhîya","lon":31.01667,"lat":28.98333,"pop":0},{"id":357451,"name":"‘Ezbet el-Manshîya","lon":30.43333,"lat":29.4,"pop":0},{"id":357450,"name":"‘Ezbet el-Markaz","lon":31.28333,"lat":29.56667,"pop":0},{"id":357449,"name":"‘Ezbet el-Marshîya","lon":32.93333,"lat":24.53333,"pop":0},{"id":357448,"name":"‘Ezbet el-Mata‘na Bahar","lon":32.96667,"lat":24.48333,"pop":0},{"id":357447,"name":"‘Ezbet el-Mikassarî","lon":30.76667,"lat":27.85,"pop":0},{"id":357445,"name":"‘Ezbet el-Mufti el-Gharbîya","lon":30.91667,"lat":31.21667,"pop":0},{"id":357440,"name":"‘Ezbet el-Naggdr","lon":32.94296,"lat":24.46063,"pop":0},{"id":357439,"name":"‘Ezbet el-Nâqûri","lon":30.65,"lat":30.86667,"pop":0},{"id":357434,"name":"‘Ezbet el-Omda","lon":32.86667,"lat":25,"pop":0},{"id":357433,"name":"‘Ezbet el-Qâdi Hafs","lon":30.33861,"lat":30.99528,"pop":0},{"id":357432,"name":"‘Ezbet el-Qadîma","lon":30.98333,"lat":31.16667,"pop":0},{"id":357430,"name":"‘Ezbet el-Qasabi","lon":31.01667,"lat":30.9,"pop":0},{"id":413635,"name":"‘Ezbet el-Qashsh","lon":31.77915,"lat":31.39754,"pop":0},{"id":357424,"name":"‘Ezbet el-Râ‘l el-Kharâba","lon":30.46146,"lat":29.40698,"pop":0},{"id":410735,"name":"‘Ezbet el-Rakhâwîya","lon":31.84722,"lat":31.50833,"pop":0},{"id":357420,"name":"‘Ezbet el-Rôḍa","lon":30.58861,"lat":31.27222,"pop":0},{"id":357418,"name":"‘Ezbet el-Rub‘umâya","lon":30.26157,"lat":30.8148,"pop":0},{"id":357416,"name":"‘Ezbet el-Rughâm","lon":31.28333,"lat":31.16667,"pop":0},{"id":357413,"name":"‘Ezbet el-Sa‘ayda","lon":30.25,"lat":31.08333,"pop":0},{"id":357414,"name":"‘Ezbet el-Ṣa‘âyda","lon":30.68333,"lat":29.21667,"pop":0},{"id":357411,"name":"‘Ezbet el-Sabbâgh","lon":31.41667,"lat":26.86667,"pop":0},{"id":357405,"name":"‘Ezbet el-Saiyîd Ḥâmid el-Qasab","lon":31.13333,"lat":31.4,"pop":0},{"id":357398,"name":"‘Ezbet el-Selyid Gibrîl","lon":31.85,"lat":31.2,"pop":0},{"id":357396,"name":"‘Ezbet el-Shabrâwi","lon":32.28333,"lat":30.91667,"pop":0},{"id":357395,"name":"‘Ezbet el-Shaḥḥât","lon":31.1,"lat":31.35,"pop":0},{"id":357394,"name":"‘Ezbet el-Sharâqwa","lon":31.26667,"lat":30.18333,"pop":0},{"id":357389,"name":"‘Ezbet el-Sharika ‘elwel-Biljîkîya","lon":30.23028,"lat":30.91833,"pop":0},{"id":357392,"name":"‘Ezbet el-Sharika el-Biljîkîya No. 19","lon":30.185,"lat":30.94972,"pop":0},{"id":357391,"name":"‘Ezbet el-Sharika el-Biljîkya No. 10","lon":30.21083,"lat":30.86861,"pop":0},{"id":357390,"name":"‘Ezbet el-Sharika el-Miṣrîya","lon":30.22333,"lat":30.84389,"pop":0},{"id":357387,"name":"‘Ezbet el-Sharqîya","lon":31.26667,"lat":31.3,"pop":0},{"id":357385,"name":"‘Ezbet el-Sheikb Faḍl","lon":31.22712,"lat":29.62414,"pop":0},{"id":357383,"name":"‘Ezbet el-Shinnâwi","lon":31.78889,"lat":30.895,"pop":0},{"id":357380,"name":"‘Ezbet el-Sibil Qiblli","lon":32.92596,"lat":24.49198,"pop":0},{"id":357378,"name":"‘Ezbet el-Sûdâni","lon":30.6812,"lat":29.20342,"pop":0},{"id":357373,"name":"‘Ezbet el-Tâ‘ib Gâli","lon":30.45591,"lat":30.90767,"pop":0},{"id":357375,"name":"‘Ezbet el-Tabbîn","lon":31.3,"lat":29.78333,"pop":0},{"id":357374,"name":"‘Ezbet el-Ṭâḥûn","lon":30.86667,"lat":29.48333,"pop":0},{"id":410737,"name":"‘Ezbet el-Tall","lon":31.84167,"lat":31.51389,"pop":0},{"id":357370,"name":"‘Ezbet el-Ṭawîl","lon":30.46806,"lat":31.35139,"pop":0},{"id":357369,"name":"‘Ezbet el-Teil","lon":30.88333,"lat":27.65,"pop":0},{"id":357365,"name":"‘Ezbet el-Waqf","lon":31.18333,"lat":29.26667,"pop":0},{"id":357366,"name":"‘Ezbet el-Waqf","lon":31.01667,"lat":29.03333,"pop":0},{"id":357363,"name":"‘Ezbet el-Yâwdi","lon":31.96028,"lat":30.86583,"pop":0},{"id":357473,"name":"‘Ezbet Elie Aghion No. 1","lon":30.1925,"lat":31.01083,"pop":0},{"id":357359,"name":"‘Ezbet Fahmî Ṭulba","lon":30.68333,"lat":28.01667,"pop":0},{"id":357355,"name":"‘Ezbet Fârid Bânûb","lon":30.10333,"lat":31.08,"pop":0},{"id":357354,"name":"‘Ezbet Farûz","lon":31.03333,"lat":29.43333,"pop":0},{"id":357352,"name":"‘Ezbet Fayiq","lon":31.4,"lat":31.35,"pop":0},{"id":357351,"name":"‘Ezbet Foda","lon":30.48444,"lat":30.83972,"pop":0},{"id":357350,"name":"‘Ezbet Furqân","lon":30.97369,"lat":29.40956,"pop":0},{"id":357348,"name":"‘Ezbet Gadalla Ḥanna","lon":30.68333,"lat":28.35,"pop":0},{"id":357346,"name":"‘Ezbet Galâl Pasha","lon":30.88333,"lat":27.68333,"pop":0},{"id":357344,"name":"‘Ezbet George ‘Eîd","lon":31.03333,"lat":29.36667,"pop":0},{"id":357343,"name":"‘Ezbet George ‘Eîd No. 4","lon":31.05,"lat":29.35,"pop":0},{"id":357342,"name":"‘Ezbet George Nasîf","lon":31.11667,"lat":31.28333,"pop":0},{"id":357339,"name":"‘Ezbet Ghîdân","lon":31.11667,"lat":29.21667,"pop":0},{"id":357338,"name":"‘Ezbet Girgis","lon":31.48333,"lat":30.98333,"pop":0},{"id":357337,"name":"‘Ezbet Girgis Fâyîd","lon":31.11667,"lat":31.23333,"pop":0},{"id":357336,"name":"‘Ezbet Gûrgi Aiyûb","lon":31.85944,"lat":30.755,"pop":0},{"id":357334,"name":"‘Ezbet Ḥabîb Luṭfalla","lon":30.78333,"lat":28.45,"pop":0},{"id":357333,"name":"‘Ezbet Hadîb","lon":31.63,"lat":30.57556,"pop":0},{"id":357332,"name":"‘Ezbet Hakâra","lon":30.53694,"lat":30.76306,"pop":0},{"id":357329,"name":"‘Ezbet Ḥamad Abu Dumeiḥ","alt":["`Ezbet Hamad Abu Dumeih","`Ezbet Hamad Abu Dumein","‘Ezbet Hamad Abu Dumein"],"lon":30.41306,"lat":31.23583,"pop":0},{"id":357328,"name":"‘Ezbet Ḥamad el-Bâsill","lon":30.65653,"lat":29.11465,"pop":0},{"id":357326,"name":"‘Ezbet Hamad Muftaḥ","lon":30.81667,"lat":28.96667,"pop":0},{"id":357325,"name":"‘Ezbet Ḥanna","lon":30.66667,"lat":28.11667,"pop":0},{"id":357324,"name":"‘Ezbet Hanna Dos","lon":31.08389,"lat":30.10444,"pop":0},{"id":357322,"name":"‘Ezbet Hanna Ṣâlih","lon":31.01667,"lat":29.38333,"pop":0},{"id":357321,"name":"‘Ezbet Ḥanna Ṣâlih","lon":31.01448,"lat":29.51899,"pop":0},{"id":357320,"name":"‘Ezbet Hanna Ṣâlih el-Baḥarîya","lon":31.98333,"lat":29.53333,"pop":0},{"id":357319,"name":"‘Ezbet Ḥasan","lon":31.37389,"lat":30.255,"pop":0},{"id":357313,"name":"‘Ezbet Hasan Sulîman","lon":32.5,"lat":25.48333,"pop":0},{"id":357312,"name":"‘Ezbet Hâziq Pasha","lon":31.18333,"lat":31.2,"pop":0},{"id":357310,"name":"‘Ezbet Hîlâna","lon":31.11667,"lat":30.86667,"pop":0},{"id":357304,"name":"‘Ezbet Ibrâhîm ‘Abd el-Sâmi","lon":30.95,"lat":29.55,"pop":0},{"id":357303,"name":"‘Ezbet Ibrâhîm Abu Nigm","lon":31.81167,"lat":30.8425,"pop":0},{"id":357302,"name":"‘Ezbet Ibrâhîm Barakat","lon":31.1,"lat":31.13333,"pop":0},{"id":357301,"name":"‘Ezbet Ibrâhîm Bey","lon":31.60556,"lat":30.60222,"pop":0},{"id":357300,"name":"‘Ezbet Ibrâhîm el-Fâr","lon":30.61667,"lat":31.35,"pop":0},{"id":357293,"name":"‘Ezbet Ibrâhîm Yakan","lon":30.75228,"lat":29.17887,"pop":0},{"id":357291,"name":"‘Ezbet Ilyâs","lon":31.13333,"lat":29.21667,"pop":0},{"id":357289,"name":"‘Ezbet Imbârka","lon":30.2,"lat":31.05,"pop":0},{"id":357280,"name":"‘Ezbet Ismâ‘îl Nauwâr","alt":["`Ezbet Isma`il Nauwar","`Ezbet Khairi Nauwar","‘Ezbet Khaîri Nauwâr"],"lon":30.385,"lat":30.95944,"pop":0},{"id":357279,"name":"‘Ezbet Khaiyâṭ","lon":30.32444,"lat":30.95333,"pop":0},{"id":357276,"name":"‘Ezbet Khamîs el-Shâl","lon":30.61667,"lat":29.13333,"pop":0},{"id":357274,"name":"‘Ezbet Kiweish","lon":31.38333,"lat":31.28333,"pop":0},{"id":357273,"name":"‘Ezbet Kôm Abu el-‘Ida","lon":30.08306,"lat":30.93889,"pop":0},{"id":357268,"name":"‘Ezbet Kôm el-Bûs","lon":30.26667,"lat":30.91667,"pop":0},{"id":357267,"name":"‘Ezbet Kôm el-Bûṣ","lon":30.27406,"lat":30.99843,"pop":0},{"id":357261,"name":"‘Ezbet Kôm el-Nigîli","alt":["`Ezbet Kom el Nigih","`Ezbet Kom el-Nigili","‘Ezbet Kôm el Nigîh"],"lon":30.23028,"lat":30.89889,"pop":0},{"id":357256,"name":"‘Ezbet Kuraîyim","lon":30.63333,"lat":29.25,"pop":0},{"id":357254,"name":"‘Ezbet Lambo","lon":31.00722,"lat":30.16944,"pop":0},{"id":357253,"name":"‘Ezbet Lamluîm el-Sa‘dî","lon":30.58333,"lat":29.15,"pop":0},{"id":357252,"name":"‘Ezbet Libda","lon":30.43,"lat":30.93639,"pop":0},{"id":357250,"name":"‘Ezbet Lûbeir Gazzel","lon":32.03333,"lat":30.86667,"pop":0},{"id":357249,"name":"‘Ezbet Luṭaîyif","lon":30.43639,"lat":30.83472,"pop":0},{"id":357247,"name":"‘Ezbet Maasûr Ali Sulîman","lon":30.85,"lat":29.5,"pop":0},{"id":357246,"name":"‘Ezbet Maḥmûd","lon":30.83333,"lat":29.5,"pop":0},{"id":357245,"name":"‘Ezbet Mahmûd ‘Ali ‘Arafa","lon":30.96982,"lat":29.55163,"pop":0},{"id":357244,"name":"‘Ezbet Maḥmûd Bey Atîya","lon":31.08333,"lat":31.13333,"pop":0},{"id":357243,"name":"‘Ezbet Maḥmud Bey Muftâh","lon":30.76667,"lat":31.2,"pop":0},{"id":357242,"name":"‘Ezbet Maḥmûd el-Salyid","lon":30.88333,"lat":29.25,"pop":0},{"id":357241,"name":"‘Ezbet Maḥmûd Gâdalla","lon":30.8,"lat":29.38333,"pop":0},{"id":357239,"name":"‘Ezbet Mangûb el-Anqat","lon":30.65,"lat":28.1,"pop":0},{"id":357238,"name":"‘Ezbet Manṣur","lon":30.27139,"lat":30.88,"pop":0},{"id":357236,"name":"‘Ezbet Manṣûr Ḥammâd","lon":31.93333,"lat":30.71667,"pop":0},{"id":357233,"name":"‘Ezbet Maṭar","lon":30.76667,"lat":29.3,"pop":0},{"id":357232,"name":"‘Ezbet Matrûd","lon":30.46667,"lat":30.81139,"pop":0},{"id":357231,"name":"‘Ezbet Mâx Rino","lon":30.55694,"lat":30.73722,"pop":0},{"id":357229,"name":"‘Ezbet Mazyad","lon":30.43417,"lat":30.95611,"pop":0},{"id":357227,"name":"‘Ezbet Migalli Ḥimeid","lon":31.06667,"lat":29.21667,"pop":0},{"id":357224,"name":"‘Ezbet Mikhâ’îl Ḥanna","lon":30.85,"lat":29.46667,"pop":0},{"id":357180,"name":"‘Ezbet Muh Arif","lon":30.8,"lat":27.65,"pop":0},{"id":357221,"name":"‘Ezbet Muhammad","lon":30.83333,"lat":28.88333,"pop":0},{"id":357220,"name":"‘Ezbet Muḥammad","lon":30.07611,"lat":30.91472,"pop":0},{"id":357218,"name":"‘Ezbet Muḥammad ‘Abâda el-Baḥarîya","lon":30.93333,"lat":29.51667,"pop":0},{"id":357210,"name":"‘Ezbet Muḥammad ‘Alî el- Gharbîya","lon":30.58333,"lat":29.16667,"pop":0},{"id":357191,"name":"‘Ezbet Muḥammad ‘Osmân","lon":30.96667,"lat":29.43333,"pop":0},{"id":357216,"name":"‘Ezbet Muḥammad Abd el- Bâqi","lon":30.93751,"lat":29.54623,"pop":0},{"id":357214,"name":"‘Ezbet Muḥammad Abu Aḥmad","lon":31.1,"lat":29.2,"pop":0},{"id":357213,"name":"‘Ezbet Muḥammad Abu Ismâ‘îl","lon":30.6,"lat":31.3,"pop":0},{"id":357205,"name":"‘Ezbet Muḥammad el- Si‘ûdi","lon":32.27427,"lat":30.85153,"pop":0},{"id":357203,"name":"‘Ezbet Muḥammad el-Za‘îgi","lon":30.48333,"lat":31.35,"pop":0},{"id":357204,"name":"‘Ezbet Muḥammad el-Zâhid","lon":31.1,"lat":31.25,"pop":0},{"id":357202,"name":"‘Ezbet Muḥammad Farghali","lon":31,"lat":29.31667,"pop":0},{"id":357201,"name":"‘Ezbet Muhammad Gâd","lon":30.85,"lat":28.66667,"pop":0},{"id":357200,"name":"‘Ezbet Muḥammad Gâd","lon":30.86667,"lat":29.45,"pop":0},{"id":357199,"name":"‘Ezbet Muhammad Hasan","lon":30.68333,"lat":28.05,"pop":0},{"id":357196,"name":"‘Ezbet Muḥammad Khulus","lon":30.98333,"lat":29.53333,"pop":0},{"id":357194,"name":"‘Ezbet Muḥammad Manṣûr","lon":31.82917,"lat":30.86222,"pop":0},{"id":357192,"name":"‘Ezbet Muḥammad Nisîm","lon":31.72333,"lat":30.96111,"pop":0},{"id":357189,"name":"‘Ezbet Muḥammad Rida el- Îrânî","lon":31.31667,"lat":29.75,"pop":0},{"id":357187,"name":"‘Ezbet Muḥammad Sâbir","lon":30.95,"lat":29.5,"pop":0},{"id":357184,"name":"‘Ezbet Muḩammad Tuleib","lon":30.61667,"lat":25.68333,"pop":0},{"id":357183,"name":"‘Ezbet Muḥammad Yasîn","lon":31.16667,"lat":29.91667,"pop":0},{"id":357177,"name":"‘Ezbet Mursi Mikheimar","lon":31.03333,"lat":29.2,"pop":0},{"id":357176,"name":"‘Ezbet Mûsa el- Sha‘ît","lon":30.96343,"lat":29.5328,"pop":0},{"id":357174,"name":"‘Ezbet Muṣṭafa Ḥarrân","lon":30.65,"lat":28.36667,"pop":0},{"id":357175,"name":"‘Ezbet Muṣṭafa Mar‘i","alt":["`Ezbet Musa Mar`i","`Ezbet Mustafa Mar`i","‘Ezbet Musa Mar‘i"],"lon":30.385,"lat":31.44333,"pop":0},{"id":357173,"name":"‘Ezbet Muṣṭafa Pasha Mâhir","lon":30.15,"lat":31.05,"pop":0},{"id":357172,"name":"‘Ezbet Muttâh Abu Khalif","lon":30.65,"lat":29.13333,"pop":0},{"id":357171,"name":"‘Ezbet Nâshid","lon":30.66667,"lat":28.5,"pop":0},{"id":357170,"name":"‘Ezbet Nâshid Morqos","lon":31.00157,"lat":29.51232,"pop":0},{"id":357168,"name":"‘Ezbet Nasser","lon":30.51667,"lat":25.25,"pop":0},{"id":357166,"name":"‘Ezbet Nil","lon":31.11667,"lat":31.23333,"pop":0},{"id":357159,"name":"‘Ezbet Qalînî Manṣûr","lon":30.66667,"lat":28.35,"pop":0},{"id":357158,"name":"‘Ezbet Qasim Murâd Pasha","lon":31.55,"lat":30.4,"pop":0},{"id":357156,"name":"‘Ezbet Qasr Zayan","lon":30.56667,"lat":25.25,"pop":0},{"id":357155,"name":"‘Ezbet Qombânîyer el- Barnûgi","lon":30.40371,"lat":30.92478,"pop":0},{"id":357153,"name":"‘Ezbet Qût el- Qulûb el- Dimirdâshîya","lon":31.25049,"lat":29.6043,"pop":0},{"id":357154,"name":"‘Ezbet Qutb el- Hanbûli","lon":30.68245,"lat":29.16124,"pop":0},{"id":357151,"name":"‘Ezbet Rabi","alt":["`Ezbet Rabi","`Ezbet Rubi","‘Ezbet Rubi"],"lon":31.81111,"lat":30.89111,"pop":0},{"id":357150,"name":"‘Ezbet Râdî","lon":30.75333,"lat":30.67333,"pop":0},{"id":357149,"name":"‘Ezbet Ramaḍân Ḥusayn","alt":["`Ezbet Ramadan Husayn","`Ezbet Ramadan Husein","‘Ezbet Ramaḍân Ḥusein"],"lon":31.75833,"lat":30.63528,"pop":0},{"id":357145,"name":"‘Ezbet Riyâd Bishâra","lon":31.18121,"lat":29.91561,"pop":0},{"id":357144,"name":"‘Ezbet Rozenberg","lon":30.48333,"lat":31.23333,"pop":0},{"id":357143,"name":"‘Ezbet Rushdî","lon":30.85,"lat":29,"pop":0},{"id":357141,"name":"‘Ezbet Sa‘d","lon":31.60694,"lat":30.75722,"pop":0},{"id":357139,"name":"‘Ezbet Sa‘dî Mugâwir","lon":30.76667,"lat":29.46667,"pop":0},{"id":357134,"name":"‘Ezbet Sa‘id Pasha Zulfiqâr","lon":31.35,"lat":31.31667,"pop":0},{"id":357133,"name":"‘Ezbet Sâini Tutûngi","lon":31.37139,"lat":30.14194,"pop":0},{"id":357132,"name":"‘Ezbet Saiyid Ahmad ‘Ashur","lon":31.55,"lat":30.46667,"pop":0},{"id":357131,"name":"‘Ezbet Saiyid Ḥasan","lon":31.76667,"lat":31.08333,"pop":0},{"id":357130,"name":"‘Ezbet Sâkis Khalîfa","lon":31.06333,"lat":30.98111,"pop":0},{"id":357129,"name":"‘Ezbet Sakrân","lon":31.16667,"lat":31.08333,"pop":0},{"id":357128,"name":"‘Ezbet Salâma","lon":30.93333,"lat":31.33333,"pop":0},{"id":357125,"name":"‘Ezbet Ṣâliḥ ‘Abd Rabbu","lon":30.73333,"lat":29.1,"pop":0},{"id":357124,"name":"‘Ezbet Ṣâliḥ el- Lafî","lon":31,"lat":29.46667,"pop":0},{"id":357123,"name":"‘Ezbet Ṣâliḥ Rashwân","lon":30.86667,"lat":29.46667,"pop":0},{"id":357120,"name":"‘Ezbet Sanâ","lon":30.53333,"lat":25.06667,"pop":0},{"id":357119,"name":"‘Ezbet Serando","lon":30.37639,"lat":30.94556,"pop":0},{"id":357118,"name":"‘Ezbet Shafqa Khasro","lon":30.42167,"lat":30.88944,"pop":0},{"id":357117,"name":"‘Ezbet Shahîn","lon":30.46389,"lat":31.34139,"pop":0},{"id":357115,"name":"‘Ezbet Sharaf el-Dîn Ghâzi","lon":31.11667,"lat":31.03333,"pop":0},{"id":357114,"name":"‘Ezbet Sharâra","lon":31.18333,"lat":31.15,"pop":0},{"id":357113,"name":"‘Ezbet Sharikât Wardan","lon":30.9,"lat":30.26667,"pop":0},{"id":357112,"name":"‘Ezbet Shîha","lon":30.46028,"lat":30.94889,"pop":0},{"id":357111,"name":"‘Ezbet Shireif","lon":30.66667,"lat":28.35,"pop":0},{"id":357109,"name":"‘Ezbet Shôlah","lon":31.81278,"lat":31.37028,"pop":0},{"id":357108,"name":"‘Ezbet Shu‘eib","alt":["`Ezbet Shu `eib Wa`ir","`Ezbet Shu`eib","‘Ezbet Shu ‘eib Wâ‘ir"],"lon":30.17588,"lat":30.87455,"pop":0},{"id":357107,"name":"‘Ezbet Shurba el-Sharqîya","lon":30.58333,"lat":30.91667,"pop":0},{"id":357106,"name":"‘Ezbet Si’dâwi","lon":30.68333,"lat":29.18333,"pop":0},{"id":357104,"name":"‘Ezbet Sîdi ‘Îsa","lon":30.45206,"lat":30.81885,"pop":0},{"id":357105,"name":"‘Ezbet Sîdi Abu el-Nûr","lon":31.15,"lat":29.4,"pop":0},{"id":357103,"name":"‘Ezbet Silîm ‘Alî","lon":30.6,"lat":29.13333,"pop":0},{"id":357101,"name":"‘Ezbet Silîni Ḥabîb","lon":30.97544,"lat":29.4694,"pop":0},{"id":357100,"name":"‘Ezbet Ṣimeida Farrâg","lon":30.88333,"lat":29.45,"pop":0},{"id":357098,"name":"‘Ezbet Sulîmân el- Ṭawîl","lon":30.9,"lat":31.15,"pop":0},{"id":357095,"name":"‘Ezbet Sultân","lon":30.68333,"lat":28.06667,"pop":0},{"id":357096,"name":"‘Ezbet Sulṭân","lon":30.8,"lat":28.05,"pop":0},{"id":357088,"name":"‘Ezbet Ṭarâbamba","lon":30.5425,"lat":31.01528,"pop":0},{"id":357087,"name":"‘Ezbet Tell","lon":29.98333,"lat":31.08333,"pop":0},{"id":357086,"name":"‘Ezbet Tulba Sha‘râwi","lon":30.86667,"lat":29.46667,"pop":0},{"id":357084,"name":"‘Ezbet Ṭutba ‘Eid","lon":31.01667,"lat":29.06667,"pop":0},{"id":357080,"name":"‘Ezbet Umm Sin el- Fûqâniya","lon":30,"lat":31.26667,"pop":0},{"id":357075,"name":"‘Ezbet Ya‘qûb Mabrûk","lon":31,"lat":29.46667,"pop":0},{"id":357074,"name":"‘Ezbet Yasîn Abû el-Makârim","lon":30.88333,"lat":29.13333,"pop":0},{"id":357073,"name":"‘Ezbet Yasîn Khalîfa","lon":30.65483,"lat":29.22271,"pop":0},{"id":357071,"name":"‘Ezbet Yûsef ‘Abd el- Nabi","lon":30.65,"lat":28.16667,"pop":0},{"id":357070,"name":"‘Ezbet Yûsef-el-‘Abd","lon":30.01667,"lat":31.26667,"pop":0},{"id":357063,"name":"‘Ezbet Zagdûn","lon":31.01667,"lat":29.48333,"pop":0},{"id":357062,"name":"‘Ezbet Zeid","lon":30.7,"lat":29.35,"pop":0},{"id":357061,"name":"‘Ezbet Zeinab","lon":31.15361,"lat":30.32167,"pop":0},{"id":357057,"name":"‘Ezbet Zuheil","lon":30.50556,"lat":30.99833,"pop":0},{"id":357056,"name":"‘Ezbet Zulfiqâr Pasha","lon":31.33333,"lat":31.18333,"pop":0},{"id":356941,"name":"‘Farîya","lon":31.08333,"lat":30.68333,"pop":0},{"id":355563,"name":"‘Ilwān","alt":["Ilwan","Ilwān","`Ilwan","علوان"],"lon":31.09864,"lat":27.19788,"pop":0},{"id":8365056,"name":"‘Ilwat ‘Abd an Nabī","alt":["`Ilwat `Abd an Nabi","علوة عبد النبي"],"lon":29.93392,"lat":31.08035,"pop":0},{"id":8365047,"name":"‘Ilwat al Ḩājj ‘Umar","alt":["Al Mihjaf","Al Miḩjāf","`Ilwat al Hajj `Umar","almhjaf","المحجاف","علوة الحاج عمر"],"lon":29.9132,"lat":31.07829,"pop":0},{"id":8365048,"name":"‘Ilwat al Ḩājj Ḩamad","alt":["`Ilwat al Hajj Hamad","علوة الحاج حمد"],"lon":29.92322,"lat":31.07926,"pop":0},{"id":8365057,"name":"‘Ilwat ash Shaykh Sa‘īd","alt":["`Ilwat ash Shaykh Sa`id","`Ilwat ash-Shaykh Sa`id","علوة الشيخ سعيد","‘Ilwat ash-Shaykh Sa‘id"],"lon":29.93624,"lat":31.088,"pop":0},{"id":7911520,"name":"‘Imārāt al Bitrūl","alt":["`Imarat al Bitrul","عمارات البترول"],"lon":31.30689,"lat":30.00791,"pop":0},{"id":7911517,"name":"‘Imārāt an Naşr","alt":["`Imarat an Nasr","عمارات النصر"],"lon":31.31799,"lat":30.00728,"pop":0},{"id":7911620,"name":"‘Imārāt Imtidād Ramsīs","alt":["`Imarat Imtidad Ramsis","عمارات امتداد رمسيس"],"lon":31.30198,"lat":30.0632,"pop":0},{"id":8022433,"name":"‘Imārāt Rāmū","alt":["Ramu Building","Rāmū Building","`Imarat Ramu","عمارات رامو"],"lon":31.35,"lat":30.07083,"pop":0},{"id":346517,"name":"‘Inaybas","alt":["`Inaybas","`Ineibis","`Unaybis","عنيبس","‘Ineibis","‘Unaybis"],"lon":31.50061,"lat":26.72644,"pop":0},{"id":357708,"name":"‘Izab ‘Alī Sa‘īd ash Shīm","alt":["`Ezab Ali Said el-Shimi","`Izab `Ali Sa`id ash Shim","‘Ezab Ali Saîd el-Shimi"],"lon":32.56992,"lat":30.02019,"pop":0},{"id":355412,"name":"‘Izab ‘Arab al Juhmah","alt":["`Arab el Gahma","`Ezab `Arab el-Gohoma","`Izab `Arab al Juhmah","‘Arab el Gahma","‘Ezab ‘Arab el-Gohoma"],"lon":30.83333,"lat":27.33333,"pop":0},{"id":8543813,"name":"‘Izab al ‘Arab","alt":["`Izab al `Arab","`Izbat al `Arab","`Izbat al-`Arab","ʿzbt alʿrb","عزب العرب","عزبة العرب","‘Izbat al ‘Arab","‘Izbat al-‘Arab"],"lon":31.3853,"lat":31.09734,"pop":0},{"id":355413,"name":"‘Izab al Başāriţah","alt":["`Ezab el-Basarta","`Izab al Basaritah","‘Ezab el-Baṣârṭa"],"lon":31.79303,"lat":31.38041,"pop":0},{"id":421337,"name":"‘Izab al Murabba‘","alt":["`Izab al Murabba`","عزب المربع"],"lon":31.53137,"lat":31.34488,"pop":0},{"id":357705,"name":"‘Izab Al-‘Aqīdah","alt":["`Ezab El-Aaqeda","`Izab Al-`Aqidah","‘Ezab El-Aaqêda"],"lon":32.33439,"lat":30.43352,"pop":0},{"id":12144853,"name":"‘Izab ash Shaykh Faḑīl","alt":["`Izab ash Shaykh Fadil","`Izab ash-Shaykh Fadil","عزب الشيخ فضيل","‘Izab ash-Shaykh Faḍīl"],"lon":29.8267,"lat":30.80371,"pop":0},{"id":8070020,"name":"‘Izab at Tira‘ al Jadīdah","alt":["`Izab at Tira` al Jadidah","عزب الترع الجديدة"],"lon":31.568,"lat":30.69518,"pop":0},{"id":414867,"name":"‘Izab ath Thalāthīn","alt":["`Izab ath Thalathin","عزب الثلاثين"],"lon":30.02673,"lat":31.21411,"pop":0},{"id":355410,"name":"‘Izab Difshū","alt":["Difshu","`Izab Difshu","`Izbab Difshu","‘Izbab Difshū"],"lon":30.11361,"lat":31.20778,"pop":0},{"id":357703,"name":"‘Izab Ghānim Wahab","alt":["`Ezab Ghanim Wahab","`Izab Ghanim Wahab","‘Ezab Ghânim Wahab"],"lon":32.30778,"lat":30.49167,"pop":0},{"id":419922,"name":"‘Izab Manāshī al ‘Arab","alt":["`Izab Manashi al `Arab","عزب مناشي العرب"],"lon":31.2911,"lat":31.3301,"pop":0},{"id":416077,"name":"‘Izba al Ḩūt","alt":["`Izba al Hut","`Izbat al Hut","عزبة الحوت","‘Izbat al Ḥūt"],"lon":30.9806,"lat":31.1761,"pop":0},{"id":12014806,"name":"‘Izbah ‘Abd al Wāḩid","alt":["`Izbah `Abd al Wahid","`Izbat `Abd al-Wahid","عزبة عبد الواحد","‘Izbat ‘Abd al-Wāḥid"],"lon":30.75471,"lat":30.7348,"pop":0},{"id":421291,"name":"‘Izbah ‘Urfī","alt":["`Izbah `Urfi","عزبة عرفي"],"lon":31.66065,"lat":31.38423,"pop":0},{"id":11547628,"name":"‘Izbah (Saba‘ah) Sharq","alt":["`Izbah (Saba`ah) Sharq","`Izbah (Seven) Sharq","عزبة (سبعة) شرق","‘Izbah (Seven) Sharq"],"lon":31.89001,"lat":31.01471,"pop":0},{"id":12155392,"name":"‘Izbah Arba‘ah al Baḩrīyah","alt":["`Izbah Arba`ah al Bahriyah","`Izbah Number Four al-Bahariyyah","عزبة أربعة البحرية","‘Izbah Number Four al-Bahariyyah"],"lon":30.71624,"lat":28.77443,"pop":0},{"id":7846629,"name":"‘Izbah Ithnā ‘Ashar","alt":["`Iz. No 12","`Izbah 12","`Izbah Ithna `Ashar","عزبة ١٢","‘Iz. No 12","‘Izbah 12"],"lon":31.52381,"lat":31.27322,"pop":0},{"id":7780667,"name":"‘Izbah Khamsūn","alt":["`Izbah 50","`Izbah Khamsun","عزبة 50","عزبة ٥٠","‘Izbah 50"],"lon":31.33503,"lat":31.41665,"pop":0},{"id":416275,"name":"‘Izbah Nimrah Thalāthah","alt":["`Izbah Nimrah Thalathah","`Izbat Raqm 3","عزبة نمرة ۳","‘Izbat Raqm 3"],"lon":30.8877,"lat":31.35732,"pop":0},{"id":12143462,"name":"‘Izbah Raqam ar Rābi‘at ‘Ashar","alt":["`Izbah Number Fourteen","`Izbah Raqam ar Rabi`at `Ashar","عزبة رقم ١٤","‘Izbah Number Fourteen"],"lon":29.68799,"lat":30.82843,"pop":0},{"id":12155397,"name":"‘Izbah Raqam Arba‘ah al Qiblīyah","alt":["`Izbah Number Four al-Qibliyyah","`Izbah Raqam Arba`ah al Qibliyah","عزبة رقم اربعة القبلية","‘Izbah Number Four al-Qibliyyah"],"lon":30.70332,"lat":28.7646,"pop":0},{"id":12143463,"name":"‘Izbah Raqam ath Thālithat ‘Ashar","alt":["`Izbah Number Thirteen","`Izbah Raqam ath Thalithat `Ashar","عزبة رقم ١٣","‘Izbah Number Thirteen"],"lon":29.7093,"lat":30.82653,"pop":0},{"id":12143480,"name":"‘Izbah Raqam ath Thāminat ‘Ashar","alt":["`Izbah Number Eighteen","`Izbah Raqam ath Thaminat `Ashar","عزبة رقم ١٨","‘Izbah Number Eighteen"],"lon":29.65093,"lat":30.81209,"pop":0},{"id":12044157,"name":"‘Izbah Raqam Khamsah","alt":["`Izbah Raqam Khamsah","عزبة رقم خمسة"],"lon":31.92337,"lat":30.9571,"pop":0},{"id":12143465,"name":"‘Izbah Raqam Khāmsat ‘Ashar","alt":["`Izbah Number Fifteen","`Izbah Raqam Khamsat `Ashar","عزبة رقم ١٥","‘Izbah Number Fifteen"],"lon":29.70462,"lat":30.80604,"pop":0},{"id":12144841,"name":"‘Izbah Raqam Sab‘ah","alt":["`Izbah Raqam Sab`ah","عزبة رقم سبعة"],"lon":29.89698,"lat":30.87245,"pop":0},{"id":11547627,"name":"‘Izbah Raqam Sittah al Jadīdah","alt":["`Izbah Raqam Sittah al Jadidah","`Izbat Number Six al-Jadidah","عزبة رقم ستة الجديدة","‘Izbat Number Six al-Jadīdah"],"lon":31.88924,"lat":31.00543,"pop":0},{"id":12155399,"name":"‘Izbah Raqam Thalāthah","alt":["`Izbah Number Three","`Izbah Raqam Thalathah","عزبة رقم ثلاثة","‘Izbah Number Three"],"lon":30.7294,"lat":28.80729,"pop":0},{"id":12144857,"name":"‘Izbah Raqam Wāḩid wa ‘Ishrūn","alt":["`Izbah Number Twenty One","`Izbah Raqam Wahid wa `Ishrun","عزبة رقم ٢١","‘Izbah Number Twenty One"],"lon":29.98623,"lat":30.83613,"pop":0},{"id":7763091,"name":"‘Izbah Raqm ‘Asharah","alt":["`Izbah Raqm 10","`Izbah Raqm `Asharah","عزبة رقم 10","عزبة رقم ١٠","‘Izbah Raqm 10"],"lon":31.11625,"lat":31.44874,"pop":0},{"id":7763433,"name":"‘Izbah Raqm ‘Ishrūn","alt":["`Izbah Raqm 20","`Izbah Raqm `Ishrun","عزبة رقم 20","عزبة رقم ٢٠","‘Izbah Raqm 20"],"lon":31.08632,"lat":31.35,"pop":0},{"id":7763428,"name":"‘Izbah Raqm Aḩad ‘Ashar","alt":["`Izbah Raqm 11","`Izbah Raqm Ahad `Ashar","عزبة رقم 11","عزبة رقم ١١","‘Izbah Raqm 11"],"lon":31.09283,"lat":31.42203,"pop":0},{"id":7763055,"name":"‘Izbah Raqm Arba‘ah wa Arba‘ūn","alt":["`Izbah Raqm 44","`Izbah Raqm Arba`ah wa Arba`un","عزبة رقم 44","عزبة رقم ٤٤","‘Izbah Raqm 44"],"lon":31.09563,"lat":31.47995,"pop":0},{"id":7763056,"name":"‘Izbah Raqm Arba‘ah wa Sittūn","alt":["`Izbah Raqm 64","`Izbah Raqm Arba`ah wa Sittun","عزبة رقم 64","عزبة رقم ٦٤","‘Izbah Raqm 64"],"lon":31.08381,"lat":31.46945,"pop":0},{"id":7763060,"name":"‘Izbah Raqm Arba‘ah wa Sittūn","alt":["`Izbah Raqm 64","`Izbah Raqm Arba`ah wa Sittun","عزبة رقم 64","عزبة رقم ٦٤","‘Izbah Raqm 64"],"lon":31.09558,"lat":31.4517,"pop":0},{"id":7759575,"name":"‘Izbah Raqm Arba‘ūn","alt":["`Izbah Raqm 40","`Izbah Raqm Arba`un","عزبة رقم 40","عزبة رقم ٤٠","‘Izbah Raqm 40"],"lon":31.21615,"lat":31.38326,"pop":0},{"id":7763430,"name":"‘Izbah Raqm Ithnā ‘Ashar","alt":["`Izbah Raqm 12","`Izbah Raqm Ithna `Ashar","عزبة رقم 12","عزبة رقم ١٢","‘Izbah Raqm 12"],"lon":31.07575,"lat":31.40872,"pop":0},{"id":7763439,"name":"‘Izbah Raqm Ithnān wa Khamsūn","alt":["`Izbah Raqm 52","`Izbah Raqm Ithnan wa Khamsun","عزبة رقم 52","عزبة رقم ٥٢","‘Izbah Raqm 52"],"lon":31.04943,"lat":31.35547,"pop":0},{"id":7763058,"name":"‘Izbah Raqm Ithnān wa Sittūn","alt":["`Izbah Raqm 62","`Izbah Raqm Ithnan wa Sittun","عزبة رقم 62","عزبة رقم ٦٢","‘Izbah Raqm 62"],"lon":31.08329,"lat":31.46157,"pop":0},{"id":7765294,"name":"‘Izbah Raqm Ithnān wa Thamānūn","alt":["`Izbah Raqm 82","`Izbah Raqm Ithnan wa Thamanun","عزبة رقم 82","عزبة رقم ٨٢","‘Izbah Raqm 82"],"lon":31.04345,"lat":31.44235,"pop":0},{"id":7765299,"name":"‘Izbah Raqm Khamsah wa Sab‘ūn","alt":["`Izbah Raqm 75","`Izbah Raqm Khamsah wa Sab`un","عزبة رقم 75","عزبة رقم ۷٥","‘Izbah Raqm 75"],"lon":31.06379,"lat":31.38367,"pop":0},{"id":7763053,"name":"‘Izbah Raqm Khamsah wa Sittūn","alt":["Al Khasha`ah","Al Khasha‘ah","`Izbah Raqm 65","`Izbah Raqm Khamsah wa Sittun","الخشعة","عزبة 65","عزبة ٦٥","‘Izbah Raqm 65"],"lon":31.15448,"lat":31.49193,"pop":0},{"id":7763057,"name":"‘Izbah Raqm Khamsah wa Sittūn","alt":["`Izbah Raqm 65","`Izbah Raqm Khamsah wa Sittun","عزبة رقم 65","عزبة رقم ٦٥","‘Izbah Raqm 65"],"lon":31.06739,"lat":31.46943,"pop":0},{"id":416267,"name":"‘Izbah Raqm Khamsūn","alt":["`Izbah Raqm Khamsun","`Izbat Raqm 50","عزبة رقم ٥۰","‘Izbat Raqm 50"],"lon":31.00048,"lat":31.37262,"pop":0},{"id":7759604,"name":"‘Izbah Raqm Mi’ah wa Tis‘ūn","alt":["`Izbah Raqm 190","`Izbah Raqm Mi'ah wa Tis`un","عزبة رقم 190","عزبة رقم ١٩٠","‘Izbah Raqm 190"],"lon":31.22031,"lat":31.34238,"pop":0},{"id":7758843,"name":"‘Izbah Raqm Sab‘ah wa Arba‘ūn","alt":["`Izbah Raqm 47","`Izbah Raqm Sab`ah wa Arba`un","عزبة رقم 47","عزبة رقم ٤٧","‘Izbah Raqm 47"],"lon":31.22529,"lat":31.4194,"pop":0},{"id":416271,"name":"‘Izbah Raqm Sab‘ah wa Khamsūn","alt":["`Izbah Raqm Sab`ah wa Khamsun","`Izbat Raqm 57","عزبة رقم ٥۷","‘Izbat Raqm 57"],"lon":30.97409,"lat":31.40083,"pop":0},{"id":7765297,"name":"‘Izbah Raqm Sab‘ah wa Sab‘ūn","alt":["`Izbah Raqm 77","`Izbah Raqm Sab`ah wa Sab`un","عزبة رقم 77","عزبة رقم ۷۷","‘Izbah Raqm 77"],"lon":31.04428,"lat":31.40955,"pop":0},{"id":7759278,"name":"‘Izbah Raqm Sab‘ah wa Thalāthūn","alt":["`Izbah Raqm 37","`Izbah Raqm Sab`ah wa Thalathun","عزبة رقم 37","عزبة رقم ٣۷","‘Izbah Raqm 37"],"lon":31.24128,"lat":31.40223,"pop":0},{"id":7763431,"name":"‘Izbah Raqm Sab‘at ‘Ashar","alt":["`Izbah Raqm 17","`Izbah Raqm Sab`at `Ashar","عزبة رقم 17","عزبة رقم ١۷","‘Izbah Raqm 17"],"lon":31.07805,"lat":31.37802,"pop":0},{"id":416270,"name":"‘Izbah Raqm Sittah wa Khamsūn","alt":["`Izbah Raqm Sittah wa Khamsun","`Izbat Raqm 56","عزبة رقم ٥٦","‘Izbat Raqm 56"],"lon":30.96709,"lat":31.39109,"pop":0},{"id":7763429,"name":"‘Izbah Raqm Sittah wa Thamānūn","alt":["`Izbah Raqm 86","`Izbah Raqm Sittah wa Thamanun","عزبة رقم 86","عزبة رقم ٨٦","‘Izbah Raqm 86"],"lon":31.11126,"lat":31.40589,"pop":0},{"id":7758682,"name":"‘Izbah Raqm Sittūn","alt":["`Izbah Raqm 60","`Izbah Raqm Sittun","عزبة رقم 60","عزبة رقم ٦٠","‘Izbah Raqm 60"],"lon":31.21416,"lat":31.46485,"pop":0},{"id":7763054,"name":"‘Izbah Raqm Thalāthah wa Arba‘ūn","alt":["`Izbah Raqm 43","`Izbah Raqm Thalathah wa Arba`un","عزبة رقم 43","عزبة رقم ٤٣","‘Izbah Raqm 43"],"lon":31.0895,"lat":31.48545,"pop":0},{"id":7763437,"name":"‘Izbah Raqm Thalāthah wa Khamsūn","alt":["`Izbah Raqm 53","`Izbah Raqm Thalathah wa Khamsun","عزبة رقم 53","عزبة رقم ٥٣","‘Izbah Raqm 53"],"lon":31.05924,"lat":31.35034,"pop":0},{"id":7763059,"name":"‘Izbah Raqm Thalāthah wa Sittūn","alt":["`Izbah Raqm 63","`Izbah Raqm Thalathah wa Sittun","عزبة رقم 63","عزبة رقم ٦٣","‘Izbah Raqm 63"],"lon":31.06806,"lat":31.45333,"pop":0},{"id":7759597,"name":"‘Izbah Raqm Thalāthah wa Thalāthūn","alt":["`Izbah Raqm 33","`Izbah Raqm Thalathah wa Thalathun","عزبة رقم 33","عزبة رقم ٣٣","‘Izbah Raqm 33"],"lon":31.25008,"lat":31.34466,"pop":0},{"id":7764930,"name":"‘Izbah Raqm Thalāthah wa Thamānūn","alt":["`Izbah Raqm 83","`Izbah Raqm Thalathah wa Thamanun","عزبة رقم 83","عزبة رقم ٨٣","‘Izbah Raqm 83"],"lon":31.02799,"lat":31.45295,"pop":0},{"id":7848040,"name":"‘Izbah Raqm Thamāniyah","alt":["`Izbah Raqm 8","`Izbah Raqm Thamaniyah","عزبة رقم ٨","‘Izbah Raqm 8"],"lon":31.5519,"lat":31.36339,"pop":0},{"id":416274,"name":"‘Izbah Raqm Thamāniyah wa Khamsūn","alt":["`Izbah Raqm Thamaniyah wa Khamsun","`Izbat Raqm 58","عزبة رقم ٥۸","‘Izbat Raqm 58"],"lon":30.96205,"lat":31.36729,"pop":0},{"id":7765296,"name":"‘Izbah Raqm Thamāniyah wa Sab‘ūn","alt":["`Izbah Raqm 78","`Izbah Raqm Thamaniyah wa Sab`un","عزبة رقم 78","عزبة رقم ۷٨","‘Izbah Raqm 78"],"lon":31.02273,"lat":31.42677,"pop":0},{"id":7763432,"name":"‘Izbah Raqm Thamāniyat ‘Ashar","alt":["`Izbah Raqm 18","`Izbah Raqm Thamaniyat `Ashar","عزبة رقم 18","عزبة رقم ١٨","‘Izbah Raqm 18"],"lon":31.0893,"lat":31.37298,"pop":0},{"id":7759978,"name":"‘Izbah Raqm Thamānūn","alt":["`Izbah Raqm 80","`Izbah Raqm Thamanun","عزبة رقم 80","عزبة رقم ٨٠","‘Izbah Raqm 80"],"lon":31.16579,"lat":31.3774,"pop":0},{"id":416269,"name":"‘Izbah Raqm Tis‘ah wa Khamsūn","alt":["`Izbah Raqm Tis`ah wa Khamsun","`Izbat Raqm 59","عزبة رقم ٥۹","‘Izbat Raqm 59"],"lon":30.95778,"lat":31.37164,"pop":0},{"id":7763435,"name":"‘Izbah Raqm Tis‘ah wa Sittūn","alt":["`Izbah Raqm 69","`Izbah Raqm Tis`ah wa Sittun","عزبة رقم 69","عزبة رقم ٦٩","‘Izbah Raqm 69"],"lon":31.08218,"lat":31.34424,"pop":0},{"id":7763438,"name":"‘Izbah Raqm Tis‘ah wa Sittūn","alt":["`Izbah Raqm 69","`Izbah Raqm Tis`ah wa Sittun","عزبة رقم 69","عزبة رقم ٦٩","‘Izbah Raqm 69"],"lon":31.04269,"lat":31.36533,"pop":0},{"id":7759574,"name":"‘Izbah Raqm Wāḩid wa Arba‘ūn","alt":["`Izbah Raqm 41","`Izbah Raqm Wahid wa Arba`un","عزبة رقم 41","عزبة رقم ٤١","‘Izbah Raqm 41"],"lon":31.21823,"lat":31.38791,"pop":0},{"id":7765298,"name":"‘Izbah Raqm Wāḩid wa Sab‘ūn","alt":["`Izbah Raqm 71","`Izbah Raqm Wahid wa Sab`un","عزبة رقم 71","عزبة رقم ۷١","‘Izbah Raqm 71"],"lon":31.02475,"lat":31.39412,"pop":0},{"id":7781304,"name":"‘Izbah Sab‘ah wa ‘Ishrūn","alt":["`Izbah 27","`Izbah Sab`ah wa `Ishrun","عزبة ٢۷","‘Izbah 27"],"lon":31.28513,"lat":31.41319,"pop":0},{"id":7780682,"name":"‘Izbah Sab‘at ‘Ashar","alt":["`Izbah 17","`Izbah Sab`at `Ashar","عزبة 17","عزبة ١۷","‘Izbah 17"],"lon":31.30886,"lat":31.34752,"pop":0},{"id":12153393,"name":"‘Izbah Sittah","alt":["`Izbah Number Six","`Izbah Sittah","عزبة ستة","‘Izbah Number Six"],"lon":30.64723,"lat":28.66994,"pop":0},{"id":10337285,"name":"‘Izbah Thalāthah","alt":["`Izbah Thalathah","عزبة ۳"],"lon":30.45443,"lat":31.15077,"pop":0},{"id":415937,"name":"‘Izbah Thalāthah wa ‘Ishrūn","alt":["`Izbah Thalathah wa `Ishrun","`Izbat Nimrah 23","`Izbat Numrah 23","عزبة ۲۳","‘Izbat Nimrah 23","‘Izbat Numrah 23"],"lon":30.58733,"lat":31.10212,"pop":0},{"id":7780668,"name":"‘Izbah Wāḩid wa Khamsūn","alt":["`Izbah 51","`Izbah Wahid wa Khamsun","عزبة 51","عزبة ٥١","‘Izbah 51"],"lon":31.33153,"lat":31.41051,"pop":0},{"id":12044104,"name":"‘Izbat ‘Abas","alt":["`Izbat `Abas","عزبة عبس"],"lon":31.98392,"lat":30.83778,"pop":0},{"id":415901,"name":"‘Izbat ‘Abbās","alt":["`Izbat `Abbas","عزبة عباس"],"lon":30.62128,"lat":31.02341,"pop":0},{"id":415907,"name":"‘Izbat ‘Abbās","alt":["`Izbat `Abbas","عزبة عباس"],"lon":30.65957,"lat":31.01543,"pop":0},{"id":420569,"name":"‘Izbat ‘Abbās","alt":["`Izbat `Abbas","عزبة عباس"],"lon":31.48137,"lat":30.64739,"pop":0},{"id":7779545,"name":"‘Izbat ‘Abbās","alt":["`Izbat `Abbas","عزبة عباس"],"lon":31.56313,"lat":30.8586,"pop":0},{"id":10337151,"name":"‘Izbat ‘Abbās","alt":["`Izbat `Abbas","عزبة عباس"],"lon":30.31308,"lat":31.13176,"pop":0},{"id":419102,"name":"‘Izbat ‘Abbās ‘Ābidīn","alt":["`Izbat `Abbas `Abidin","``Izbat Abbas `Abdin","ʿzbt ʿbas ʿabdyn","عزبة عباس عابدين","‘‘Izbat Abbās ‘Ābdīn"],"lon":31.02279,"lat":31.03584,"pop":0},{"id":416296,"name":"‘Izbat ‘Abbās ‘Ubaydī","alt":["`Izbat `Abbas `Ubaydi","عزبة عباس عبيدي"],"lon":30.80303,"lat":31.26621,"pop":0},{"id":420679,"name":"‘Izbat ‘Abbās Ḩamdī","alt":["`Iz. `Abbas Hamdi","`Izbat `Abbas Hamdi","ʿzbt ʿbas hmdy","عزبة عباس حمدي","‘Iz. ‘Abbās Ḥamdī"],"lon":31.47124,"lat":30.80952,"pop":0},{"id":415900,"name":"‘Izbat ‘Abbās Jum‘ah","alt":["`Izbat `Abbas Jum`ah","عزبة عباس جمعة"],"lon":30.62062,"lat":31.01268,"pop":0},{"id":10495965,"name":"‘Izbat ‘Abbās Sayyid","alt":["`Izbat `Abbas Sayyid","عزبة عباس سيد"],"lon":30.15884,"lat":31.00917,"pop":0},{"id":419797,"name":"‘Izbat ‘Abbūd","alt":["`Izbat `Abbud","عزبة عبود"],"lon":31.23146,"lat":31.33887,"pop":0},{"id":421438,"name":"‘Izbat ‘Abbūd","alt":["`Izbat `Abbud","عزبة عبود"],"lon":31.71411,"lat":31.28611,"pop":0},{"id":415097,"name":"‘Izbat ‘Abd al ‘Āl","alt":["`Izbat `Abd al `Al","عزبة عبد العال"],"lon":30.27767,"lat":31.18436,"pop":0},{"id":420552,"name":"‘Izbat ‘Abd al ‘Āl","alt":["`Izbat `Abd al `Al","عزبة عبد العال"],"lon":31.44115,"lat":30.62763,"pop":0},{"id":421182,"name":"‘Izbat ‘Abd al ‘Āl","alt":["`Izbat `Abd al `Al","عزبة عبد العال"],"lon":31.84356,"lat":31.07624,"pop":0},{"id":12044029,"name":"‘Izbat ‘Abd al ‘Āl al ‘Aţwānī","alt":["`Izbat `Abd al `Al al `Atwani","عزبة عبد العال العطواني"],"lon":31.9085,"lat":30.90186,"pop":0},{"id":419630,"name":"‘Izbat ‘Abd al ‘Āl Ibrāhīm","alt":["`Izbat `Abd al `Al Ibrahim","ʿzbt ʿbd alʿal abrahym","عزبة عبد العال إبراهيم"],"lon":31.69603,"lat":31.08247,"pop":0},{"id":11545533,"name":"‘Izbat ‘Abd al ‘Āţī ‘Alī al Jamāl","alt":["`Izbat `Abd al `Ati `Ali al Jamal","`Izbat `Abd al `Ati al-Jammal","عزبة عبد العاطي علي الجمال","‘Izbat ‘Abd al ‘Āṭi al-Jammāl"],"lon":30.95084,"lat":30.43527,"pop":0},{"id":434308,"name":"‘Izbat ‘Abd al ‘Az̧īm","lon":30.86764,"lat":29.49728,"pop":0},{"id":11545708,"name":"‘Izbat ‘Abd al ‘Az̧īm Ibrāhīm","alt":["`Izbat `Abd al `Azim Ibrahim","`Izbat `Abd al-`Azim Ibrahim","عزبة عبد العظيم إبراهيم","‘Izbat ‘Abd al-‘Aẓīm Ibrāhīm"],"lon":31.82587,"lat":30.74785,"pop":0},{"id":11545627,"name":"‘Izbat ‘Abd al ‘Az̧īm Mūsá","alt":["`Izbat `Abd al Azim Musa","`Izbat `Abd al `Azim Musa","عزبة عبد العظيم موسى","‘Izbat ‘Abd al Aẓīm Mūsá"],"lon":30.89079,"lat":30.28893,"pop":0},{"id":415120,"name":"‘Izbat ‘Abd al ‘Azīz","alt":["`Izbat `Abd al `Aziz","عزبة عبد العزيز"],"lon":30.44616,"lat":31.23971,"pop":0},{"id":8560858,"name":"‘Izbat ‘Abd al ‘Azīz ‘Imārah","alt":["`Izbat `Abd al `Aziz `Imarah","`Izbat `Abd al-`Aziz `Imarah","ʿzbt ʿbd alʿzyz ʿmart","عزبة عبد العزيز عمارة","‘Izbat ‘Abd al-‘Azīz ‘Imārah"],"lon":31.15364,"lat":30.88186,"pop":0},{"id":420699,"name":"‘Izbat ‘Abd al ‘Azīz al Basyūnī","alt":["`Iz. `Abd al-`Aziz al-Basyuni","`Izbat `Abd al `Aziz al Basyuni","ʿzbt ʿbd alʿzyz albsywny","عزبة عبد العزيز البسىوني","‘Iz. ‘Abd al-‘Azīz al-Basyūnī"],"lon":31.45432,"lat":30.82965,"pop":0},{"id":8139173,"name":"‘Izbat ‘Abd al ‘Azīz Amīn","alt":["`Izbat `Abd al `Aziz Amin","عزبة عبد العزيز أمين"],"lon":31.53393,"lat":30.41085,"pop":0},{"id":8560700,"name":"‘Izbat ‘Abd al ‘Azīz Khiḑr","alt":["`Izbat `Abd al `Aziz Khidr","`Izbat `Abd al-`Aziz Khidr","ʿzbt ʿbd alʿzyz khdr","عزبة عبد العزيز خضر","‘Izbat ‘Abd al-‘Azīz Khiḍr"],"lon":31.06676,"lat":30.89808,"pop":0},{"id":357692,"name":"‘Izbat ‘Abd al ‘Azīz Makhyūl","alt":["`Ezbet `Abd el-`Aziz Bey Makhyun","`Izbat `Abd al `Aziz Bey Makhyun","`Izbat `Abd al `Aziz Makhyul","عزبة عبد العزيز مخيول","‘Ezbet ‘Abd el-‘Aziz Bey Makhyûn","‘Izbat ‘Abd al ‘Azīz Bey Makhyūn"],"lon":30.25378,"lat":31.15819,"pop":0},{"id":8069604,"name":"‘Izbat ‘Abd al ‘Azīz Raḑwān","alt":["`Izbat `Abd al `Aziz Radwan","عزبة عبد العزيز رضوان"],"lon":31.72475,"lat":30.66311,"pop":0},{"id":8069609,"name":"‘Izbat ‘Abd al ‘Azīz Raḑwān","alt":["`Izbat `Abd al `Aziz Radwan","عزبة عبد العزيز رضوان"],"lon":31.70472,"lat":30.65177,"pop":0},{"id":421428,"name":"‘Izbat ‘Abd al Bāqī","alt":["`Izbat `Abd al Baqi","عزبة عبد الباقي"],"lon":31.59926,"lat":31.28371,"pop":0},{"id":8068971,"name":"‘Izbat ‘Abd al Bāqī","alt":["`Izbat `Abd al Baqi","عزبة عبد الباقي"],"lon":31.71372,"lat":30.75008,"pop":0},{"id":415096,"name":"‘Izbat ‘Abd al Barr","alt":["`Izbat `Abd al Barr","عزبة عبد البر"],"lon":30.25715,"lat":31.18532,"pop":0},{"id":12043932,"name":"‘Izbat ‘Abd al Fattāḩ","alt":["`Izbat `Abd al Fattah","عزبة عبد الفتاح"],"lon":31.78853,"lat":30.79853,"pop":0},{"id":415772,"name":"‘Izbat ‘Abd al Fattāḩ ‘Alī","alt":["`Izbat `Abd al Fattah `Ali","عزبة عبد الفتاح علي"],"lon":30.59182,"lat":31.17531,"pop":0},{"id":416142,"name":"‘Izbat ‘Abd al Fattāḩ ad Dardīrī","alt":["`Izbat `Abd al Fattah ad Dardiri","`Izbat `Abd al-Fattah ad-Dardiri","عزبة عبد الفتاح الدرديرى","‘Izbat ‘Abd al-Fattāḥ ad-Dardīrī"],"lon":30.8589,"lat":31.01514,"pop":0},{"id":416163,"name":"‘Izbat ‘Abd al Fattāḩ al Lam‘ī","alt":["`Izbat `Abd al Fattah al Lam`i","`Izbat `Abd al-Fattah al-Lam`i","عزبة عبد الفتاح اللمعي","‘Izbat ‘Abd al-Fattāh al-Lam‘ī"],"lon":30.83657,"lat":31.07186,"pop":0},{"id":11547578,"name":"‘Izbat ‘Abd al Fattāḩ aş Şafţī","alt":["`Izbat `Abd al Fattah as Safti","`Izbat `Abd al-Fattah as-Safti","عزبة عبد الفتاح الصفطي","‘Izbat ‘Abd al-Fattāḥ aṣ-Ṣafṭī"],"lon":30.95014,"lat":31.13715,"pop":0},{"id":11545512,"name":"‘Izbat ‘Abd al Fattāḩ Khayr Allāh","alt":["`Izbat `Abd al Fattah Khayr Allah","`Izbat `Abd al Fattah khayr Allah","عزبة عبد الفتاح خير الله","‘Izbat ‘Abd al Fattāḥ khayr Allāh"],"lon":30.8672,"lat":30.48243,"pop":0},{"id":433099,"name":"‘Izbat ‘Abd al Ghaffār","alt":["`Izbat `Abd al Ghaffar","عزبة عبد الغفار"],"lon":30.63339,"lat":30.82428,"pop":0},{"id":416145,"name":"‘Izbat ‘Abd al Ghaffār ash Shādhlī","alt":["`Izbat `Abd al Ghaffar ash Shadhli","عزبة عبد الغفار الشاذلي"],"lon":30.85412,"lat":31.00997,"pop":0},{"id":12000833,"name":"‘Izbat ‘Abd al Ghanī al Buḩayrī","alt":["`Iz. `Abd al-Ghani al-Buhayri","`Izbat `Abd al Ghani al Buhayri","عزبة عبد الغنى البحيرى","‘Iz. ‘Abd al-Ghanī al-Buḥayrī"],"lon":30.65925,"lat":29.3169,"pop":0},{"id":12014884,"name":"‘Izbat ‘Abd al Ghanī Barakāt","alt":["`Izbat `Abd al Ghani Barakat","عزبة عبد الغني بركات"],"lon":30.94274,"lat":30.5788,"pop":0},{"id":12014907,"name":"‘Izbat ‘Abd al Ghanī Haykal","alt":["`Izbat `Abd al Ghani Haykal","عزبة عبد الغني هيكل"],"lon":30.81927,"lat":30.55262,"pop":0},{"id":416194,"name":"‘Izbat ‘Abd al Ghanī Karārah and Shurakāh","alt":["`Izbat `Abd al Ghani Kararah and Shurakah","`Izbat `Abd al Ghani Kararah wa Shurakah","عزبة عبد الغني كرارة وشركاة","‘Izbat ‘Abd al Ghanī Karārah wa Shurakāh"],"lon":30.77402,"lat":31.17217,"pop":0},{"id":420581,"name":"‘Izbat ‘Abd al Hādī Badr","alt":["`Izbat `Abd al Hadi Badr","عزبة عبد الهادي بدر"],"lon":31.41299,"lat":30.67403,"pop":0},{"id":9261061,"name":"‘Izbat ‘Abd al Hādī Badr","alt":["`Izbat `Abd al Hadi Badr","ʿzbt ʿbd alhady bdr","عزبة عبد الهادي بدر"],"lon":31.48018,"lat":30.72712,"pop":0},{"id":415147,"name":"‘Izbat ‘Abd al Ḩafīz̧","alt":["'Izbat 'Abd al-Hafiz","`Izbat `Abd al Hafiz","عزبة عبد الحفيظ","‘Izbat ‘Abd al-Ḥafīẓ"],"lon":30.46249,"lat":31.20544,"pop":0},{"id":12043913,"name":"‘Izbat ‘Abd al Ḩafīz̧","alt":["`Izbat `Abd al Hafiz","عزبة عبد الحفيظ"],"lon":31.78862,"lat":30.86066,"pop":0},{"id":12000843,"name":"‘Izbat ‘Abd al Ḩāfiz̧","alt":["`Iz. `Abd al-Hafiz","`Izbat `Abd al Hafiz","عزبة عبد الحافظ","‘Iz. ‘Abd al-Ḥāfiẓ"],"lon":30.68325,"lat":29.26818,"pop":0},{"id":11545606,"name":"‘Izbat ‘Abd al Ḩāfiz̧ ‘Amrū","alt":["`Izbat `Abd al Hafiz `Amr","`Izbat `Abd al Hafiz `Amru","عزبة عبد الحافظ عمرو","‘Izbat ‘Abd al Ḥāfiẓ ‘Amr"],"lon":30.94483,"lat":30.32015,"pop":0},{"id":10337181,"name":"‘Izbat ‘Abd al Ḩāfiz̧ al Khāwī","alt":["`Izbat `Abd al Hafiz al Khawi","`Izbat `Abd al-Hafiz al-Khawi","عزبة عبد الحافظ الخاوي","‘Izbat ‘Abd al-Ḥāfiz al-Khāwī"],"lon":30.29968,"lat":31.04305,"pop":0},{"id":12014881,"name":"‘Izbat ‘Abd al Ḩāfiz̧ Jum‘ah","alt":["`Izbat `Abd al Hafiz Jum`ah","`Izbat `Abd al-Hafiz Jum`ah","عزبة عبد الحافظ جمعه","‘Izbat ‘Abd al-Ḥāfiẓ Jum‘ah"],"lon":30.91527,"lat":30.62471,"pop":0},{"id":12014930,"name":"‘Izbat ‘Abd al Ḩafīz̧ Nāşif","alt":["`Izbat `Abd al Hafiz Nasif","`Izbat `Abd al-Hafiz Nasif","عزبة عبد الحفيظ ناصف","‘Izbat ‘Abd al-Ḥafiẓ Nāṣif"],"lon":30.81665,"lat":30.53159,"pop":0},{"id":433500,"name":"‘Izbat ‘Abd al Ḩalīm ‘Abd al Jalīl","alt":["`Izbat `Abd al Halim `Abd al Jalil","عزبة عبد الحليم عبد الجليل"],"lon":31.53878,"lat":30.73212,"pop":0},{"id":8199957,"name":"‘Izbat ‘Abd al Ḩalīm ‘Ashūsh","alt":["`Izbat `Abd al Halim `Ashush","عزبة عبد الحليم عشوش"],"lon":31.20214,"lat":30.65635,"pop":0},{"id":421130,"name":"‘Izbat ‘Abd al Ḩalīm Abū al ‘Izz","alt":["`Izbat `Abd al Halim Abu al `Izz","`Izbat `Abd al-Halim Abu al-`Izz","عزبة عبد الحليم أبو العز","‘Izbat ‘Abd al-Ḥalīm Abū al-‘Izz"],"lon":31.89949,"lat":31.1224,"pop":0},{"id":7779493,"name":"‘Izbat ‘Abd al Hamīd","alt":["`Izbat `Abd al Hamid","عزبة عبد الحميد"],"lon":31.60969,"lat":30.75492,"pop":0},{"id":416113,"name":"‘Izbat ‘Abd al Ḩamīd","alt":["`Izbat `Abd al Hamid","`Izbat `Abd al-Hamid","عزبة عبد الحميد","‘Izbat ‘Abd al-Hamīd"],"lon":30.99723,"lat":31.03976,"pop":0},{"id":420544,"name":"‘Izbat ‘Abd al Ḩamīd","alt":["`Izbat `Abd al Hamid","`Izbat `Abd al-Hamid","عزبة عبد الحميد","‘Izbat ‘Abd al-Ḥamīd"],"lon":31.403,"lat":30.61954,"pop":0},{"id":11547538,"name":"‘Izbat ‘Abd al Ḩamīd","alt":["`Izbat `Abd al Hamid","`Izbat `Abd al-Hamid","عزبة عبد الحميد","‘Izbat ‘Abd al-Ḥamīd"],"lon":30.86942,"lat":31.07465,"pop":0},{"id":12010153,"name":"‘Izbat ‘Abd al Ḩamīd","alt":["`Izbat `Abd al Hamid","`Izbat `Abd al-Hamid","عزبة عبد الحميد","‘Izbat ‘Abd al-Ḥamīd"],"lon":30.71124,"lat":30.83566,"pop":0},{"id":12014910,"name":"‘Izbat ‘Abd al Ḩamīd ‘Abd al ‘Azīz","alt":["`Izbat `Abd al Hamid `Abd al `Aziz","`Izbat `Abd al-Hamid `Abd al-`Aziz","عزبة عبد الحميد عبد العزيز","‘Izbat ‘Abd al-Ḥamīd ‘Abd al-‘Azīz"],"lon":30.86972,"lat":30.53877,"pop":0},{"id":421414,"name":"‘Izbat ‘Abd al Ḩamīd ‘Alī","alt":["`Izbat `Abd al Hamid `Ali","عزبة عبد الحميد علي"],"lon":31.53181,"lat":31.28895,"pop":0},{"id":433304,"name":"‘Izbat ‘Abd al Ḩamīd ‘Alī al Karbūnī","alt":["`Izbat `Abd al Hamid `Ali al Karbuni","`Izbat `Abd al-Hamid `Ali al-Karbuni","عزبة عبد الحميد علي الكربوني","‘Izbat ‘Abd al-Ḥamīd ‘Alī al-Karbūnī"],"lon":30.67554,"lat":30.95826,"pop":0},{"id":419923,"name":"‘Izbat ‘Abd al Ḩamīd ‘Uthmān","alt":["`Izbat `Abd al Hamid `Uthman","عزبة عبد الحميد عثمان"],"lon":31.30652,"lat":31.32878,"pop":0},{"id":12010096,"name":"‘Izbat ‘Abd al Ḩamīd Abū ‘Ijaylah","alt":["`Izbat `Abd al Hamid Abu `Ijaylah","`Izbat `Abd al-Hamid Abu `Ijaylah","عزبة عبد الحميد أبو عجيلة","‘Izbat ‘Abd al-Ḥamīd Abū ‘Ijaylah"],"lon":30.54842,"lat":30.95254,"pop":0},{"id":433065,"name":"‘Izbat ‘Abd al Ḩamīd Abū Mandūr","alt":["`Izbat `Abd al Hamid Abu Mandur","`Izbat `Abd al-Hamid Abu Mandur","عزبة عبد الحميد أبو مندور","‘Izbat ‘Abd al-Ḥamīd Abū Mandūr"],"lon":30.63759,"lat":30.80962,"pop":0},{"id":12014934,"name":"‘Izbat ‘Abd al Ḩamīd Abū Zayd","alt":["`Izbat `Abd al Hamid Abu Zayd","`Izbat `Abd al-Hamid Abu Zayd","عزبة عبد الحميد أبو زيد","‘Izbat ‘Abd al-Ḥamīd Abū Zayd"],"lon":30.75463,"lat":30.52735,"pop":0},{"id":11545634,"name":"‘Izbat ‘Abd al Ḩamīd Aḩmad","alt":["`Izbat `Abd al Hamid Ahmad","عزبة عبد الحميد أحمد","‘Izbat ‘Abd al Ḥamīd Aḥmad"],"lon":30.95628,"lat":30.26289,"pop":0},{"id":8560386,"name":"‘Izbat ‘Abd al Ḩamīd al Bakrī al Qadīm","alt":["`Izbat `Abd al Hamid al Bakri al Qadim","`Izbat `Abd al-Hamid al-Bakri al-Qadim","ʿzbt ʿbd alhmyd albkry alqdym","عزبة عبد الحميد البكري القديم","‘Izbat ‘Abd al-Ḥamīd al-Bakrī al-Qadīm"],"lon":31.03927,"lat":30.92487,"pop":0},{"id":416228,"name":"‘Izbat ‘Abd al Ḩamīd al Burhāmī","alt":["`Izbat `Abd al Hamid al Burhami","`Izbat `Abd al-Hamid al-Burhami","عزبة عبد الحميد البرهامي","‘Izbat ‘Abd al-Ḥamīd al-Burhāmī"],"lon":30.81791,"lat":31.24708,"pop":0},{"id":8139082,"name":"‘Izbat ‘Abd al Ḩamīd al Mahdī","alt":["`Izbat `Abd al Hamid al Mahdi","`Izbat `Abd al-Hamid al-Mahdi","عزبة عبد الحميد المهدي","عزبة عيد الحميد المهدي","‘Izbat ‘Abd al-Ḥamid al-Mahdī"],"lon":31.24176,"lat":30.38405,"pop":0},{"id":8139047,"name":"‘Izbat ‘Abd al Ḩamīd ar Rimālī","alt":["`Izbat `Abd al Hamid ar Rimali","`Izbat `Abd al-Hamid ar-Rimali","عزبة عبد الحميد الرمالي","‘Izbat ‘Abd al-Ḥamīd ar-Rimālī"],"lon":31.20786,"lat":30.4615,"pop":0},{"id":433075,"name":"‘Izbat ‘Abd al Ḩamīd as Sa‘dī","alt":["`Izbat `Abd al Hamid as Sa`di","`Izbat `Abd al-Hamid as-Sa`di","عزبة عبد الحميد السعدي","‘Izbat ‘Abd al-Ḥāmīd as-Sa‘dī"],"lon":30.55877,"lat":30.78797,"pop":0},{"id":416103,"name":"‘Izbat ‘Abd al Ḩamīd as Siyūfī","alt":["`Izbat `Abd al Hamid as Siyufi","`Izbat `Abd al-Hamid as-Siyufi","عزبة عبد الحميد السيوفي","‘Izbat ‘Abd al-Ḥamīd as-Siyūfī"],"lon":30.97921,"lat":31.06664,"pop":0},{"id":8624307,"name":"‘Izbat ‘Abd al Ḩamīd Bahjat","alt":["`Izbat `Abd al Hamid Bahjat","`Izbat `Abd al-Hamid Bahjat","ʿzbt ʿbd alhmyd bhjt","عزبة عبد الحميد بهجت","‘Izbat ‘Abd al-Ḥamīd Bahjat"],"lon":30.93563,"lat":30.8215,"pop":0},{"id":11545605,"name":"‘Izbat ‘Abd al Ḩamīd Maḩmūd","alt":["`Izbat `Abd al Hamid Mahmud","عزبة عبد الحميد محمود","‘Izbat ‘Abd al Ḥamīd Maḥmūd"],"lon":30.9485,"lat":30.31579,"pop":0},{"id":8139046,"name":"‘Izbat ‘Abd al Ḩamīd Naşr","alt":["`Izbat `Abd al Hamid Nasir","`Izbat `Abd al Hamid Nasr","`Izbat `Abd al-Hamid Nasr","عزبة عبد الحميد نصر","عزبة عبدالحميد نصر","‘Izbat ‘Abd al Ḩamīd Naşir","‘Izbat ‘Abd al-Ḥamīd Naṣr"],"lon":31.2467,"lat":30.49652,"pop":0},{"id":420706,"name":"‘Izbat ‘Abd al Ḩamīd Sayyid Aḩmad","alt":["`Iz. `Abd al-Hamid Sayyid Ahmad","`Izbat `Abd al Hamid Sayyid Ahmad","ʿzbt ʿbd alhmyd syd ahmd","عزبة عبد الحميد سيد أحمد","‘Iz. ‘Abd al-Ḥamīd Sayyid Aḥmad"],"lon":31.47927,"lat":30.84217,"pop":0},{"id":355404,"name":"‘Izbat ‘Abd al Ḩamīd Shīḩah","alt":["`Ezbet `Abd el-Hamid Shiha","`Ezbet el Eswid","`Izbat `Abd al Hamid Shihah","‘Ezbet el Eswid","‘Ezbet ‘Abd el-Ḥamîd Shiha"],"lon":30.26667,"lat":31.11667,"pop":0},{"id":433107,"name":"‘Izbat ‘Abd al Ḩamīd Sibaytī","alt":["`Izbat `Abd al Hamid Sibayti","`Izbat `Abd al Hamid as Sibayti","`Izbat `Abd al-Hamid Sibayti","عزبة عبد الحميد سبيتي","‘Izbat ‘Abd al Ḩamīd as Sibaytī","‘Izbat ‘Abd al-Ḥamīd Sibaytī"],"lon":30.67854,"lat":30.82186,"pop":0},{"id":415842,"name":"‘Izbat ‘Abd al Jalīl","alt":["`Izbat `Abd al Jalil","عزبة عبد الجليل"],"lon":30.74566,"lat":31.15289,"pop":0},{"id":8715702,"name":"‘Izbat ‘Abd al Jalīl","alt":["`Izbat `Abd al Jalil","`Izbat `Abd al-Jalil","ʿzbt ʿbd aljlyl","عزبة عبد الجليل","‘Izbat ‘Abd al-Jalīl"],"lon":30.51129,"lat":31.06663,"pop":0},{"id":12000784,"name":"‘Izbat ‘Abd al Jalīl ‘Amir","alt":["`Izbat `Abd al Jalil `Amir","عزبة عبد الجليل عامر"],"lon":30.66128,"lat":29.42357,"pop":0},{"id":434758,"name":"‘Izbat ‘Abd al Jawād Aḩmad","lon":30.94817,"lat":29.16364,"pop":0},{"id":415847,"name":"‘Izbat ‘Abd al Jawwād","alt":["`Izbat `Abd al Jawwad","عزبة عبد الجواد"],"lon":30.69957,"lat":31.14342,"pop":0},{"id":12073945,"name":"‘Izbat ‘Abd al Jawwād","alt":["`Izbat `Abd al Jawwad","عزبة عبد الجواد"],"lon":32.50825,"lat":25.48892,"pop":0},{"id":357165,"name":"‘Izbat ‘Abd al Jawwād ‘Ilaywah","alt":["`Ezbet `Abd el-Gauwad `Ileiwa","`Izbat `Abd al Jawwad `Ilaywah","عزبة عبد الجواد عليوة","‘Ezbet ‘Abd el-Gauwâd ‘Ileiwa"],"lon":30.81661,"lat":31.23377,"pop":0},{"id":415809,"name":"‘Izbat ‘Abd al Karīm Abū Ra’s","alt":["`Izbat `Abd al Karim Abu Ra's","عزبة عبد الكريم أبو رأس"],"lon":30.70867,"lat":31.15733,"pop":0},{"id":419856,"name":"‘Izbat ‘Abd al Karīm al Qiblīyah","alt":["`Izbat `Abd al Karim al Qibliyah","عزبة عبد الكريم القبلية"],"lon":31.11887,"lat":31.25919,"pop":0},{"id":8068360,"name":"‘Izbat ‘Abd al Khāliq","alt":["`Izbat `Abd al Khaliq","عزبة عبد الخالق"],"lon":31.65215,"lat":30.73759,"pop":0},{"id":12044010,"name":"‘Izbat ‘Abd al Khāliq","alt":["`Izbat `Abd al Khaliq","عزبة عبد الخالق"],"lon":31.84915,"lat":30.93752,"pop":0},{"id":433123,"name":"‘Izbat ‘Abd al Laţīf al Ḩinnāwī","alt":["`Izbat `Abd al Latif al Hinnawi","`Izbat `Abd al-Latif al-Hinnawi","عزبة عبد اللطيف الحناوي","‘Izbat ‘Abd al-Laṭīf al-Ḥinnāwī"],"lon":30.7435,"lat":30.84565,"pop":0},{"id":419567,"name":"‘Izbat ‘Abd al Laţīf al Mikbātī","alt":["`Iz. `Abd Al-Latif al-Makabbati","`Izbat `Abd al Latif al Makabbati","`Izbat `Abd al Latif al Mikbati","ʿzbt ʿbd alltyf almkbaty","عزبة عبد اللطيف المكباتي","‘Iz. ‘Abd Al-Laṭīf al-Makabbātī","‘Izbat ‘Abd al Latīf al Makabbātī"],"lon":31.74693,"lat":31.12422,"pop":0},{"id":421243,"name":"‘Izbat ‘Abd al Laţīf Shalabī","alt":["`Izbat `Abd al Latif Shalabi","`Izbat `Abd al-Latif Shalabi","عزبة عبد اللطيف شلبي","‘Izbat ‘Abd al-Laṭīf Shalabī"],"lon":31.8015,"lat":31.01414,"pop":0},{"id":11545519,"name":"‘Izbat ‘Abd al Majīd ‘Aţīyah","alt":["`Izbat `Abd al Majid `Atiyah","`Izbat `Abd al Majid `Atiyyah","عزبة عبد المجيد عطية","‘Izbat ‘Abd al Majīd ‘Aṭiyyah"],"lon":30.94481,"lat":30.48047,"pop":0},{"id":434840,"name":"‘Izbat ‘Abd al Majīd al Biltājī","alt":["`Izbat Abd al Majid al Biltaji","`Izbat `Abd al Majid al Biltaji","عزبة عبد المجيد البلتاجي","‘Izbat Abd al Majīd al Biltājī"],"lon":30.73023,"lat":29.40451,"pop":0},{"id":433828,"name":"‘Izbat ‘Abd al Majīd al Mīhilmī","alt":["`Izbat `Abd al Majid al Mihilmi","عزبة عبد المجيد الميهلمي"],"lon":31.66159,"lat":30.78958,"pop":0},{"id":416146,"name":"‘Izbat ‘Abd al Majīd ash Shādhlī","alt":["`Izbat `Abd al Majid ash Shadhli","`Izbat `Abd al-Mijid ash-Shadhli","عزبة عبد المجيد الشاذلي","‘Izbat ‘Abd al-Mijīd ash-Shādhlī"],"lon":30.8533,"lat":31.00208,"pop":0},{"id":415766,"name":"‘Izbat ‘Abd al Majīd Barakāt","alt":["`Izbat `Abd al Majid Barakat","عزبة عبد المجيد بركات"],"lon":30.53677,"lat":31.17779,"pop":0},{"id":8067763,"name":"‘Izbat ‘Abd al Majīd Fawzī","alt":["`Izbat `Abd al Majid Fawzi","عزبة عبد المجيد فوزي"],"lon":31.52508,"lat":30.69244,"pop":0},{"id":12000790,"name":"‘Izbat ‘Abd al Majīd Muftāḩ","alt":["`Iz. `Abd al-Majid Muftah","`Izbat `Abd al Majid Muftah","عزبة عبد المجيد مفتاح","‘Iz. ‘Abd al-Majīd Muftāḥ"],"lon":30.74961,"lat":29.4573,"pop":0},{"id":8199987,"name":"‘Izbat ‘Abd al Majīd Rakhāmah","alt":["`Izbat `Abd al Majid Rakhamah","عزبة عبد المجيد رخامة"],"lon":31.21495,"lat":30.62645,"pop":0},{"id":420650,"name":"‘Izbat ‘Abd al Majīd Sanad","alt":["`Iz. `Abd al-Majid Sanad","`Izbat `Abd al Majid Sanad","ʿzbt ʿbd almjyd snd","عزبة عبد المجيد سند","‘Iz. ‘Abd al-Majīd Sanad"],"lon":31.44629,"lat":30.77024,"pop":0},{"id":420756,"name":"‘Izbat ‘Abd al Malāk","alt":["`Iz. `Abd al-Malak","`Izbat `Abd al Malak","ʿzbt ʿbd almlak","عزبة عبد الملاك","‘Iz. ‘Abd al-Malāk"],"lon":31.48034,"lat":30.90234,"pop":0},{"id":415649,"name":"‘Izbat ‘Abd al Malāk Sa‘d","alt":["`Izbat `Abd al Malak Sa`d","عزبة عبد الملاك سعد"],"lon":31.53446,"lat":30.38805,"pop":0},{"id":10337145,"name":"‘Izbat ‘Abd al Malik","alt":["`Izbat `Abd al Malik","عزبة عبد الملك"],"lon":30.32494,"lat":31.14299,"pop":0},{"id":416078,"name":"‘Izbat ‘Abd al Maqsūd","alt":["`Izbat `Abd al Maqsud","عزبة عبد المقصود","‘Izbat ‘Abd al Maqşūd"],"lon":30.98897,"lat":31.19698,"pop":0},{"id":12044001,"name":"‘Izbat ‘Abd al Maqşūd","alt":["`Izbat `Abd al Maqsud","عزبة عبد المقصود"],"lon":31.85234,"lat":30.90319,"pop":0},{"id":12038020,"name":"‘Izbat ‘Abd al Maqşūd Abū Sayf","alt":["`Izbat `Abd al Maqsud Abu Sayf","عزبة عبد المقصود أبو سيف"],"lon":32.03675,"lat":30.55781,"pop":0},{"id":433796,"name":"‘Izbat ‘Abd al Maqşūd as Subkī","alt":["`Izbat `Abd al Maqsud as Subki","عزبة عبد المقصود السبكي"],"lon":31.58014,"lat":30.75938,"pop":0},{"id":12014921,"name":"‘Izbat ‘Abd al Maqşūd Qandīl","alt":["`Izbat `Abd al Maqsud Qandil","`Izbat `Abd al-Maqsud Qandil","عزبة عبد المقصود قنديل","‘Izbat ‘Abd al-Maqṣūd Qandīl"],"lon":30.81353,"lat":30.64523,"pop":0},{"id":12014875,"name":"‘Izbat ‘Abd al Maqşūd Rāḑī","alt":["`Izbat `Abd al Maqsud Radi","`Izbat `Abd al-Maqsud Radi","عزبة عبد المقصود راضي","‘Izbat ‘Abd al-Maqṣūd Rāḍī"],"lon":30.85667,"lat":30.61816,"pop":0},{"id":420640,"name":"‘Izbat ‘Abd al Masīḩ Ghibriyāl","alt":["`Iz. `Abd al-Misih Ghubriyal","`Izbat `Abd al Masih Ghibriyal","`Izbat `Abd al Misih Ghubriyal","ʿrbt ʿbd almsyh ghbryal","عربة عبد المسيح غبريال","‘Iz. ‘Abd al-Misīḥ Ghubriyāl","‘Izbat ‘Abd al Misīḩ Ghubriyāl"],"lon":31.3941,"lat":30.76025,"pop":0},{"id":421256,"name":"‘Izbat ‘Abd al Mu‘ţī Sinnū","alt":["`Izbat `Abd al Mu`ti Sinnu","عزبة عبد المعطي سنو","‘Izbat ‘Abd al Mu‘ţī Sinnu"],"lon":31.55485,"lat":31.43088,"pop":0},{"id":420774,"name":"‘Izbat ‘Abd al Mun‘im","alt":["`Iz. `Abd al-Mun`im","`Izbat `Abd al Mun`im","عزبة عبد المنعم","‘Iz. ‘Abd al-Mun‘im"],"lon":31.36833,"lat":30.94659,"pop":0},{"id":12153347,"name":"‘Izbat ‘Abd al Mun‘im","alt":["`Izbat `Abd al Mun`im","عزبة عبد المنعم"],"lon":30.74487,"lat":28.58571,"pop":0},{"id":11545523,"name":"‘Izbat ‘Abd al Mun‘im ‘Aţīyah","alt":["`Izbat `Abd al Mun`im `Atiyah","`Izbat `Abd al Mun`im `Atiyyah","عزبة عبد المنعم عطية","‘Izbat ‘Abd al Mun‘im ‘Aṭiyyah"],"lon":30.95903,"lat":30.46253,"pop":0},{"id":9496204,"name":"‘Izbat ‘Abd al Mun‘im Riyāḑ","alt":["`Izbat `Abd al Mun`im Riyad","ʿzbt ʿbd almnʿm ryad","عزبة عبد المنعم رياض"],"lon":29.95726,"lat":31.19692,"pop":0},{"id":12043927,"name":"‘Izbat ‘Abd al Muţţalib","alt":["`Izbat `Abd al Muttalib","عزبة عبد المطلب"],"lon":31.75711,"lat":30.79893,"pop":0},{"id":12043954,"name":"‘Izbat ‘Abd al Muţţalib","alt":["`Izbat `Abd al Muttalib","عزبة عبد المطلب"],"lon":31.81325,"lat":30.76649,"pop":0},{"id":12014941,"name":"‘Izbat ‘Abd al Muţţalib al Kishkī","alt":["`Izbat `Abd al Muttalib al Kishki","`Izbat `Abd al-Muttalib al-Kishki","عزبة عبد المطلب الكشكي","‘Izbat ‘Abd al-Muṭṭalib al-Kishkī"],"lon":30.84673,"lat":30.50911,"pop":0},{"id":352446,"name":"‘Izbat ‘Abd al Qādir","alt":["Minshat `Abd el-Qadir","Minshât ‘Abd el-Qâdir","`Izbat `Abd al Qadir","عزبة عبد القادر"],"lon":31.28705,"lat":31.31852,"pop":0},{"id":419096,"name":"‘Izbat ‘Abd al Qādir","alt":["`Izbat `Abd al Qadir","`Izbat `Abd al-Qadir","ʿzbt ʿbd alqadr","عزبة عبد القادر","‘Izbat ‘Abd al-Qādir"],"lon":31.13613,"lat":31.02486,"pop":0},{"id":421118,"name":"‘Izbat ‘Abd al Qādir","alt":["`Izbat `Abd al Qadir","عزبة عبد القادر"],"lon":31.89343,"lat":31.14036,"pop":0},{"id":419114,"name":"‘Izbat ‘Abd al Qādir Ḩilmī","alt":["`Izbat `Abd al Qadir Hilmi","`Izbat `Abd al-Qadir Hilmi","ʿzbt ʿbd alqadr hlmy","عزبة عبد القادر حلمي","‘Izbat ‘Abd al-Qādir Ḥilmī"],"lon":31.21006,"lat":31.04435,"pop":0},{"id":8139086,"name":"‘Izbat ‘Abd al Qādir Mifriḩ","alt":["`Izbat `Abd al Qadir Mifrih","`Izbat `Abd al-Qadir Mifrih","عزبة عبد القادر مفرح","عزبة عبد القادم مفرح","‘Izbat ‘Abd al-Qādir Mifriḥ"],"lon":31.20767,"lat":30.36331,"pop":0},{"id":12000867,"name":"‘Izbat ‘Abd al Qādir Musá","alt":["`Izbat `Abd al Qadir Musa","عزبة عبد القادر موسى"],"lon":30.73967,"lat":29.45993,"pop":0},{"id":12014922,"name":"‘Izbat ‘Abd al Qawī Muḩarram","alt":["`Izbat `Abd al Qawi Muharram","`Izbat `Abd al-Qawi Muharram","عزبة عبد القوي محرم","‘Izbat ‘Abd al-Qawī Muḥarram"],"lon":30.8272,"lat":30.66746,"pop":0},{"id":12000876,"name":"‘Izbat ‘Abd al Qawī Sālim","alt":["`Izbat `Abd al Qawi Salim","عزبة عبد القوي سالم"],"lon":30.66815,"lat":29.42964,"pop":0},{"id":433147,"name":"‘Izbat ‘Abd al Qawī Samak","alt":["`Izbat `Abd al Qawi Samak","عزبة عبد القوي سمك"],"lon":30.73559,"lat":30.89143,"pop":0},{"id":12000866,"name":"‘Izbat ‘Abd al Qawī Sha‘bān","alt":["`Iz. `Abd al-Qawi Sha`ban","`Izbat `Abd al Qawi Sha`ban","عزبة عبد القوي شعبان","‘Iz. ‘Abd al-Qawi Sha‘bān"],"lon":30.74538,"lat":29.46361,"pop":0},{"id":434761,"name":"‘Izbat ‘Abd al Wahhāb","lon":30.99528,"lat":29.08959,"pop":0},{"id":419839,"name":"‘Izbat ‘Abd al Wahhāb Muşţafá","alt":["`Izbat `Abd al Wahhab Mustafa","عزبة عبد الوهاب مصطفى"],"lon":31.03808,"lat":31.27298,"pop":0},{"id":415767,"name":"‘Izbat ‘Abd al Wāḩid Salīm","alt":["`Izbat `Abd al Wahid Salim","`Izbat `Abd al Wahid Silim","عزبة عبد الواحد سليم","‘Izbat ‘Abd al Wāḩid Silīm"],"lon":30.54894,"lat":31.16995,"pop":0},{"id":10337276,"name":"‘Izbat ‘Abd al Wakīl","alt":["`Izbat `Abd al Wakil","عزبة عبد الوكيل"],"lon":30.3925,"lat":31.18229,"pop":0},{"id":357698,"name":"‘Izbat ‘Abd Allah","alt":["`Ezbet `Abdalla","`Izbat `Abd Allah","‘Ezbet ‘Abdalla"],"lon":32.29325,"lat":30.53441,"pop":0},{"id":415693,"name":"‘Izbat ‘Abd Allāh","alt":["`Izbat `Abd Allah","عزبة عبد الله"],"lon":31.55115,"lat":30.49668,"pop":0},{"id":415720,"name":"‘Izbat ‘Abd Allāh","alt":["`Izbat `Abd Abd Allah","`Izbat `Abd Allah","عزبة عبد الله","‘Izbat ‘Abd Abd Allah"],"lon":30.69066,"lat":31.32672,"pop":0},{"id":416107,"name":"‘Izbat ‘Abd Allāh","alt":["`Izbat `Abd Allah","عزبة عبد الله","‘Izbat ‘Abd Allah"],"lon":30.97491,"lat":31.03627,"pop":0},{"id":9261067,"name":"‘Izbat ‘Abd Allāh","alt":["`Izbat `Abd Allah","ʿzbt ʿbd allh","عزبة عبد الله"],"lon":31.58946,"lat":30.55087,"pop":0},{"id":9261069,"name":"‘Izbat ‘Abd Allāh","alt":["`Izbat `Abd Allah","ʿzbt ʿbd allh","عزبة عبد الله"],"lon":31.58839,"lat":30.5109,"pop":0},{"id":10194110,"name":"‘Izbat ‘Abd Allāh ‘Abd al Jawād","alt":["`Izbat `Abd Allah `Abd al Jawad","عزبة عبد الله عبد الجواد"],"lon":32.0069,"lat":30.90992,"pop":0},{"id":433241,"name":"‘Izbat ‘Abd Allāh ‘Aţīyah","alt":["`Izbat `Abd Allah `Atiyah","`Izbat `Abd Allah `Atiyyah","عزبة عبد الله عطية","‘Izbat ‘Abd Allāh ‘Aṭiyyah"],"lon":30.5295,"lat":30.89191,"pop":0},{"id":357696,"name":"‘Izbat ‘Abd Allāh ‘Izzat","alt":["`Ezbet `Abdalla `Ezzat","`Izbat `Abd Allah `Izzat","`Izbat `Abdallah `Izzat","عزبة عبد الله عزت","‘Ezbet ‘Abdalla ‘Ezzat","‘Izbat ‘Abdallah ‘Izzat"],"lon":30.51953,"lat":30.79896,"pop":0},{"id":12010122,"name":"‘Izbat ‘Abd Allāh ‘Izzat","alt":["`Izbat `Abd Allah `Izzat","عزبة عبد الله عزت"],"lon":30.61747,"lat":30.83193,"pop":0},{"id":419101,"name":"‘Izbat ‘Abd Allāh Abū as Sayyid","alt":["`Izbat `Abd Allah Abu as Sayyid","`Izbat `Abd Allah Abu as-Sayyid","ʿzbt ʿbd allh abw alsyd","عزبة عبد الله أبو السيد","‘Izbat ‘Abd Allah Abū as-Sayyid"],"lon":31.00838,"lat":31.03391,"pop":0},{"id":11545616,"name":"‘Izbat ‘Abd Allāh Abū Ḩusayn","alt":["`Izbat `Abd Allah Abu Husayn","عزبة عبد الله أبو حسين","‘Izbat ‘Abd Allah Abū Ḥusayn"],"lon":30.92719,"lat":30.378,"pop":0},{"id":416310,"name":"‘Izbat ‘Abd Allāh Abū Musā‘id","alt":["`Izbat `Abd Allah Abu Misa`id","`Izbat `Abd Allah Abu Musa`id","عزبة عبد الله أبو مساعد","‘Izbat ‘Abd Allāh Abū Misā‘id"],"lon":30.79578,"lat":31.30335,"pop":0},{"id":12014860,"name":"‘Izbat ‘Abd Allāh Abū Rāḑī","alt":["`Izbat `Abd Allah Abu Radi","عزبة عبد الله ابو راضي","‘Izbat ‘Abd Allāh Abū Rāḍi"],"lon":30.86801,"lat":30.63476,"pop":0},{"id":433066,"name":"‘Izbat ‘Abd Allāh al Jayyār","alt":["`Izbat `Abd Allah al Jayyar","`Izbat `Abd Allah al-Jayyar","عزبة عبد الله الجيار","‘Izbat ‘Abd Allah al-Jayyār"],"lon":30.64249,"lat":30.78301,"pop":0},{"id":363065,"name":"‘Izbat ‘Abd Allāh al Mişrī","alt":["`Ezbet `Abdalla el-Masri","`Izbat `Abd Allah al Misri","عزبة عبد الله المصري","‘Ezbet ‘Abdalla el-Maṣri"],"lon":30.24674,"lat":31.05851,"pop":0},{"id":416197,"name":"‘Izbat ‘Abd Allāh al Wakīl","alt":["`Izbat `Abd Allah al Wakil","عزبة عبد الله الوكيل"],"lon":30.85771,"lat":31.14824,"pop":0},{"id":419111,"name":"‘Izbat ‘Abd Allāh ash Shirākī","alt":["`Izbat `Abd Allah ash Shiraki","`Izbat `Abd Allah ash-Shiraki","ʿzbt ʿbd allh alshraky","عزبة عبد الله الشراكي","‘Izbat ‘Abd Allāh ash-Shirākī"],"lon":31.19641,"lat":31.04283,"pop":0},{"id":433121,"name":"‘Izbat ‘Abd Allāh Bāshā","alt":["`Izbat `Abd Allah Basha","عزبة عبد الله باشا"],"lon":30.72904,"lat":30.83297,"pop":0},{"id":434857,"name":"‘Izbat ‘Abd Allāh Bayk al Baḩarī","alt":["`Izbat `Abd Allah Bayk al Bahari","`Izbat `Abdallah Bayk al Bahri","`Izbat `Abdullah Bayk al-Bahari","عزبة عبد الله بك البحرى","‘Izbat ‘Abdallah Bayk al Baḩrī","‘Izbat ‘Abdullah Bayk al-Baḥarī"],"lon":30.71006,"lat":29.27124,"pop":0},{"id":12014855,"name":"‘Izbat ‘Abd Allāh Māḑī","alt":["`Izbat `Abd Allah Madi","عزبة عبد الله ماضي","‘Izbat ‘Abd Allāh Māḍī"],"lon":30.88339,"lat":30.64954,"pop":0},{"id":419143,"name":"‘Izbat ‘Abd Allāh Mīkhā’īl","alt":["`Izbat `Abd Allah Mikha'il","il `Izbat `Abd Allah Mikha","īl ‘Izbat ‘Abd Allāh Mikhā","ʿzbt ʿbd allh mykhayyl","عزبة عبد الله ميخائيل"],"lon":31.09014,"lat":31.08331,"pop":0},{"id":8067826,"name":"‘Izbat ‘Abd Allāh Şāliḩ","alt":["`Izbat `Abd Allah Salih","عزبة عبد الله صالح"],"lon":31.54882,"lat":30.62947,"pop":0},{"id":10337149,"name":"‘Izbat ‘Abd Allāh Sha‘bān","alt":["`Izbat `Abd Allah Sha`ban","عزبة عبد الله شعبان","‘Izbat ‘Abd Allah Sha‘bān"],"lon":30.3122,"lat":31.1183,"pop":0},{"id":421470,"name":"‘Izbat ‘Abd Allah Zakī","alt":["`Izbat `Abd Allah Zaki","عزبة عبد الله زكي"],"lon":31.544,"lat":31.25531,"pop":0},{"id":419953,"name":"‘Izbat ‘Abd an Nabī","alt":["`Izbat `Abd an Nabi","عزبة عبد النبي"],"lon":31.4815,"lat":31.30931,"pop":0},{"id":433069,"name":"‘Izbat ‘Abd an Nabī ad Dīb","alt":["`Izbat `Abd an Nabi ad Dib","عزبة عبد النبي الديب"],"lon":30.60601,"lat":30.80786,"pop":0},{"id":434337,"name":"‘Izbat ‘Abd an Nabī Ḩusayn","lon":30.88549,"lat":29.34671,"pop":0},{"id":11545633,"name":"‘Izbat ‘Abd ar Ra‘ūf Qāsim","alt":["`Izbat `Abd ar Ra`uf Qasim","عزبة عبد الرؤوف قاسم"],"lon":30.92416,"lat":30.26174,"pop":0},{"id":8068524,"name":"‘Izbat ‘Abd ar Rahīm","alt":["`Izbat `Abd ar Rahim","عزبة عبد الرحيم"],"lon":31.68541,"lat":30.65305,"pop":0},{"id":363033,"name":"‘Izbat ‘Abd ar Raḩman","alt":["`Abd el-Rahman","`Izbat `Abd ar Rahman","`Izbat `Abd ar-Rahman","عزبة عبد الرحمن","‘Abd el-Raḥmân","‘Izbat ‘Abd ar Raḩmān","‘Izbat ‘Abd ar-Raḥman"],"lon":30.76694,"lat":31.14926,"pop":0},{"id":416114,"name":"‘Izbat ‘Abd ar Raḩmān","alt":["`Izbat `Abd ar Rahman","`Izbat `Abd ar-Rahman","عزبة عبد الرحمن","‘Izbat ‘Abd ar-Rahman"],"lon":30.9846,"lat":31.04124,"pop":0},{"id":416158,"name":"‘Izbat ‘Abd ar Raḩmān","alt":["`Izbat `Abd ar Rahman","عزبة عبد الرحمن","‘Izbat ‘Abd ar Raḥmān"],"lon":30.75446,"lat":31.05481,"pop":0},{"id":434345,"name":"‘Izbat ‘Abd ar Raḩmān","lon":30.99595,"lat":29.35546,"pop":0},{"id":416316,"name":"‘Izbat ‘Abd ar Raḩmān ‘Aydarūs","alt":["`Izbat `Abd ar Rahman `Andarus","`Izbat `Abd ar Rahman `Aydarus","عزبة عبد الرحمن عيدروس","‘Izbat ‘Abd ar Raḩmān ‘Andarūs"],"lon":30.8391,"lat":31.26163,"pop":0},{"id":420685,"name":"‘Izbat ‘Abd ar Raḩmān Abū ‘Āfiyah","alt":["`Iz. `Abd ar-Rahman Abu `Afyah","`Izbat `Abd ar Rahman Abu `Afiyah","`Izbat `Abd ar Rahman Abu `Afyah","ʿzbt ʿbd alrhmn ʿafyt","عزبة عبد الرحمن عافية","‘Iz. ‘Abd ar-Raḥman Abū ‘Afyah","‘Izbat ‘Abd ar Raḩman Abū ‘Afyah"],"lon":31.43201,"lat":30.80963,"pop":0},{"id":434305,"name":"‘Izbat ‘Abd ar Raḩmān ar Rāghī","lon":30.83861,"lat":29.4975,"pop":0},{"id":12038034,"name":"‘Izbat ‘Abd ar Raḩmān Ghānim","alt":["`Izbat `Abd ar Rahman Ghanim","عزبة عبد الرحمن غانم"],"lon":32.00759,"lat":30.53774,"pop":0},{"id":12014897,"name":"‘Izbat ‘Abd ar Raḩmān Naşr","alt":["`Izbat `Abd ar Rahman Nasr","`Izbat `Abd ar-Rahman Nasr","عزبة عبد الرحمن نصر","‘Izbat ‘Abd ar-Raḥmān Naṣr"],"lon":30.93246,"lat":30.56555,"pop":0},{"id":419568,"name":"‘Izbat ‘Abd ar Raḩmān Nūr","alt":["`Iz. `Abd ar-Rahman Nur","`Izbat `Abd ar Rahman Nur","ʿzbt ʿbd alrhmn nwr","عزبة عبد الرحمن نور","‘Iz. ‘Abd ar-Raḥmān Nūr"],"lon":31.51696,"lat":31.10733,"pop":0},{"id":8068411,"name":"‘Izbat ‘Abd ar Raḩmān Nuşayr","alt":["`Izbat `Abd ar Rahman Nusayr","عزبة عبد الرحمن نصير"],"lon":31.66326,"lat":30.74189,"pop":0},{"id":8139084,"name":"‘Izbat ‘Abd ar Raḩmān Surūr","alt":["`Izbat `Abd ar Rahman Surur","`Izbat `Abd ar-Rahman Surur","عزبة عبد الرحمن سرور","‘Izbat ‘Abd ar Raḩman Surūr","‘Izbat ‘Abd ar-Raḥman Surūr"],"lon":31.20629,"lat":30.37726,"pop":0},{"id":415107,"name":"‘Izbat ‘Abd ar Rāziq","alt":["`Izbat `Abd ar Raziq","عزبة عبد الرزاق"],"lon":30.38434,"lat":31.18466,"pop":0},{"id":12043934,"name":"‘Izbat ‘Abd ar Rāziq","alt":["`Izbat `Abd ar Raziq","عزبة عبد الرازق"],"lon":31.80793,"lat":30.80081,"pop":0},{"id":433177,"name":"‘Izbat ‘Abd as Salām","alt":["`Izbat `Abd as Salam","عزبة عبد السلام"],"lon":30.63695,"lat":30.88777,"pop":0},{"id":434304,"name":"‘Izbat ‘Abd as Salām ad Dīdānī","lon":30.82701,"lat":29.47128,"pop":0},{"id":433029,"name":"‘Izbat ‘Abd as Salām al Jayyār","alt":["`Izbat `Abd as Salam al Jabbar","`Izbat `Abd as Salam al Jayyar","عزبة عبد السلام الجيار","‘Izbat ‘Abd as Salām al Jabbār"],"lon":30.67218,"lat":30.76025,"pop":0},{"id":12044020,"name":"‘Izbat ‘Abd as Salām aţ Ţanţāwī","alt":["`Izbat `Abd as Salam at Tantawi","عزبة عبد السلام الطنطاوي"],"lon":31.93077,"lat":30.93987,"pop":0},{"id":11545527,"name":"‘Izbat ‘Abd as Salām Ḩamzah","alt":["`Izbat `Abd as Salam Hamzah","`Izbat `Abd as-Salam Hamzah","عزبة عبد السلام حمزة","‘Izbat ‘Abd as-Salām Ḥamzah"],"lon":30.99394,"lat":30.44179,"pop":0},{"id":434303,"name":"‘Izbat ‘Abd as Salām Karīm","lon":30.84303,"lat":29.4629,"pop":0},{"id":433106,"name":"‘Izbat ‘Abd as Salām Mişbāḩ","alt":["`Izbat `Abd as Salam Misbah","`Izbat `Abd as-Salam Misbah","عزبة عبد السلام مصباح","‘Izbat ‘Abd as-Salām Miṣbāḥ"],"lon":30.6786,"lat":30.81411,"pop":0},{"id":8139045,"name":"‘Izbat ‘Abd as Salām Shadīd","alt":["`Izbat `Abd as Salam Shadid","عزبة عبد السلام شديد"],"lon":31.17874,"lat":30.27888,"pop":0},{"id":12043930,"name":"‘Izbat ‘Abd aş Şamad","alt":["`Izbat `Abd as Samad","عزبة عبد الصمد"],"lon":31.76977,"lat":30.80715,"pop":0},{"id":12144847,"name":"‘Izbat ‘Abd as Sattār al Kallāf","alt":["`Izbat `Abd as Sattar al Kallaf","عزبة عبد الستار الكلاف"],"lon":29.99298,"lat":30.90972,"pop":0},{"id":10495983,"name":"‘Izbat ‘Abd Rabbuh","alt":["`Izbat `Abd Rabbuh","عزبة عبد ربه"],"lon":30.13909,"lat":31.15136,"pop":0},{"id":434286,"name":"‘Izbat ‘Abd Rabbuh as Sayyid","lon":30.74583,"lat":29.11284,"pop":0},{"id":357671,"name":"‘Izbat ‘Abdah Abū al Jūd","alt":["`Ezbet Abu el-Gud Habba","`Izbat `Abdah Abu al Jud","عزبة عبده أبو الجود","‘Ezbet Abû el-Gûd Ḥabba"],"lon":30.62463,"lat":28.44115,"pop":0},{"id":421429,"name":"‘Izbat ‘Ābdīn","alt":["`Izbat `Abdin","عزبة عابدين"],"lon":31.60502,"lat":31.29343,"pop":0},{"id":415670,"name":"‘Izbat ‘Abduh","alt":["`Izbat `Abduh","عزبة عبده"],"lon":30.59968,"lat":31.33451,"pop":0},{"id":434359,"name":"‘Izbat ‘Abduh","lon":30.93776,"lat":29.51075,"pop":0},{"id":433501,"name":"‘Izbat ‘Abduh Afandī","alt":["`Izbat `Abduh Afandi","عزبة عبده أفندي"],"lon":31.55175,"lat":30.74822,"pop":0},{"id":419088,"name":"‘Izbat ‘Abduh al Bābilī","alt":["`Izbat `Abdoh al-Babili","`Izbat `Abduh al Babili","ʿzbt ʿbdh albably","عزبة عبده البابلي","‘Izbat ‘Abdoh al-Bābilī"],"lon":31.20783,"lat":31.01203,"pop":0},{"id":8560597,"name":"‘Izbat ‘Abduh al Bābilī","alt":["`Izbat `Abduh al Babili","`Izbat `Abduh al-Babli","ʿzbt ʿbdt albably","عزبة عبدة البابلي","‘Izbat ‘Abduh al-Bāblī"],"lon":31.06145,"lat":30.82521,"pop":0},{"id":357690,"name":"‘Izbat ‘Abduh al Jayyār","alt":["`Ezbet `Abdel Gayyar","`Izbat `Abduh al Jayyar","ʿzbt ʿbdh aljyar","عزبة عبده الجيار","‘Ezbet ‘Abdel Gayyâr"],"lon":31.55248,"lat":31.0074,"pop":0},{"id":355403,"name":"‘Izbat ‘Abduh Bāshā","alt":["`Ezbet `Abdu Pasha","`Izbat `Abdu Basha","`Izbat `Abduh Basha","عزبة عبده باشا","‘Ezbet ‘Abdu Pasha","‘Izbat ‘Abdū Bāshā"],"lon":30.15593,"lat":31.08178,"pop":0},{"id":421348,"name":"‘Izbat ‘Abduh Faraj","alt":["`Izbat `Abduh Faraj","عزبة عبده فرج"],"lon":31.63971,"lat":31.3513,"pop":0},{"id":420462,"name":"‘Izbat ‘Ābidīn","alt":["`Izbat `Abdin","`Izbat `Abidin","عزبة عابدين","‘Izbat ‘Ābdīn"],"lon":31.25247,"lat":30.50473,"pop":0},{"id":8199821,"name":"‘Izbat ‘Abū as Sa‘ūd","alt":["`Izbat `Abu as Sa`ud","عزبة عبو السعود"],"lon":31.09906,"lat":30.7322,"pop":0},{"id":352013,"name":"‘Izbat ‘Ādil ‘Abd al ‘Āl","alt":["`Ezbet Muhammad `Abd el-`Al","`Izbat `Adil `Abd al `Al","عزبة عادل عبد العال","‘Ezbet Muḥammad ‘Abd el-‘Âl"],"lon":30.65292,"lat":31.21031,"pop":0},{"id":357666,"name":"‘Izbat ‘Ādil Ḩijāzī","alt":["`Ezbet Abu Higaz","`Izbat `Adil Hijazi","عزبة عادل حجازي","‘Ezbet Abû Higâz","‘Izbat ‘Ādil Ḥijāzi"],"lon":30.81995,"lat":30.32755,"pop":0},{"id":8560853,"name":"‘Izbat ‘Ādil Salīm","alt":["`Izbat `Adil Salim","`Izbat `Adil Silim","ʿzbt ʿadl slym","عزبة عادل سليم","‘Izbat ‘Ādil Silīm"],"lon":31.14216,"lat":30.89943,"pop":0},{"id":419259,"name":"‘Izbat ‘Adlī","alt":["`Izbat `Adli","ʿzbt ʿdly","عزبة عدلي"],"lon":31.10874,"lat":31.16915,"pop":0},{"id":420548,"name":"‘Izbat ‘Afīfī","alt":["`Izbat `Afifi","عزبة عفيفي"],"lon":31.35315,"lat":30.62018,"pop":0},{"id":434847,"name":"‘Izbat ‘Afīfī","alt":["`Izbat `Afifi","عزبة عفيفي","‘Izbat ‘Afifi"],"lon":30.53564,"lat":29.37404,"pop":0},{"id":12043941,"name":"‘Izbat ‘Afīfī","alt":["`Izbat `Afifi","عزبة عفيفي"],"lon":31.76231,"lat":30.76361,"pop":0},{"id":8068503,"name":"‘Izbat ‘Ajjūr","alt":["`Izbat `Ajjur","عزبة عجور"],"lon":31.64607,"lat":30.64432,"pop":0},{"id":420775,"name":"‘Izbat ‘Ākif","alt":["`Iz. `Akif","`Izbat `Akif","ʿzbt ʿakf","عزبة عاكف","‘Iz. ‘Ākif"],"lon":31.36485,"lat":30.94624,"pop":0},{"id":8139080,"name":"‘Izbat ‘Ākif","alt":["`Izbat `Akif","عزبة عاكف","عزة عاكف"],"lon":31.23649,"lat":30.3895,"pop":0},{"id":8716143,"name":"‘Izbat ‘Ākif","alt":["`Izbat `Akif","ʿzbt ʿakf","عزبة عاكف"],"lon":30.39748,"lat":31.037,"pop":0},{"id":361090,"name":"‘Izbat ‘al Ḩassānīyah","alt":["Al Hassaniyah","Al Ihsaniyah","Al Iḩsānīyah","Al Ḩassānīyah","El-Hasaniya","El-Ihsaniya","El-Iḥsânîya","El-Ḥasanîya","`Izbat `al Hassaniyah","عزبة الحسانية"],"lon":31.60528,"lat":30.69519,"pop":0},{"id":420589,"name":"‘Izbat ‘Alī","alt":["`Izbat `Ali","عزبة علي"],"lon":31.37273,"lat":30.68446,"pop":0},{"id":8138328,"name":"‘Izbat ‘Alī","alt":["`Izbat `Ali","عزبة علي"],"lon":31.04866,"lat":30.47246,"pop":0},{"id":12010194,"name":"‘Izbat ‘Alī ‘Abd al ‘Āţī","alt":["`Izbat `Ali `Abd al `Ati","`Izbat `Ali `Abd al-`Ati","عزبة علي عبد العاطي","‘Izbat ‘Ali ‘Abd al-‘Āṭī"],"lon":30.67126,"lat":30.98497,"pop":0},{"id":8715655,"name":"‘Izbat ‘Alī ‘Abd al Hādī","alt":["`Izbat `Ali `Abd al Hadi","`Izbat `Ali `Abd al-Hadi","ʿzbt ʿly ʿbd alhady","عزبة علي عبد الهادي","‘Izbat ‘Alī ‘Abd al-Hādī"],"lon":30.43949,"lat":30.97619,"pop":0},{"id":433803,"name":"‘Izbat ‘Alī ‘Abd al Ḩalīm","alt":["`Izbat `Ali `Abd al Halim","عزبة علي عبد الحليم"],"lon":31.62672,"lat":30.87786,"pop":0},{"id":8199910,"name":"‘Izbat ‘Alī ‘Abd al Jawād","alt":["`Izbat `Ali `Abd al Jawad","عزبة علي عيد الجواد"],"lon":31.17514,"lat":30.60355,"pop":0},{"id":416048,"name":"‘Izbat ‘Alī ‘Abd al Muta‘āl","alt":["`Izbat `Ali `Abd al Muta`al","عزبة علي عبد المتعال"],"lon":30.94252,"lat":31.24768,"pop":0},{"id":419082,"name":"‘Izbat ‘Alī ‘Abd Allāh","alt":["`Izbat `Ali `Abd Allah","ʿzbt ʿly ʿbd allh","عزبة علي عبد الله"],"lon":31.05095,"lat":31.00583,"pop":0},{"id":421124,"name":"‘Izbat ‘Alī ‘Abd ar Raḩmān","alt":["`Izbat `Ali `Abd ar Rahman","`Izbat `Ali `Abd ar-Rahman","عزبة علي عبد الرحمن","‘Izbat ‘Ali ‘Abd ar-Raḥmān"],"lon":31.80137,"lat":31.11882,"pop":0},{"id":11545524,"name":"‘Izbat ‘Alī ‘Abd ar Raḩmān","alt":["`Izbat `Ali `Abd ar Rahman","`Izbat `Ali `Abd ar-Rahman","عزبة علي عبد الرحمن","‘Izbat ‘Alī ‘Abd ar-Raḥmān"],"lon":30.97258,"lat":30.45545,"pop":0},{"id":416199,"name":"‘Izbat ‘Alī ‘Arab","alt":["`Izbat `Ali `Arab","عزبة علي عرب"],"lon":30.86963,"lat":31.15415,"pop":0},{"id":8199999,"name":"‘Izbat ‘Alī ‘Aţīyah","alt":["`Izbat `Ali `Atiyah","عزبة علي عطية"],"lon":31.1814,"lat":30.5056,"pop":0},{"id":12000845,"name":"‘Izbat ‘Alī ‘Īd","alt":["`Izbat `Ali `Id","عزبة علي عيد"],"lon":30.68008,"lat":29.26294,"pop":0},{"id":357585,"name":"‘Izbat ‘Alî ‘Îsá","alt":["`Ezbet Beltagi","`Ezbet `Ali `Isa","`Izbat `Ali `Isa","‘Ezbet Beltâgi","‘Ezbet ‘Alî ‘Îsa"],"lon":30.68287,"lat":29.10055,"pop":0},{"id":12014858,"name":"‘Izbat ‘Alī ‘Īsawī","alt":["`Izbat `Ali `Isawi","عزبة علي عيسوي"],"lon":30.8981,"lat":30.63572,"pop":0},{"id":8560646,"name":"‘Izbat ‘Alī ‘Uthmān","alt":["`Izbat `Ali `Uthman","ʿzbt ʿly ʿthman","عزبة علي عثمان"],"lon":31.0777,"lat":30.91359,"pop":0},{"id":11547559,"name":"‘Izbat ‘Alī ‘Uthmān","alt":["`Izbat `Ali `Uthman","عزبة علي عثمان"],"lon":30.86874,"lat":31.23144,"pop":0},{"id":416096,"name":"‘Izbat ‘Alī Abū ‘Umar","alt":["`Izbat `Ali Abu `Umar","عزبة علي أبو عمر"],"lon":30.96566,"lat":31.09406,"pop":0},{"id":361093,"name":"‘Izbat ‘Alī Abū Ghālī","alt":["`Ezbet `Ali Ghali","`Izbat Abu Ghali","`Izbat `Ali Abu Ghali","`Izbat `Ali Ghali","عزبة أبو غالي","عزبة علي أبو غالي","‘Ezbet ‘Ali Ghâli","‘Izbat Abū Ghālī","‘Izbat ‘Alī Ghālī"],"lon":30.11662,"lat":31.25179,"pop":0},{"id":433215,"name":"‘Izbat ‘Alī Abū Rizq","alt":["`Izbat Abu Rizq","`Izbat `Ali Abu Rizq","عزبة علي أبو رزق","‘Izbat Abū Rizq"],"lon":30.58373,"lat":30.85863,"pop":0},{"id":9495793,"name":"‘Izbat ‘Alī Abū Sulaymān","alt":["`Izbat `Ali Abu Sulayman","ʿzbt ʿly abw slyman","عزبة علي أبو سليمان"],"lon":29.98267,"lat":31.22632,"pop":0},{"id":434343,"name":"‘Izbat ‘Alī ad Dālī","lon":30.99698,"lat":29.38915,"pop":0},{"id":8070661,"name":"‘Izbat ‘Alī Afandī","alt":["`Izbat `Ali Afandi","عزبة علي أفندي"],"lon":31.59637,"lat":30.53338,"pop":0},{"id":10337227,"name":"‘Izbat ‘Alī al Bārūdī","alt":["`Izbat `Ali al Barudi","`Izbat `Ali al-Barudi","عزبة علي البارودي","‘Izbat ‘Alī al-Bārudī"],"lon":30.38038,"lat":31.03814,"pop":0},{"id":433230,"name":"‘Izbat ‘Alī al Jābrī","alt":["`Izbat `Ali al Jabri","عزبة علي الجابري"],"lon":30.55604,"lat":30.901,"pop":0},{"id":8199956,"name":"‘Izbat ‘Alī al Jaḩash","alt":["`Izbat `Ali al Jahash","عزبة علي الجحش"],"lon":31.24537,"lat":30.68538,"pop":0},{"id":12000793,"name":"‘Izbat ‘Ali al Jubaylī","alt":["`Izbat `Ali al Jubayli","عزبة على الجبيلي"],"lon":30.54944,"lat":29.39733,"pop":0},{"id":12153345,"name":"‘Izbat ‘Alī al Liwā’","alt":["`Izbat `Ali al Liwa'","عزبة علي اللواء"],"lon":30.74654,"lat":28.59185,"pop":0},{"id":415795,"name":"‘Izbat ‘Alī al Mallāḩ","alt":["`Izbat `Ali al Mallah","عزبة علي الملاح"],"lon":30.65362,"lat":31.17507,"pop":0},{"id":12144837,"name":"‘Izbat ‘Alī al Minyāwī","alt":["`Izbat `Ali al Minyawi","عزبة علي المنياوي"],"lon":29.88436,"lat":30.95826,"pop":0},{"id":416116,"name":"‘Izbat ‘Alī al Qirsh","alt":["`Izbat `Ali al Qirsh","عزبة علي القرش"],"lon":30.99373,"lat":31.0262,"pop":0},{"id":12044030,"name":"‘Izbat ‘Alī Amīn","alt":["`Izbat `Ali Amin","عزبة علي امين"],"lon":31.93049,"lat":30.89976,"pop":0},{"id":11545522,"name":"‘Izbat ‘Alī an Najjār","alt":["`Izbat `Ali an Najjar","عزبة علي النجار"],"lon":30.97434,"lat":30.46685,"pop":0},{"id":433036,"name":"‘Izbat ‘Alī as Sallāmī","alt":["`Izbat `Ali as Salami","`Izbat `Ali as Sallami","عزبة علي السلامي","‘Izbat ‘Alī as Salāmī"],"lon":30.72203,"lat":30.77596,"pop":0},{"id":415159,"name":"‘Izbat ‘Alī aş Şāwī","alt":["`Izbat `Ali as Sawi","عزبة علي الصاوي"],"lon":30.50437,"lat":31.24293,"pop":0},{"id":361119,"name":"‘Izbat ‘Alī as Sayyid","alt":["`Ezbet `Ali","`Izbat `Ali","`Izbat `Ali as Sayyid","عزبة علي السيد","‘Ezbet ‘Ali","‘Izbat ‘Alī"],"lon":30.14775,"lat":31.15671,"pop":0},{"id":7779544,"name":"‘Izbat ‘Alī as Siddī","alt":["`Izbat `Ali as Siddi","عزبة علي السدي"],"lon":31.57361,"lat":30.84224,"pop":0},{"id":357616,"name":"‘Izbat ‘Alī Aşf","alt":["`Ezbet `Ali Pasha Asif","`Izbat `Ali Asf","عزبة على أصف","‘Ezbet ‘Ali Pasha Âsif","‘Izbat ‘Alī Aṣf"],"lon":30.86541,"lat":31.19792,"pop":0},{"id":434769,"name":"‘Izbat ‘Alī ash Sharīf","lon":30.8914,"lat":29.01225,"pop":0},{"id":8067822,"name":"‘Izbat ‘Alī ash Sharīf","alt":["`Izbat `Ali ash Sharif","عزبة علي الشريف"],"lon":31.52521,"lat":30.63215,"pop":0},{"id":420718,"name":"‘Izbat ‘Alī ash Shawkī","alt":["`Iz. `Ali ash-Shuki","`Izbat `Ali ash Shawki","`Izbat `Ali ash Shuki","ʿzbt ʿly alshwky","عزبة علي الشوكي","‘Iz. ‘Ali ash-Shūkī","‘Izbat ‘Alī ash Shūkī"],"lon":31.27213,"lat":30.84548,"pop":0},{"id":421036,"name":"‘Izbat ‘Alī ash Shirbīnī","alt":["`Izbat `Ali ash Shirbini","عزبة علي الشربيني"],"lon":31.86495,"lat":31.22487,"pop":0},{"id":12039791,"name":"‘Izbat ‘Alī at Tāyih","alt":["`Izbat `Ali at Tayih","عزبة علي التايه"],"lon":32.05925,"lat":31.07662,"pop":0},{"id":7779416,"name":"‘Izbat ‘Alī aţ Ţubjī","alt":["`Izbat `Ali at Tubji","عزبة علي الطبجي"],"lon":31.72689,"lat":30.94991,"pop":0},{"id":357624,"name":"‘Izbat ‘Alī Badr","alt":["`Ezbet `Ali Badr","`Izbat `Ali Badr","‘Ezbet ‘Ali Badr"],"lon":32.11667,"lat":30.58333,"pop":0},{"id":419558,"name":"‘Izbat ‘Alī Basyūnī","alt":["`Iz. `Ali Basyuni","`Izbat `Ali Basyuni","ʿzbt ʿly bsywny","عزبة علي بسيوني","‘Iz. ‘Ali Basyūnī"],"lon":31.64868,"lat":31.12575,"pop":0},{"id":358896,"name":"‘Izbat ‘Alī Bayyūmī","alt":["`Izbat Bayyumi al Wakil","`Izbat `Ali Bayyumi","عزبة علي بيومي","‘Izbat Bayyūmī al Wakīl"],"lon":30.34749,"lat":31.03279,"pop":0},{"id":434732,"name":"‘Izbat ‘Alī Farrāj","lon":30.89581,"lat":29.24949,"pop":0},{"id":12014940,"name":"‘Izbat ‘Alī Ḩabīb","alt":["`Izbat `Ali Habib","عزبة علي حبيب","‘Izbat ‘Alī Ḥabīb"],"lon":30.86437,"lat":30.50767,"pop":0},{"id":433328,"name":"‘Izbat ‘Alī Ḩāfiz̧","alt":["`Izbat `Ali Hafiz","عزبة علي حافظ","‘Izbat ‘Alī Ḥāfiẓ"],"lon":30.59582,"lat":30.98569,"pop":0},{"id":12073951,"name":"‘Izbat ‘Alī Ḩammatah","alt":["`Izbat `Ali Hammatah","عزبة على حمتة"],"lon":32.50836,"lat":25.28872,"pop":0},{"id":361091,"name":"‘Izbat ‘Alī Ḩijāzī","alt":["`Ezbet `Ali Higazi Harfush","`Izbat `Ali Hijazi","`Izbat `Ali Hijazi Harfush","عزبة علي حجازي","‘Ezbet ‘Ali Ḥigâzi Ḥarfûsh","‘Izbat ‘Alī Ḩijāzī Ḩarfūsh"],"lon":30.23817,"lat":31.00721,"pop":0},{"id":434265,"name":"‘Izbat ‘Alī Ḩusayn","lon":30.72098,"lat":29.18575,"pop":0},{"id":9083792,"name":"‘Izbat ‘Alī Ḩusayn","alt":["`Izbat `Ali Husayn","ʿzbt ʿly hsyn","عزبة علي حسين"],"lon":30.0561,"lat":31.30168,"pop":0},{"id":415979,"name":"‘Izbat ‘Alī Ibrāhīm","alt":["`Izbat `Ali Ibrahim","عزبة علي إبراهيم"],"lon":30.85789,"lat":31.10285,"pop":0},{"id":8068950,"name":"‘Izbat ‘Alī Jabr","alt":["`Izbat `Ali Jabr","عزبة علي جبر"],"lon":31.63336,"lat":30.55146,"pop":0},{"id":419083,"name":"‘Izbat ‘Alī Kāmil","alt":["`Izbat Ali Kamil","`Izbat `Ali Kamil","ʿzbt ʿly kaml","عزبة علي كامل","‘Izbat Alī Kāmil"],"lon":31.21555,"lat":31.00586,"pop":0},{"id":434765,"name":"‘Izbat ‘Alī Khalīfah","lon":30.93838,"lat":29.04202,"pop":0},