[{"id":662107,"name":"Aakoinen","lon":22.66693,"lat":60.37987,"pop":0},{"id":662100,"name":"Aaljoki","lon":23.26368,"lat":60.26098,"pop":0},{"id":662089,"name":"Aapajoki","lon":24.13241,"lat":66.01132,"pop":0},{"id":660922,"name":"Aapajärvi","alt":["Aapajaervi","Aapajarven Asutusalue","Aapajarvi","Aapajärven Asutusalue","Apajarvi","Aspajarvi","Aspajärvi","Апаярви"],"lon":27.29272,"lat":67.254,"pop":0},{"id":662090,"name":"Aapajärvi","lon":24.16473,"lat":66.08377,"pop":0},{"id":662082,"name":"Aarikkala","lon":22.68593,"lat":61.26471,"pop":0},{"id":662081,"name":"Aarlahti","lon":21.82175,"lat":60.63791,"pop":0},{"id":12363194,"name":"Aarnionperä","alt":["Aarnionpera"],"lon":23.17724,"lat":60.36371,"pop":0},{"id":662074,"name":"Aasla","lon":21.95,"lat":60.3,"pop":0},{"id":662073,"name":"Aatoila","lon":22.01166,"lat":60.59406,"pop":0},{"id":662072,"name":"Aatola","lon":27.2,"lat":62,"pop":0},{"id":662067,"name":"Aatsinki","alt":["Ateinki","Атеинки"],"lon":28.93988,"lat":66.884,"pop":0},{"id":662064,"name":"Aavasaksa","alt":["Аавасакса"],"lon":23.70263,"lat":66.37946,"pop":0},{"id":11908663,"name":"Abessinia","lon":26.56312,"lat":60.93756,"pop":0},{"id":662039,"name":"Agnisbäck","alt":["Agnisbaeck","Gamla Kvarnen"],"lon":22.5304,"lat":63.15399,"pop":0},{"id":662036,"name":"Ahdenkallio","lon":24.88652,"lat":60.63995,"pop":0},{"id":662035,"name":"Ahenpää","lon":27.53333,"lat":65.8,"pop":0},{"id":847535,"name":"Ahjo","lon":25.14659,"lat":60.4019,"pop":0},{"id":662033,"name":"Ahjärvi","lon":29.08278,"lat":61.4195,"pop":0},{"id":662025,"name":"Ahlainen","alt":["Hvittisbofjaerd","Hvittisbofjärd","Vittisbofjaerd","Vittisbofjärd","Vittisbufierd"],"lon":21.62092,"lat":61.67538,"pop":0},{"id":662024,"name":"Ahlajärvi","lon":23.85345,"lat":61.07177,"pop":0},{"id":662014,"name":"Ahmas","lon":26.41944,"lat":64.63097,"pop":0},{"id":662010,"name":"Ahmaskylä","lon":26.41667,"lat":64.65,"pop":0},{"id":662006,"name":"Ahmaus","lon":22.30501,"lat":61.46831,"pop":0},{"id":662004,"name":"Ahmo","alt":["Ahmoonkyla","Ahmoonkylä"],"lon":24.28333,"lat":60.53333,"pop":0},{"id":661998,"name":"Ahmovaara","alt":["Akhmovara","Ахмовара"],"lon":29.62094,"lat":63.09621,"pop":0},{"id":661984,"name":"Aho","lon":22.61667,"lat":62.55,"pop":0},{"id":11962140,"name":"Aho-Vastinki","lon":25.06065,"lat":62.88575,"pop":0},{"id":661983,"name":"Ahoinen","alt":["Ahonen","Akhojnen","Ахойнен"],"lon":24.33276,"lat":60.82527,"pop":0},{"id":661978,"name":"Ahokylä","alt":["Aho","Ahokyla"],"lon":26.5505,"lat":63.99229,"pop":0},{"id":661922,"name":"Ahola","lon":27.33333,"lat":66.76667,"pop":0},{"id":661923,"name":"Ahola","lon":28.58333,"lat":66.55,"pop":0},{"id":661924,"name":"Ahola","lon":26.98333,"lat":66.33333,"pop":0},{"id":661925,"name":"Ahola","lon":28.1673,"lat":66.11052,"pop":0},{"id":661926,"name":"Ahola","lon":27.5,"lat":65.75,"pop":0},{"id":661927,"name":"Ahola","lon":27.38333,"lat":65.65,"pop":0},{"id":661928,"name":"Ahola","lon":29.5,"lat":64.66667,"pop":0},{"id":661929,"name":"Ahola","lon":24.81667,"lat":64.51667,"pop":0},{"id":661930,"name":"Ahola","lon":26.65,"lat":64.25,"pop":0},{"id":661931,"name":"Ahola","lon":28.51667,"lat":64.1,"pop":0},{"id":661932,"name":"Ahola","lon":28.95,"lat":63.68333,"pop":0},{"id":661933,"name":"Ahola","lon":28.95,"lat":63.53333,"pop":0},{"id":661934,"name":"Ahola","lon":28.6,"lat":63.28333,"pop":0},{"id":661935,"name":"Ahola","lon":26.33333,"lat":63.2,"pop":0},{"id":661936,"name":"Ahola","lon":23.58577,"lat":63.09706,"pop":0},{"id":661937,"name":"Ahola","lon":26.51667,"lat":61.55,"pop":0},{"id":661938,"name":"Ahola","alt":["Akhola","Ахола"],"lon":28.70945,"lat":61.12789,"pop":0},{"id":7647677,"name":"Ahola","lon":25.83023,"lat":62.51323,"pop":0},{"id":7838819,"name":"Ahola","lon":24.33128,"lat":61.72303,"pop":0},{"id":9179181,"name":"Ahola","lon":26.27715,"lat":61.18097,"pop":0},{"id":661921,"name":"Aholahti","lon":28.75961,"lat":61.88396,"pop":0},{"id":840287,"name":"Aholankulma","lon":27.37575,"lat":60.73005,"pop":0},{"id":661919,"name":"Aholankylä","lon":26.43827,"lat":62.74796,"pop":0},{"id":840190,"name":"Aholanmäki","lon":27.01531,"lat":60.69592,"pop":0},{"id":11830319,"name":"Aholanpelto","lon":26.31694,"lat":60.89439,"pop":0},{"id":10101627,"name":"Aholanvaara","lon":29.75646,"lat":64.46861,"pop":0},{"id":12176037,"name":"Aholanvaara","lon":28.70916,"lat":66.53391,"pop":0},{"id":661917,"name":"Ahomäki","lon":22.80371,"lat":63.11284,"pop":0},{"id":847386,"name":"Ahoniitty","lon":24.79614,"lat":60.48438,"pop":0},{"id":661907,"name":"Ahonkylä","lon":22.68113,"lat":62.76605,"pop":0},{"id":661908,"name":"Ahonkylä","lon":29.13811,"lat":62.6675,"pop":0},{"id":661909,"name":"Ahonkylä","alt":["Aho","Ahonkyla"],"lon":23.09388,"lat":62.53754,"pop":0},{"id":661900,"name":"Ahonperä","alt":["Aho","Ahonpera"],"lon":24.88769,"lat":64.34321,"pop":0},{"id":7647541,"name":"Ahonperä","lon":23.76124,"lat":61.402,"pop":0},{"id":661903,"name":"Ahonpää","lon":29.85,"lat":63.33333,"pop":0},{"id":661904,"name":"Ahonpää","lon":24.2,"lat":63,"pop":0},{"id":661905,"name":"Ahonpää","lon":24.04524,"lat":60.52986,"pop":0},{"id":10101669,"name":"Ahonpää","alt":["Ahonpaeae"],"lon":22.31713,"lat":62.2015,"pop":0},{"id":661899,"name":"Ahopelto","lon":23.66667,"lat":63.01667,"pop":0},{"id":7871145,"name":"Ahopelto","lon":25.19079,"lat":61.8778,"pop":0},{"id":661893,"name":"Ahteenpää","lon":23.48333,"lat":60.66667,"pop":0},{"id":841760,"name":"Ahteentaka","lon":21.87073,"lat":60.37876,"pop":0},{"id":661888,"name":"Ahtiala","lon":23.78986,"lat":61.32283,"pop":0},{"id":661889,"name":"Ahtiala","alt":["Akhtiala","Ахтиала"],"lon":25.77029,"lat":61.00287,"pop":0},{"id":661890,"name":"Ahtiala","lon":23.57421,"lat":60.3504,"pop":0},{"id":661891,"name":"Ahtiala","lon":23.91221,"lat":60.21276,"pop":0},{"id":12298548,"name":"Ahtmaa","lon":22.93215,"lat":60.26275,"pop":0},{"id":661886,"name":"Ahtola","lon":24.91667,"lat":60.9,"pop":0},{"id":661872,"name":"Ahveninen","lon":30.1162,"lat":62.93477,"pop":0},{"id":661873,"name":"Ahveninen","alt":["Akhveninen","Ахвенинен"],"lon":26.2869,"lat":62.91259,"pop":0},{"id":661874,"name":"Ahveninen","lon":24.33333,"lat":62,"pop":0},{"id":661870,"name":"Ahvenisto","alt":["Ahvenainen"],"lon":26.51912,"lat":61.29501,"pop":0},{"id":661871,"name":"Ahvenisto","lon":24.41444,"lat":60.99004,"pop":0},{"id":661843,"name":"Ahvenkoski","alt":["Abborrfors","Stor Abborfors","Stor Abborforsgard","Stor Abborforsgård","Suur Ahvenkoski"],"lon":26.47797,"lat":60.50081,"pop":0},{"id":661840,"name":"Ahvenlahti","lon":30.08333,"lat":63,"pop":0},{"id":7871160,"name":"Ahvenlammi","lon":25.22234,"lat":61.87732,"pop":0},{"id":661825,"name":"Ahvenniemi","lon":29.64648,"lat":65.77318,"pop":0},{"id":661826,"name":"Ahvenniemi","lon":26.55,"lat":61.53333,"pop":0},{"id":661822,"name":"Ahvensalmi","lon":26.82279,"lat":62.9736,"pop":0},{"id":661823,"name":"Ahvensalmi","alt":["Ahvensalo"],"lon":28.48443,"lat":62.16457,"pop":0},{"id":661820,"name":"Ahvenselkä","lon":28.09914,"lat":66.98933,"pop":0},{"id":661818,"name":"Ahvenus","lon":22.51017,"lat":61.29578,"pop":0},{"id":10101466,"name":"Ahvenus","lon":25.48994,"lat":61.93706,"pop":0},{"id":661814,"name":"Ahvenvaara","lon":30.52713,"lat":62.34883,"pop":0},{"id":661811,"name":"Ahvio","alt":["Ahvis","Akhvio","Ахвио"],"lon":26.74051,"lat":60.63565,"pop":0},{"id":661810,"name":"Ahvionniemi","lon":28.71169,"lat":61.70231,"pop":0},{"id":661809,"name":"Ahvionsaari","lon":28.73224,"lat":61.72976,"pop":0},{"id":661800,"name":"Aijala","alt":["Ajjala","Айяла"],"lon":23.35379,"lat":60.19335,"pop":0},{"id":12331359,"name":"Aijalan Metsäkulma","alt":["Aijalan Metsakulma"],"lon":23.35509,"lat":60.17849,"pop":0},{"id":661788,"name":"Aikava","lon":22.71667,"lat":62.25,"pop":0},{"id":661785,"name":"Aikkila","lon":29.20899,"lat":66.13307,"pop":0},{"id":661766,"name":"Aimala","lon":23.71674,"lat":61.33329,"pop":0},{"id":661762,"name":"Aimontappo","alt":["Aimontoppo"],"lon":23.22487,"lat":60.27581,"pop":0},{"id":661758,"name":"Ainali","lon":25.42139,"lat":64.23325,"pop":0},{"id":661759,"name":"Ainali","lon":23.89944,"lat":64.04623,"pop":0},{"id":661755,"name":"Ainasoja","alt":["Ainastalo"],"lon":25,"lat":63.85,"pop":0},{"id":11830380,"name":"Ainola","lon":26.37197,"lat":60.88499,"pop":0},{"id":661746,"name":"Airaksela","alt":["Ajrakselan","Айракселан"],"lon":27.37955,"lat":62.75937,"pop":0},{"id":661744,"name":"Airikkala","lon":28.98333,"lat":63.96667,"pop":0},{"id":661742,"name":"Airismaa","lon":21.98415,"lat":60.32358,"pop":0},{"id":661740,"name":"Airola","lon":24.4,"lat":60.51667,"pop":0},{"id":661739,"name":"Aisaniemi","lon":28.55994,"lat":61.32786,"pop":0},{"id":661736,"name":"Aitamännikkö","alt":["Aitamannikka","Aitamannikko","Aitamannikkä"],"lon":24.0494,"lat":67.0155,"pop":0},{"id":661731,"name":"Aitolahti","lon":23.89183,"lat":61.54577,"pop":0},{"id":661729,"name":"Aitomäki","lon":26.85253,"lat":60.86193,"pop":0},{"id":661728,"name":"Aitoniemi","alt":["Kiloniemi"],"lon":23.82447,"lat":61.56796,"pop":0},{"id":661726,"name":"Aitoo","lon":24.49751,"lat":61.3375,"pop":0},{"id":10102370,"name":"Aitsorkullen","lon":22.275,"lat":63.18654,"pop":0},{"id":661723,"name":"Aitta","alt":["Aaita"],"lon":26.3,"lat":64.73333,"pop":0},{"id":844686,"name":"Aittakorpi","lon":26.86437,"lat":60.49338,"pop":0},{"id":7647303,"name":"Aittaluoto","alt":["Bodskaer","Bodskär"],"lon":21.81179,"lat":61.48581,"pop":0},{"id":639151,"name":"Aittamaa","alt":["Rittamaa"],"lon":23.7206,"lat":66.41367,"pop":0},{"id":661715,"name":"Aittaniemi","alt":["Ajtaniemi","Айтаниеми"],"lon":27.88531,"lat":66.36125,"pop":0},{"id":10102404,"name":"Aittasenloukko","lon":22.48667,"lat":63.09615,"pop":0},{"id":647485,"name":"Aittijoki","alt":["Aitejohka","Lukkarpaiki","Lukkarpäiki","Áitejohka"],"lon":26.09336,"lat":69.72318,"pop":0},{"id":661705,"name":"Aittojärvi","alt":["Aittojaervi","Aittojarvi","Ajttojarvi","Айттоярви"],"lon":26.39625,"lat":63.67021,"pop":0},{"id":661701,"name":"Aittokoski","lon":27.41998,"lat":63.69993,"pop":0},{"id":661698,"name":"Aittokylä","lon":27.737,"lat":64.92686,"pop":0},{"id":661689,"name":"Aittomäki","lon":27.41667,"lat":63.68333,"pop":0},{"id":661690,"name":"Aittomäki","lon":28.6,"lat":63.11667,"pop":0},{"id":661691,"name":"Aittomäki","lon":26.11667,"lat":62.7,"pop":0},{"id":10102271,"name":"Aittomäki","alt":["Aittomaeki"],"lon":22.12954,"lat":62.99388,"pop":0},{"id":661687,"name":"Aittoniemi","lon":25.35,"lat":62.96667,"pop":0},{"id":661683,"name":"Aittoperä","lon":27.76667,"lat":66.38333,"pop":0},{"id":661679,"name":"Aittovaara","lon":27.71667,"lat":64.9,"pop":0},{"id":661680,"name":"Aittovaara","alt":["Ajttovara","Айттовара"],"lon":30.45162,"lat":62.61956,"pop":0},{"id":661665,"name":"Ajostaipale","lon":24.43333,"lat":62.05,"pop":0},{"id":634317,"name":"Akaa","alt":["Ackas"],"lon":23.86667,"lat":61.16667,"pop":8258},{"id":661656,"name":"Akanlahti","lon":28.50732,"lat":66.03013,"pop":0},{"id":661636,"name":"Akkala","lon":30.25885,"lat":62.19518,"pop":0},{"id":661637,"name":"Akkala","lon":28.54403,"lat":61.44718,"pop":0},{"id":661633,"name":"Akkijärvi","lon":24.70402,"lat":61.10223,"pop":0},{"id":843716,"name":"Akolanperä","lon":23.63296,"lat":64.05823,"pop":0},{"id":7644965,"name":"Akonlahti","lon":27.94776,"lat":62.27978,"pop":0},{"id":661623,"name":"Akonpohja","lon":28.36195,"lat":63.0128,"pop":0},{"id":661624,"name":"Akonpohja","alt":["Akonpokh'ja","Аконпохья"],"lon":29.68721,"lat":61.69932,"pop":0},{"id":661616,"name":"Akujärvi","alt":["Akujaervi","Akujarvi","Акуярви"],"lon":27.7022,"lat":68.67888,"pop":0},{"id":661610,"name":"Akula","lon":26.85,"lat":63.61667,"pop":0},{"id":661519,"name":"Ala Kylmänen","lon":26.3,"lat":64.56667,"pop":0},{"id":661431,"name":"Ala Röntylä","lon":29.18333,"lat":65.05,"pop":0},{"id":661354,"name":"Ala Vuotunki","alt":["Vuotunki","Вуотунки"],"lon":29.51667,"lat":66.16667,"pop":0},{"id":661606,"name":"Ala-Annala","lon":23.2,"lat":63.01667,"pop":0},{"id":7645641,"name":"Ala-Haapalehto","lon":25.56087,"lat":65.02595,"pop":0},{"id":661559,"name":"Ala-Kelvä","lon":30.01719,"lat":63.11796,"pop":0},{"id":661556,"name":"Ala-Kieri","lon":21.77503,"lat":61.09907,"pop":0},{"id":7644963,"name":"Ala-Kinnari","lon":27.97102,"lat":62.32745,"pop":0},{"id":661535,"name":"Ala-Kuona","lon":29.18934,"lat":61.9833,"pop":0},{"id":661567,"name":"Ala-Kääntä","lon":24.15971,"lat":64.20442,"pop":0},{"id":847512,"name":"Ala-Malmi","alt":["Nedre Malm","Nedre-Malm"],"lon":25.01332,"lat":60.24818,"pop":0},{"id":645117,"name":"Ala-Nampa","alt":["Nampa","Ала-Нампа"],"lon":26.28236,"lat":66.73005,"pop":0},{"id":661465,"name":"Ala-Nurmo","lon":22.99703,"lat":62.95248,"pop":0},{"id":661461,"name":"Ala-Paakkola","alt":["Ala-Pakkola","Alapaakkola","Ала-Паккола"],"lon":24.73161,"lat":65.93111,"pop":0},{"id":10101418,"name":"Ala-Partala","lon":25.05527,"lat":61.84429,"pop":0},{"id":661444,"name":"Ala-Pihlaja","lon":27.61667,"lat":60.53333,"pop":0},{"id":661434,"name":"Ala-Raumo","alt":["Alarauma"],"lon":24.25713,"lat":65.85005,"pop":0},{"id":661424,"name":"Ala-Siikajärvi","lon":28.37166,"lat":63.23116,"pop":0},{"id":661407,"name":"Ala-Sydänmaa","alt":["Alasjudjanma","Alasydaenmaa","Alasydanmaa","Alasydänmaa","Аласюдянма"],"lon":25.10282,"lat":64.06351,"pop":0},{"id":661428,"name":"Ala-Särkilahti","lon":29.08333,"lat":61.55,"pop":0},{"id":661375,"name":"Ala-Temmes","alt":["Alatemmes","Алатеммес"],"lon":25.54596,"lat":64.77317,"pop":0},{"id":7646338,"name":"Ala-Tikkurila","alt":["Nedre Dickursby"],"lon":25.02849,"lat":60.28098,"pop":0},{"id":661366,"name":"Ala-Valli","lon":22.97394,"lat":62.46217,"pop":0},{"id":661361,"name":"Ala-Viirre","alt":["Alaviirret"],"lon":23.61204,"lat":64.02383,"pop":0},{"id":661360,"name":"Ala-Vojakkala","alt":["Alavojakkala","Vojakkala","Вояккала"],"lon":24.14595,"lat":65.91471,"pop":0},{"id":661356,"name":"Ala-Vuotto","lon":26.47178,"lat":65.0083,"pop":0},{"id":661600,"name":"Alahonkajoki","lon":22.3,"lat":61.86667,"pop":0},{"id":661597,"name":"Alahurttanen","lon":30.78333,"lat":62.55,"pop":0},{"id":661601,"name":"Alahärmä","alt":["Alahaermae","Alakhjarmja","Алахярмя"],"lon":22.85493,"lat":63.24831,"pop":4915},{"id":661604,"name":"Alahäärä","lon":27.63333,"lat":61.06667,"pop":0},{"id":10101791,"name":"Alainenpää","alt":["Alainenpaeae"],"lon":21.95702,"lat":63.07065,"pop":0},{"id":661573,"name":"Alajoenmylly","lon":26.78333,"lat":62.13333,"pop":0},{"id":661571,"name":"Alajoki","lon":25.61037,"lat":63.99457,"pop":0},{"id":661572,"name":"Alajoki","lon":24.21667,"lat":61,"pop":0},{"id":843739,"name":"Alajoki","lon":23.74679,"lat":64.16501,"pop":0},{"id":661574,"name":"Alajärvi","lon":28.80565,"lat":64.98532,"pop":0},{"id":661575,"name":"Alajärvi","alt":["Alajaervi","Alajarvi","Алаярви"],"lon":28.5677,"lat":64.03271,"pop":0},{"id":661576,"name":"Alajärvi","alt":["Alajaervi","Alajaervi linn","Alajarvi","Alajärvi linn","Alayarvi","a la ye er wei","alajarwy","alayarwy","Алайӓрви","Алаярви","Алаярві","الاجاروی","الایاروی","阿拉耶爾維"],"lon":23.81667,"lat":63,"pop":8793},{"id":661557,"name":"Alakeyritty","alt":["Alakoyritty","Alaköyritty"],"lon":28.33333,"lat":63.43333,"pop":0},{"id":661553,"name":"Alakirsi","lon":27.46667,"lat":61.31667,"pop":0},{"id":661549,"name":"Alakitka","lon":28.9,"lat":66.3,"pop":0},{"id":842178,"name":"Alakuja","lon":21.68878,"lat":62.2674,"pop":0},{"id":661520,"name":"Alakylä","alt":["Alakjulja","Alakyla","Alakylae","Алакюля"],"lon":24.88238,"lat":67.35492,"pop":0},{"id":661521,"name":"Alakylä","lon":27.33333,"lat":66.61667,"pop":0},{"id":661523,"name":"Alakylä","lon":23,"lat":63.15,"pop":0},{"id":661524,"name":"Alakylä","lon":22.77677,"lat":62.78519,"pop":0},{"id":661525,"name":"Alakylä","lon":21.8,"lat":62.28333,"pop":0},{"id":661526,"name":"Alakylä","lon":30.35,"lat":62.11667,"pop":0},{"id":661527,"name":"Alakylä","alt":["Nederby","Ytterby"],"lon":21.52359,"lat":61.84319,"pop":0},{"id":661528,"name":"Alakylä","alt":["Alakyla","Nederby"],"lon":21.61667,"lat":61.66667,"pop":0},{"id":661529,"name":"Alakylä","lon":26.66653,"lat":60.84316,"pop":0},{"id":661531,"name":"Alakylä","lon":22.14822,"lat":60.60984,"pop":0},{"id":661532,"name":"Alakylä","alt":["Alakyla","Nedre byn"],"lon":21.94089,"lat":60.2936,"pop":0},{"id":842179,"name":"Alakylä","alt":["Nederby"],"lon":21.72086,"lat":62.28008,"pop":0},{"id":7645648,"name":"Alakylä","lon":25.46912,"lat":64.92648,"pop":0},{"id":7647701,"name":"Alakylä","lon":28.76916,"lat":61.33531,"pop":0},{"id":10101647,"name":"Alakylä","alt":["Alakylae","Nedre byn"],"lon":21.91955,"lat":62.18216,"pop":0},{"id":10101760,"name":"Alakylä","alt":["Alakylae"],"lon":21.90636,"lat":63.00081,"pop":0},{"id":661513,"name":"Alalehto","lon":28.83333,"lat":64.96667,"pop":0},{"id":661509,"name":"Alalivo","lon":26.85,"lat":65.5,"pop":0},{"id":661505,"name":"Alaluosta","lon":28.6,"lat":63.28333,"pop":0},{"id":661501,"name":"Alamaa","lon":27.34706,"lat":61.80702,"pop":0},{"id":661492,"name":"Alamuonio","lon":23.66667,"lat":67.96667,"pop":0},{"id":661494,"name":"Alamökki","lon":29.25,"lat":62.55,"pop":0},{"id":661487,"name":"Alanampa","lon":26.28333,"lat":66.73333,"pop":0},{"id":661563,"name":"Alaniemi","alt":["Alakarppa","Alakärppä","Аланиеми"],"lon":25.33824,"lat":65.84561,"pop":0},{"id":661471,"name":"Alanne","lon":30.16667,"lat":64.3,"pop":0},{"id":661488,"name":"Alanäljänkä","lon":28.41667,"lat":65.05,"pop":0},{"id":661455,"name":"Alaperä","lon":27.5,"lat":67.13333,"pop":0},{"id":661456,"name":"Alaperä","lon":27.56667,"lat":67.03333,"pop":0},{"id":661445,"name":"Alapiha","lon":30.5,"lat":62.76667,"pop":0},{"id":661443,"name":"Alapitkä","alt":["Ala-Pitkja","Alapitka","Alapitkae","Ала-Питкя"],"lon":27.54205,"lat":63.19904,"pop":0},{"id":661462,"name":"Alapää","lon":24.17903,"lat":64.09918,"pop":0},{"id":840182,"name":"Alapää","lon":27.03043,"lat":60.68912,"pop":0},{"id":843765,"name":"Alapää","lon":24.74241,"lat":64.84478,"pop":0},{"id":843890,"name":"Alapää","lon":25.39421,"lat":64.81422,"pop":0},{"id":10102388,"name":"Alapää","alt":["Alapaeae"],"lon":22.47154,"lat":62.94767,"pop":0},{"id":449836,"name":"Alaranta","lon":25.33653,"lat":65.31369,"pop":0},{"id":661420,"name":"Alaskylä","lon":22.99582,"lat":61.96024,"pop":0},{"id":661418,"name":"Alasotkamo","lon":28.3,"lat":64.1,"pop":0},{"id":661419,"name":"Alasotkamo","lon":28.5,"lat":63.88333,"pop":0},{"id":661416,"name":"Alaspää","lon":23.76735,"lat":63.41127,"pop":0},{"id":661417,"name":"Alaspää","lon":23.20753,"lat":60.13365,"pop":0},{"id":661415,"name":"Alassalmi","lon":26.91667,"lat":64.33333,"pop":0},{"id":661413,"name":"Alastalo","lon":26.85,"lat":60.56667,"pop":0},{"id":661410,"name":"Alastaro","lon":22.85,"lat":60.95,"pop":0},{"id":661376,"name":"Alatalo","lon":28.66667,"lat":65.88333,"pop":0},{"id":661377,"name":"Alatalo","lon":27.56667,"lat":65.33333,"pop":0},{"id":661378,"name":"Alatalo","lon":29.28333,"lat":65.28333,"pop":0},{"id":661379,"name":"Alatalo","lon":27.7,"lat":64.93333,"pop":0},{"id":661380,"name":"Alatalo","lon":27.9,"lat":64.48333,"pop":0},{"id":661381,"name":"Alatalo","lon":29.26667,"lat":64.41667,"pop":0},{"id":661382,"name":"Alatalo","lon":30.25,"lat":63.55,"pop":0},{"id":661383,"name":"Alatalo","lon":27.1,"lat":63.5,"pop":0},{"id":661384,"name":"Alatalo","alt":["Alatalb"],"lon":30.41667,"lat":62.8,"pop":0},{"id":661372,"name":"Alatornio","alt":["Nedre Tornea","Nedre Torneå","Tornio","Торнио"],"lon":24.167,"lat":65.82577,"pop":0},{"id":661365,"name":"Alavi","alt":["Alavinkyla","Alavinkylä"],"lon":29.01412,"lat":62.7016,"pop":0},{"id":661363,"name":"Alavieska","alt":["Алавиеска"],"lon":24.3,"lat":64.16667,"pop":2883},{"id":661357,"name":"Alavuokki","lon":29.53333,"lat":64.88333,"pop":0},{"id":661358,"name":"Alavuokki","alt":["Ala-Vuokki"],"lon":29.5,"lat":64.71667,"pop":0},{"id":661352,"name":"Alavus","alt":["Alavo","Алавус"],"lon":23.61667,"lat":62.58333,"pop":9422},{"id":6694920,"name":"Alesundet","alt":["Leppaesalmi","Leppäsalmi"],"lon":21.34678,"lat":62.27815,"pop":0},{"id":12363191,"name":"Alhaisi","lon":23.12455,"lat":60.37037,"pop":0},{"id":661336,"name":"Alho","lon":25.0972,"lat":61.46273,"pop":0},{"id":844426,"name":"Alho","lon":25.68111,"lat":60.46194,"pop":0},{"id":7647474,"name":"Alho","lon":21.70057,"lat":61.33305,"pop":0},{"id":661329,"name":"Alhojoki","alt":["Alhonjoki"],"lon":22.45224,"lat":62.913,"pop":0},{"id":661334,"name":"Alhojärvi","alt":["Alho"],"lon":25.13517,"lat":61.8316,"pop":0},{"id":661332,"name":"Alholm","alt":["Ahlholm"],"lon":21.66284,"lat":62.77783,"pop":0},{"id":661331,"name":"Alholmen","alt":["Alholm","Alholma","Leppaluoto","Leppäluoto"],"lon":22.69616,"lat":63.70435,"pop":0},{"id":6930951,"name":"Alhoniitty","lon":23.48286,"lat":61.48582,"pop":0},{"id":10101281,"name":"Alhonkulma","lon":22.19983,"lat":60.99218,"pop":0},{"id":10101834,"name":"Alhonloukko","lon":22.02866,"lat":63.00597,"pop":0},{"id":12088963,"name":"Ali-Tilkka","lon":24.73834,"lat":60.38444,"pop":0},{"id":636427,"name":"Ali-Vekkoski","alt":["Soderveckoski","Söderveckoski"],"lon":25.43581,"lat":60.37091,"pop":0},{"id":661522,"name":"Alikylä","alt":["Alakyla","Alakylä","Alikyla"],"lon":23.79881,"lat":63.72626,"pop":0},{"id":661530,"name":"Alikylä","lon":26.1325,"lat":60.79003,"pop":0},{"id":847395,"name":"Alikylä","lon":24.86004,"lat":60.41715,"pop":0},{"id":842061,"name":"Aliskulma","lon":22.36531,"lat":60.49213,"pop":0},{"id":854864,"name":"Aliskulma","lon":22.06819,"lat":60.57016,"pop":0},{"id":661302,"name":"Alivanhakylä","lon":24.55,"lat":60.53333,"pop":0},{"id":661299,"name":"Alkkia","lon":22.76622,"lat":62.19072,"pop":0},{"id":661298,"name":"Alkkula","lon":23.68651,"lat":66.33354,"pop":0},{"id":844330,"name":"Alkrog","lon":25.62894,"lat":60.37931,"pop":0},{"id":12382235,"name":"Alkula","lon":21.72279,"lat":63.07986,"pop":0},{"id":10102268,"name":"Allinen","lon":22.15757,"lat":62.94157,"pop":0},{"id":661292,"name":"Alliniemi","lon":27.58333,"lat":64.88333,"pop":0},{"id":848331,"name":"Almas","lon":21.66047,"lat":60.13029,"pop":0},{"id":842521,"name":"Alnäset","lon":21.60261,"lat":62.89527,"pop":0},{"id":842792,"name":"Alnäset","lon":21.5303,"lat":62.96041,"pop":0},{"id":842843,"name":"Alnäset","lon":21.59056,"lat":63.04822,"pop":0},{"id":6545254,"name":"Alppiharju","alt":["12","Ashoejden","Åshöjden"],"lon":24.94879,"lat":60.18909,"pop":0},{"id":661286,"name":"Alppikylä","alt":["Albyn","Alpbyn","Alppikylae"],"lon":25.06943,"lat":60.26006,"pop":0},{"id":843947,"name":"Alppila","lon":25.45987,"lat":65.0364,"pop":0},{"id":6545341,"name":"Alppila","alt":["Alphyddan"],"lon":24.94293,"lat":60.18989,"pop":0},{"id":661285,"name":"Alpua","alt":["Allua","Аллуа"],"lon":25.22234,"lat":64.42265,"pop":0},{"id":12495768,"name":"Alpuminkangas","lon":24.55721,"lat":64.08755,"pop":0},{"id":852732,"name":"Alsila","alt":["Alsboele","Alsböle"],"lon":21.50387,"lat":60.82295,"pop":0},{"id":12363038,"name":"Alsila","lon":22.74313,"lat":60.28677,"pop":0},{"id":661278,"name":"Alskat","lon":21.52049,"lat":63.20409,"pop":0},{"id":661277,"name":"Alskog","alt":["Ahlskog"],"lon":23.29101,"lat":63.73699,"pop":0},{"id":842782,"name":"Alskog","lon":21.53169,"lat":62.94677,"pop":0},{"id":11962458,"name":"Aluemeri","alt":["Territorialhavet"],"lon":25.03577,"lat":60.00314,"pop":0},{"id":661267,"name":"Aluskylä","lon":22.56667,"lat":61.63333,"pop":0},{"id":661268,"name":"Aluskylä","lon":22.96667,"lat":61.43333,"pop":0},{"id":661262,"name":"Alvajärvi","alt":["Alvajaervi","Alvajarvi","Алваярви"],"lon":25.3598,"lat":63.44278,"pop":0},{"id":661261,"name":"Alvettula","lon":24.48617,"lat":61.20109,"pop":0},{"id":661260,"name":"Alvonkylä","lon":25.01667,"lat":61.1,"pop":0},{"id":10101531,"name":"Amer","lon":25.02637,"lat":60.37546,"pop":0},{"id":12363781,"name":"Ammakko","lon":23.00243,"lat":60.42668,"pop":0},{"id":661232,"name":"Ampiala","lon":24.92945,"lat":62.28812,"pop":0},{"id":661231,"name":"Ampola","alt":["Amboele","Amböle"],"lon":22.77926,"lat":60.26127,"pop":0},{"id":661230,"name":"Ampujala","lon":28.1887,"lat":61.13215,"pop":0},{"id":11919563,"name":"Amttoo","alt":["AEmtoe","AEmttoeoe","Ämttöö","Ämtö"],"lon":21.61141,"lat":61.64325,"pop":0},{"id":661226,"name":"Amuri","lon":23.74317,"lat":61.50018,"pop":0},{"id":661221,"name":"Anavainen","alt":["Anavais"],"lon":21.2693,"lat":60.56499,"pop":0},{"id":840795,"name":"Andby","alt":["Annila"],"lon":24.30327,"lat":60.22588,"pop":0},{"id":661215,"name":"Andersby","lon":26.16072,"lat":60.54804,"pop":0},{"id":10102353,"name":"Andiala","lon":22.26688,"lat":63.11783,"pop":0},{"id":854515,"name":"Ane","lon":21.62092,"lat":60.63904,"pop":0},{"id":639971,"name":"Anetjärvi","lon":27.99219,"lat":65.91741,"pop":0},{"id":661206,"name":"Anettu","lon":26.42658,"lat":61.39573,"pop":0},{"id":661203,"name":"Angeli","alt":["Annel","Áŋŋel","Ангели"],"lon":25.66283,"lat":68.91043,"pop":0},{"id":661200,"name":"Angelniemi","lon":22.89589,"lat":60.29769,"pop":0},{"id":661197,"name":"Angervikko","lon":28.23754,"lat":63.46161,"pop":0},{"id":661173,"name":"Ania","lon":23.54027,"lat":61.38784,"pop":0},{"id":661172,"name":"Anianpelto","lon":25.55904,"lat":61.16927,"pop":0},{"id":10101788,"name":"Anixor","lon":21.89117,"lat":63.08912,"pop":0},{"id":661164,"name":"Anjala","alt":["Anujala","Анъяла"],"lon":26.83333,"lat":60.68333,"pop":16779},{"id":661165,"name":"Anjala","lon":23.16697,"lat":60.39236,"pop":0},{"id":661162,"name":"Ankele","lon":27.41313,"lat":62.06849,"pop":0},{"id":661157,"name":"Ankka","lon":22.49788,"lat":60.51705,"pop":0},{"id":661156,"name":"Ankkoinsalo","lon":28.08527,"lat":61.53077,"pop":0},{"id":841957,"name":"Ankkurikylä","alt":["Ankarbyn","Ankkurikyla"],"lon":22.13899,"lat":60.45456,"pop":0},{"id":661147,"name":"Annala","lon":27.4,"lat":65.26667,"pop":0},{"id":661148,"name":"Annala","lon":22.92671,"lat":63.09589,"pop":0},{"id":12524569,"name":"Annala","lon":24.97912,"lat":60.21391,"pop":0},{"id":12237903,"name":"Annalammi","alt":["Annaholm"],"lon":21.56904,"lat":61.88871,"pop":0},{"id":10102385,"name":"Annalanmäki","alt":["Annalanmaeki"],"lon":22.38742,"lat":62.9554,"pop":0},{"id":843725,"name":"Annanolli","lon":23.7,"lat":64.01667,"pop":0},{"id":661145,"name":"Annikkala","lon":28.15,"lat":60.95,"pop":0},{"id":10101324,"name":"Annikkala","lon":21.95418,"lat":62.88469,"pop":0},{"id":661144,"name":"Annila","lon":24.01568,"lat":61.21168,"pop":0},{"id":661142,"name":"Annonen","lon":25.05474,"lat":64.21796,"pop":0},{"id":661140,"name":"Annula","lon":23.75846,"lat":61.04726,"pop":0},{"id":661137,"name":"Anola","lon":22.00183,"lat":61.38811,"pop":0},{"id":661138,"name":"Anola","lon":28.52054,"lat":61.08293,"pop":0},{"id":661139,"name":"Anola","lon":27.95816,"lat":60.9071,"pop":0},{"id":12225389,"name":"Anomaa","lon":24.38896,"lat":61.13259,"pop":0},{"id":661136,"name":"Ansalahti","lon":26.4274,"lat":61.18397,"pop":0},{"id":847561,"name":"Antbacka","lon":25.22492,"lat":60.38505,"pop":0},{"id":661131,"name":"Antby","lon":23.70303,"lat":60.00944,"pop":0},{"id":661132,"name":"Antböle","alt":["Antbole","Antbule"],"lon":21.77109,"lat":60.15983,"pop":0},{"id":661218,"name":"Antelmaa","lon":22.52958,"lat":60.44552,"pop":0},{"id":661127,"name":"Antikkala","lon":27.4,"lat":64.01667,"pop":0},{"id":661126,"name":"Antila","lon":22.20954,"lat":61.95644,"pop":0},{"id":842193,"name":"Antila","lon":21.35422,"lat":62.29223,"pop":0},{"id":10101360,"name":"Antila","lon":22.39908,"lat":62.64956,"pop":0},{"id":12509177,"name":"Antinkangas","lon":24.51554,"lat":64.68795,"pop":0},{"id":661121,"name":"Antinlahti","lon":27.6,"lat":64.38333,"pop":0},{"id":7602319,"name":"Antinniemi","lon":24.01294,"lat":61.27376,"pop":0},{"id":661119,"name":"Antoora","alt":["Antoeren","Antören"],"lon":21.461,"lat":61.65593,"pop":0},{"id":661116,"name":"Antskog","alt":["Ansku"],"lon":23.5945,"lat":60.17219,"pop":0},{"id":661058,"name":"Anttila","lon":27.26667,"lat":66.38333,"pop":0},{"id":661059,"name":"Anttila","lon":30.03333,"lat":65.85,"pop":0},{"id":661060,"name":"Anttila","lon":29.8,"lat":65.13333,"pop":0},{"id":661062,"name":"Anttila","lon":26.7,"lat":64.83333,"pop":0},{"id":661063,"name":"Anttila","lon":24.98333,"lat":64.41667,"pop":0},{"id":661064,"name":"Anttila","lon":28.069,"lat":64.22746,"pop":0},{"id":661065,"name":"Anttila","lon":28.48333,"lat":64.2,"pop":0},{"id":661066,"name":"Anttila","lon":26.46667,"lat":63.86667,"pop":0},{"id":661067,"name":"Anttila","lon":26.05,"lat":63.38333,"pop":0},{"id":661068,"name":"Anttila","lon":23.1,"lat":63.26667,"pop":0},{"id":661069,"name":"Anttila","lon":23.65,"lat":63.01667,"pop":0},{"id":661070,"name":"Anttila","lon":30.15,"lat":62.76667,"pop":0},{"id":661072,"name":"Anttila","lon":22.7,"lat":62.56667,"pop":0},{"id":661073,"name":"Anttila","lon":29.78333,"lat":62.26667,"pop":0},{"id":661074,"name":"Anttila","lon":30.73333,"lat":62.25,"pop":0},{"id":661075,"name":"Anttila","lon":30.23333,"lat":62.08333,"pop":0},{"id":661076,"name":"Anttila","lon":21.47881,"lat":61.06004,"pop":0},{"id":661077,"name":"Anttila","alt":["Aro"],"lon":26.83779,"lat":61.04529,"pop":0},{"id":661078,"name":"Anttila","lon":25.97786,"lat":60.87251,"pop":0},{"id":661113,"name":"Anttila","lon":26.2659,"lat":60.7771,"pop":0},{"id":661217,"name":"Anttila","alt":["Andersbole","Andersböle"],"lon":25.39485,"lat":60.38075,"pop":0},{"id":7731931,"name":"Anttila","lon":29.0818,"lat":63.56812,"pop":0},{"id":661056,"name":"Anttipuhto","alt":["Antinkangas"],"lon":25.33333,"lat":64.08333,"pop":0},{"id":661055,"name":"Anttisaari","lon":23.71667,"lat":62.95,"pop":0},{"id":661049,"name":"Anttola","lon":28.73333,"lat":62.73333,"pop":0},{"id":661050,"name":"Anttola","lon":29.51667,"lat":62.01667,"pop":0},{"id":661051,"name":"Anttola","alt":["Анттола"],"lon":29.07562,"lat":61.88652,"pop":0},{"id":661052,"name":"Anttola","alt":["Анттола"],"lon":27.64194,"lat":61.58541,"pop":0},{"id":661048,"name":"Anttosenmäki","lon":29.86928,"lat":61.76446,"pop":0},{"id":661045,"name":"Apaja","lon":27.13333,"lat":64.21667,"pop":0},{"id":661041,"name":"Apalahti","alt":["Apalakt"],"lon":23.3368,"lat":63.75375,"pop":0},{"id":661027,"name":"Apukka","alt":["Апукка"],"lon":26.01422,"lat":66.5789,"pop":0},{"id":12225370,"name":"Apuranta","lon":26.4316,"lat":62.92729,"pop":0},{"id":6945765,"name":"Arabianranta","alt":["Arabiastranden"],"lon":24.97956,"lat":60.20727,"pop":0},{"id":661022,"name":"Arantila","alt":["Arandila","Arnaesby","Arnäsby"],"lon":22.015,"lat":61.36167,"pop":0},{"id":10101199,"name":"Aravakylä","alt":["Aravabyen","Aravabyn","Aravakylae"],"lon":21.60988,"lat":61.5537,"pop":0},{"id":661014,"name":"Arkkukari","alt":["Niemela"],"lon":24.4085,"lat":64.60682,"pop":0},{"id":661013,"name":"Armassaari","alt":["Armasaari"],"lon":23.71661,"lat":66.25991,"pop":0},{"id":661011,"name":"Armila","lon":28.21727,"lat":61.03838,"pop":0},{"id":661009,"name":"Armisvesi","lon":26.64341,"lat":62.42288,"pop":0},{"id":6930912,"name":"Armonkallio","lon":23.77094,"lat":61.50655,"pop":0},{"id":841805,"name":"Armonlaakso","lon":22.26877,"lat":60.37377,"pop":0},{"id":661007,"name":"Aro","lon":22.23333,"lat":62.46667,"pop":0},{"id":660991,"name":"Arola","lon":27.01667,"lat":64.2,"pop":0},{"id":660992,"name":"Arola","alt":["Apola"],"lon":22.2,"lat":60.43333,"pop":0},{"id":12402162,"name":"Arola","lon":28.04346,"lat":69.93024,"pop":0},{"id":660990,"name":"Arolampi","lon":24.78071,"lat":60.68405,"pop":0},{"id":10101301,"name":"Aronkulma","lon":22.4227,"lat":60.99491,"pop":0},{"id":10101758,"name":"Aronkylä","alt":["Aronkylae"],"lon":21.96968,"lat":62.94298,"pop":0},{"id":660984,"name":"Arpalahti","alt":["Apajalahti","Britsboele","Britsböle"],"lon":23.64492,"lat":60.3165,"pop":0},{"id":12298970,"name":"Arpalahti","lon":23.14255,"lat":60.27477,"pop":0},{"id":660983,"name":"Arpela","alt":["Арпела"],"lon":24.40369,"lat":66.027,"pop":0},{"id":660981,"name":"Arpolahti","lon":28.6014,"lat":61.21724,"pop":0},{"id":660978,"name":"Arrajoki","lon":26.05,"lat":60.98333,"pop":0},{"id":660979,"name":"Arrajärvi","lon":26.08333,"lat":61.03333,"pop":0},{"id":660977,"name":"Arrakoski","lon":25.18808,"lat":61.38471,"pop":0},{"id":660976,"name":"Arrankorpi","alt":["Арранкорпи"],"lon":24.99448,"lat":60.95316,"pop":0},{"id":842322,"name":"Arstu","lon":21.5405,"lat":62.68202,"pop":0},{"id":10101699,"name":"Arstu","lon":21.47066,"lat":62.77713,"pop":0},{"id":660974,"name":"Artjärvi","alt":["Artsjoe","Artsjö"],"lon":26.07084,"lat":60.74544,"pop":1536},{"id":660971,"name":"Artukka","alt":["Aartuka","Aartukka"],"lon":22.13936,"lat":60.37838,"pop":0},{"id":660970,"name":"Arvaja","lon":25.26237,"lat":61.73917,"pop":0},{"id":660967,"name":"Arvassalo","lon":21.47095,"lat":60.75318,"pop":0},{"id":660965,"name":"Arvenmäki","lon":25.1792,"lat":61.90308,"pop":0},{"id":660959,"name":"Arvola","lon":27.56667,"lat":67.05,"pop":0},{"id":660960,"name":"Arvola","lon":30,"lat":62.46667,"pop":0},{"id":450063,"name":"Asemakylä","lon":25.21328,"lat":65.60381,"pop":0},{"id":7871141,"name":"Asemamäki","lon":25.17479,"lat":61.89286,"pop":0},{"id":7645604,"name":"Asemankylä","lon":25.92377,"lat":62.42094,"pop":0},{"id":10101838,"name":"Asemanseutu","lon":22.00436,"lat":62.9892,"pop":0},{"id":12363901,"name":"Asemanseutu","lon":23.03737,"lat":60.40134,"pop":0},{"id":449983,"name":"Asemaperä","lon":25.42039,"lat":65.11475,"pop":0},{"id":10101587,"name":"Asentopalo","lon":26.54149,"lat":67.56972,"pop":0},{"id":842873,"name":"Asevelikylä","alt":["Asevelikyla","Vapenbrodrabyn","Vapenbrödrabyn"],"lon":21.65508,"lat":63.10177,"pop":0},{"id":7645241,"name":"Asevelikylä","lon":24.40425,"lat":60.98975,"pop":0},{"id":10101373,"name":"Asevelikylä","alt":["Asevelikylae"],"lon":22.4687,"lat":62.68303,"pop":0},{"id":660946,"name":"Asikkala","lon":29.18333,"lat":62.56667,"pop":0},{"id":660947,"name":"Asikkala","lon":29.66667,"lat":62.06667,"pop":0},{"id":660948,"name":"Asikkala","lon":28.42431,"lat":62.04994,"pop":0},{"id":660949,"name":"Asikkala","alt":["Асиккала"],"lon":25.5,"lat":61.21667,"pop":8540},{"id":660943,"name":"Asila","lon":27.52097,"lat":61.73218,"pop":0},{"id":660942,"name":"Aska","alt":["Аска"],"lon":26.69694,"lat":67.28941,"pop":0},{"id":660940,"name":"Askainen","alt":["Askas"],"lon":21.86667,"lat":60.56667,"pop":1004},{"id":854930,"name":"Askainen","lon":22.33482,"lat":60.61672,"pop":0},{"id":660939,"name":"Askala","alt":["Askola"],"lon":22.68747,"lat":60.48794,"pop":0},{"id":660937,"name":"Askankylä","alt":["Aska","Askankyla"],"lon":27.76667,"lat":65.05,"pop":0},{"id":660936,"name":"Askanmäki","lon":27.77212,"lat":65.05203,"pop":0},{"id":847355,"name":"Askisto","alt":["Askis"],"lon":24.78361,"lat":60.28141,"pop":0},{"id":660927,"name":"Askola","alt":["Askola vald","Gmina Askola","a si ke la","Аскола","阿斯科拉"],"lon":25.6,"lat":60.53333,"pop":4515},{"id":660928,"name":"Askola","lon":23.88729,"lat":60.23724,"pop":0},{"id":7647715,"name":"Askola","lon":27.81141,"lat":60.9595,"pop":0},{"id":847242,"name":"Askskär","lon":23.02833,"lat":59.90389,"pop":0},{"id":6692024,"name":"Asmalampi","lon":25.83264,"lat":62.25108,"pop":0},{"id":847498,"name":"Asola","lon":25.05108,"lat":60.32973,"pop":0},{"id":842356,"name":"Aspbäcken","lon":21.39845,"lat":62.71108,"pop":0},{"id":10101545,"name":"Aspesskog","lon":25.25426,"lat":60.26871,"pop":0},{"id":7645130,"name":"Aspiskeri","alt":["Aspskaer","Aspskär"],"lon":21.52179,"lat":61.38683,"pop":0},{"id":660918,"name":"Asplund","lon":23.2,"lat":63.65,"pop":0},{"id":660917,"name":"Aspnäs","lon":22.58536,"lat":63.34317,"pop":0},{"id":842304,"name":"Aspnäs","lon":21.34678,"lat":62.67249,"pop":0},{"id":660907,"name":"Asteljoki","lon":23.16454,"lat":60.20064,"pop":0},{"id":660904,"name":"Asuma","lon":27.93995,"lat":62.87862,"pop":0},{"id":660899,"name":"Asuntila","lon":23.92445,"lat":61.68173,"pop":0},{"id":6930941,"name":"Asuntila","lon":23.62711,"lat":61.57395,"pop":0},{"id":6930918,"name":"Atala","lon":23.90685,"lat":61.50283,"pop":0},{"id":660894,"name":"Atro","lon":28,"lat":63.36667,"pop":0},{"id":660892,"name":"Attila","alt":["Vjastila","Вястила"],"lon":24.67115,"lat":61.65027,"pop":0},{"id":660890,"name":"Attu","alt":["Attun Saha"],"lon":22.33333,"lat":60.18333,"pop":0},{"id":660888,"name":"Auho","lon":27.55232,"lat":64.97557,"pop":0},{"id":12225663,"name":"Auhonkylä","lon":27.47319,"lat":64.9928,"pop":0},{"id":660885,"name":"Aukeopää","lon":23.9,"lat":63.05,"pop":0},{"id":660880,"name":"Aulanko","alt":["Karlberg"],"lon":24.4451,"lat":61.02259,"pop":0},{"id":660873,"name":"Aura","lon":22.58755,"lat":60.6471,"pop":3693},{"id":842060,"name":"Auranlaakso","lon":22.35229,"lat":60.46856,"pop":0},{"id":660866,"name":"Auras","lon":22.51667,"lat":63.18333,"pop":0},{"id":10102442,"name":"Auras","lon":22.22979,"lat":63.21886,"pop":0},{"id":660864,"name":"Aurekoski","lon":23.33333,"lat":61.98333,"pop":0},{"id":6690942,"name":"Aurinkolahti","alt":["Solvik"],"lon":25.1532,"lat":60.20332,"pop":0},{"id":12331358,"name":"Aurinkoranta","lon":23.40076,"lat":60.20313,"pop":0},{"id":7646549,"name":"Autiokangas","lon":25.66217,"lat":62.36862,"pop":0},{"id":660857,"name":"Autiola","lon":30.56667,"lat":62.78333,"pop":0},{"id":660852,"name":"Autiomäki","lon":28.3104,"lat":64.23169,"pop":0},{"id":660853,"name":"Autiomäki","lon":27.72642,"lat":64.11436,"pop":0},{"id":660848,"name":"Autioniemi","lon":27.56753,"lat":67.00651,"pop":0},{"id":845067,"name":"Autionkylä","lon":27.0208,"lat":60.42994,"pop":0},{"id":660846,"name":"Autioranta","lon":27.48305,"lat":63.00176,"pop":0},{"id":10101520,"name":"Autiorinne","lon":25.00122,"lat":60.4036,"pop":0},{"id":660861,"name":"Autiö","lon":24.7,"lat":62.98333,"pop":0},{"id":660843,"name":"Autti","alt":["Autinkyla","Autinkylä","Auttinniemi","Аутти"],"lon":27.10813,"lat":66.321,"pop":0},{"id":642891,"name":"Auttin asutusalue","lon":27.16729,"lat":66.26738,"pop":0},{"id":660838,"name":"Auttoinen","alt":["Auttojnen","Ауттойнен"],"lon":25.08887,"lat":61.29901,"pop":1300},{"id":660835,"name":"Auvainen","lon":22.07862,"lat":60.99493,"pop":0},{"id":660836,"name":"Auvainen","lon":22.86338,"lat":60.8853,"pop":0},{"id":660837,"name":"Auvainen","lon":22.5562,"lat":60.67572,"pop":0},{"id":841896,"name":"Auvainen","alt":["Auvais"],"lon":22.33157,"lat":60.40233,"pop":0},{"id":854921,"name":"Auvainen","lon":22.3379,"lat":60.56644,"pop":0},{"id":854920,"name":"Auvaismäki","lon":22.34564,"lat":60.57029,"pop":0},{"id":660832,"name":"Auvi","lon":21.65354,"lat":61.23085,"pop":0},{"id":660825,"name":"Auvila","alt":["Aumila Farm"],"lon":30.36667,"lat":62.08333,"pop":0},{"id":660826,"name":"Auvila","lon":25.17869,"lat":61.88302,"pop":0},{"id":660827,"name":"Auvila","lon":28.48834,"lat":61.65133,"pop":0},{"id":656218,"name":"Avveel-Matti","alt":["Avvil-Mahtte","Avvil-Máhtte","Ivalon Matti","Ivalon-Matti","Ивалон-Матти"],"lon":25.89034,"lat":68.3667,"pop":0},{"id":660015,"name":"Back","alt":["Finby","Pakankyla","Pakankylä"],"lon":21.51385,"lat":62.11826,"pop":0},{"id":660800,"name":"Back","lon":22.66667,"lat":63.11667,"pop":0},{"id":840748,"name":"Backa","lon":24.23617,"lat":60.18126,"pop":0},{"id":844278,"name":"Backas","lon":25.52716,"lat":60.35844,"pop":0},{"id":660794,"name":"Backby","lon":23.7,"lat":60.13333,"pop":0},{"id":660795,"name":"Backböle","alt":["Backboele","Pakila"],"lon":25.80935,"lat":60.59299,"pop":0},{"id":842578,"name":"Backen","lon":21.19545,"lat":62.96571,"pop":0},{"id":660786,"name":"Backoja","lon":21.98333,"lat":63.2,"pop":0},{"id":12225538,"name":"Baggby","lon":23.50674,"lat":60.02802,"pop":0},{"id":844154,"name":"Baggböle","lon":25.71826,"lat":60.29509,"pop":0},{"id":10101813,"name":"Bakhag","lon":21.83697,"lat":63.14892,"pop":0},{"id":842809,"name":"Barkamo","lon":21.66638,"lat":63.0002,"pop":0},{"id":660772,"name":"Barkarböle","alt":["Barkala","Barkarbole"],"lon":23.26692,"lat":60.14859,"pop":0},{"id":660767,"name":"Barösund","alt":["Baro","Barosund","Barosundsfjard","Barö","Barösundsfjärd"],"lon":23.88135,"lat":59.97625,"pop":0},{"id":660760,"name":"Basaböle","lon":23.15386,"lat":59.93333,"pop":0},{"id":12331354,"name":"Basarängen","alt":["Basarangen"],"lon":23.52274,"lat":60.12779,"pop":0},{"id":660757,"name":"Bast","lon":23.28524,"lat":63.71334,"pop":0},{"id":660751,"name":"Bastö","lon":23.95,"lat":59.95,"pop":0},{"id":660741,"name":"Bemböle","alt":["Bemboele","Pempyoeli","Pempyöli"],"lon":24.67521,"lat":60.22298,"pop":0},{"id":848342,"name":"Bendby","lon":21.58541,"lat":60.14151,"pop":0},{"id":842823,"name":"Bengtasbacken","lon":21.6595,"lat":63.0085,"pop":0},{"id":660737,"name":"Bengtsby","alt":["Bengtsbju","Pentinkyla","Pentinkylä","Бенгтсбю"],"lon":25.64087,"lat":60.26554,"pop":0},{"id":660739,"name":"Bengtsår","lon":23.11667,"lat":59.9,"pop":0},{"id":660735,"name":"Bennäs","alt":["Baennaes","Bennaes","Pannainen","Pännäinen"],"lon":22.8,"lat":63.6,"pop":0},{"id":660732,"name":"Berga","lon":22.86282,"lat":60.22868,"pop":0},{"id":842370,"name":"Berga","lon":21.63105,"lat":62.7313,"pop":0},{"id":10101718,"name":"Bergbacken","lon":21.73366,"lat":62.91985,"pop":0},{"id":660729,"name":"Bergby","lon":23.16323,"lat":60.05414,"pop":0},{"id":10102340,"name":"Bergby","lon":22.22804,"lat":63.12149,"pop":0},{"id":660724,"name":"Berghamn","lon":21.30605,"lat":60.15232,"pop":0},{"id":660725,"name":"Berghamn","lon":21.7991,"lat":60.05386,"pop":0},{"id":660726,"name":"Berghamn","lon":21.31667,"lat":60.16667,"pop":0},{"id":660697,"name":"Bergstad","lon":24.50826,"lat":60.04469,"pop":0},{"id":660708,"name":"Bergö","lon":21.18471,"lat":62.97276,"pop":0},{"id":660710,"name":"Bergö","lon":22.55,"lat":60,"pop":0},{"id":660695,"name":"Bertby","lon":22.24243,"lat":63.21761,"pop":0},{"id":10102454,"name":"Bertils","lon":22.38221,"lat":63.30412,"pop":0},{"id":10102445,"name":"Bertilsbacken","lon":22.26827,"lat":63.25835,"pop":0},{"id":842519,"name":"Bertlasmossa","lon":21.55268,"lat":62.90529,"pop":0},{"id":842783,"name":"Berts","lon":21.54174,"lat":62.94825,"pop":0},{"id":852771,"name":"Betlehem","lon":21.56954,"lat":60.91096,"pop":0},{"id":641765,"name":"Biesjohka","alt":["Piesjoensuu","Piesjoki"],"lon":25.87618,"lat":69.52102,"pop":0},{"id":660693,"name":"Billböle","lon":22.71337,"lat":60.05027,"pop":0},{"id":660692,"name":"Billnäs","alt":["Billnaes","Pinjainen"],"lon":23.63971,"lat":60.08237,"pop":0},{"id":840639,"name":"Billskog","lon":24.20443,"lat":60.1179,"pop":0},{"id":849025,"name":"Bisarböle","lon":21.75578,"lat":60.16793,"pop":0},{"id":660689,"name":"Biskopsböle","alt":["Biskopsboele","Piispankylae","Piispankylä"],"lon":24.49728,"lat":60.07398,"pop":0},{"id":660684,"name":"Biskopsö","lon":21.92582,"lat":60.17125,"pop":0},{"id":660685,"name":"Biskopsö","lon":22.53333,"lat":59.96667,"pop":0},{"id":660682,"name":"Bjensböle","lon":22.69709,"lat":60.12145,"pop":0},{"id":660628,"name":"Bjurbäck","lon":21.3075,"lat":62.75359,"pop":0},{"id":660627,"name":"Bjurböle","lon":25.72239,"lat":60.33383,"pop":0},{"id":660626,"name":"Bjurnäs","lon":21.3932,"lat":62.80969,"pop":0},{"id":660625,"name":"Bjurs","alt":["Biyursby"],"lon":23.88862,"lat":59.96045,"pop":0},{"id":842529,"name":"Björkbacken","lon":21.75097,"lat":62.90112,"pop":0},{"id":660674,"name":"Björkboda","lon":22.56628,"lat":60.0921,"pop":0},{"id":849000,"name":"Björkdal","lon":21.99972,"lat":60.19917,"pop":0},{"id":847570,"name":"Björkhaga","lon":25.25847,"lat":60.26597,"pop":0},{"id":660671,"name":"Björkholma","alt":["Bjoerkholm","Björkholm"],"lon":22.71352,"lat":63.32716,"pop":0},{"id":660662,"name":"Björknäs","lon":23.27005,"lat":59.95404,"pop":0},{"id":660664,"name":"Björknäs","lon":21.56791,"lat":62.80035,"pop":0},{"id":660655,"name":"Björkö","lon":22.39225,"lat":60.31249,"pop":0},{"id":660656,"name":"Björkö","lon":21.39424,"lat":60.25832,"pop":0},{"id":660652,"name":"Björköby","alt":["Biorko","Biörkö","Bjorko","Bjorkoby","Björkö"],"lon":21.3301,"lat":63.34665,"pop":0},{"id":660642,"name":"Björn","alt":["Bjork","Bjorn","Björk"],"lon":22.87383,"lat":63.55912,"pop":0},{"id":6694892,"name":"Björnholmen","alt":["Bjoernholmen","Karhunsaari"],"lon":22.74513,"lat":63.6851,"pop":0},{"id":660635,"name":"Björnilä","lon":26.51667,"lat":61.75,"pop":0},{"id":660630,"name":"Björnvik","lon":22.79308,"lat":63.81269,"pop":0},{"id":660631,"name":"Björnvik","lon":26.3282,"lat":60.3961,"pop":0},{"id":7283622,"name":"Björnåsen","lon":21.43561,"lat":62.62418,"pop":0},{"id":842168,"name":"Björnö","alt":["Bjorno Sund","Björnö Sund","Karhusalmi"],"lon":21.36667,"lat":62.26667,"pop":0},{"id":12331349,"name":"Björsby","lon":23.46785,"lat":60.09417,"pop":0},{"id":660623,"name":"Blacksnäs","alt":["Blacknas","Blacknäs","Blacksnas"],"lon":21.12069,"lat":62.67999,"pop":0},{"id":660621,"name":"Bladbacken","lon":21.6765,"lat":62.98011,"pop":0},{"id":842800,"name":"Bladbacken","lon":21.68333,"lat":62.98333,"pop":0},{"id":847557,"name":"Blekdal","lon":25.18787,"lat":60.42712,"pop":0},{"id":844277,"name":"Blinkan","lon":25.51451,"lat":60.35508,"pop":0},{"id":842390,"name":"Blom","lon":21.31976,"lat":62.76313,"pop":0},{"id":12201699,"name":"Blombacken","alt":["Blominmaki","Blominmäki"],"lon":24.60412,"lat":60.20472,"pop":0},{"id":842464,"name":"Blommis","lon":21.45718,"lat":62.85295,"pop":0},{"id":844667,"name":"Blomsbacken","lon":26.62888,"lat":60.4617,"pop":0},{"id":660615,"name":"Blomträsk","alt":["Blomtrask","Storsjo","Storsjö"],"lon":21.52144,"lat":62.20855,"pop":0},{"id":10102427,"name":"Blusi","lon":22.01554,"lat":63.28916,"pop":0},{"id":10102361,"name":"Blusibacken","lon":22.21269,"lat":63.1753,"pop":0},{"id":660618,"name":"Bläsaby","alt":["Blasaby","Blasar","Bläsar"],"lon":24.28333,"lat":60.25,"pop":0},{"id":660616,"name":"Bläsnäs","lon":22.29171,"lat":60.31229,"pop":0},{"id":10101816,"name":"Bobacken","lon":21.94773,"lat":63.15044,"pop":0},{"id":10102450,"name":"Bobacken","lon":22.29756,"lat":63.23953,"pop":0},{"id":812368,"name":"Boberget","lon":21.36422,"lat":62.14582,"pop":0},{"id":842846,"name":"Bockholmsbacken","lon":21.74745,"lat":63.05719,"pop":0},{"id":842516,"name":"Bockören","lon":21.40626,"lat":62.89749,"pop":0},{"id":660605,"name":"Bodal","alt":["Bodahl"],"lon":23.16667,"lat":60,"pop":0},{"id":844698,"name":"Bodangen","lon":26.33389,"lat":60.37028,"pop":0},{"id":660602,"name":"Bodbacka","lon":21.35322,"lat":62.68494,"pop":0},{"id":848620,"name":"Bodbacken","lon":22.46756,"lat":60.02606,"pop":0},{"id":10102371,"name":"Bodkull","lon":22.28027,"lat":63.17739,"pop":0},{"id":660601,"name":"Bodnäs","alt":["Bodnas","Rodnos","Rodnös"],"lon":22.16846,"lat":60.32724,"pop":0},{"id":7521678,"name":"Bodom","alt":["Puotinen"],"lon":24.69057,"lat":60.266,"pop":0},{"id":10101819,"name":"Bodstranden","lon":21.98414,"lat":63.18371,"pop":0},{"id":660595,"name":"Bodö","lon":22.90945,"lat":63.83895,"pop":0},{"id":660596,"name":"Bodö","lon":22.8,"lat":63.63333,"pop":0},{"id":847615,"name":"Boe","lon":25.48982,"lat":60.39449,"pop":0},{"id":660589,"name":"Bofjärden","alt":["Bofjard","Bofjarden","Bofjärd","Norrback"],"lon":21.43623,"lat":62.88678,"pop":0},{"id":660587,"name":"Bogsböle","lon":22.63684,"lat":60.1737,"pop":0},{"id":660584,"name":"Boholmen","alt":["Boholm"],"lon":23.00073,"lat":63.77311,"pop":0},{"id":660580,"name":"Bolax","lon":22.71667,"lat":59.95,"pop":0},{"id":841737,"name":"Bollböle","lon":22.43792,"lat":60.34584,"pop":0},{"id":660570,"name":"Bollstad","lon":23.53143,"lat":60.10893,"pop":0},{"id":660571,"name":"Bollstad","lon":23.95774,"lat":60.07729,"pop":0},{"id":840704,"name":"Bollstad","lon":24.22314,"lat":60.14321,"pop":0},{"id":7731970,"name":"Bomba","lon":29.17079,"lat":63.53375,"pop":0},{"id":660564,"name":"Bondarby","lon":24.49977,"lat":60.09772,"pop":0},{"id":10101721,"name":"Bondisbacken","lon":21.28979,"lat":63.18351,"pop":0},{"id":660563,"name":"Bonds","lon":22.93637,"lat":63.53534,"pop":0},{"id":842790,"name":"Bonnas","lon":21.51017,"lat":62.96136,"pop":0},{"id":632220,"name":"Bonäs","alt":["Bonaes","Majaniemi"],"lon":22.67668,"lat":63.66564,"pop":0},{"id":660565,"name":"Bonäs","alt":["Bonas","Boness","Ronas","Ronäs"],"lon":22.45591,"lat":63.4945,"pop":0},{"id":660566,"name":"Bonäs","alt":["Bodnas","Bodnäs","Bonas"],"lon":21.52316,"lat":60.13327,"pop":0},{"id":12331346,"name":"Bonäs","lon":23.33871,"lat":60.07338,"pop":0},{"id":10101810,"name":"Bonäsören","alt":["Bonaesoeren"],"lon":21.85157,"lat":63.16098,"pop":0},{"id":12402306,"name":"Boratbokcá","alt":["Boratbokca"],"lon":27.73311,"lat":70.06134,"pop":0},{"id":660559,"name":"Borgby","alt":["Linnanpelto"],"lon":25.31463,"lat":60.40696,"pop":0},{"id":12331352,"name":"Borgby","lon":23.53981,"lat":60.10844,"pop":0},{"id":842194,"name":"Borgmästarängen","lon":21.35,"lat":62.28333,"pop":0},{"id":10101800,"name":"Boskas","lon":21.87108,"lat":63.10104,"pop":0},{"id":660546,"name":"Bosund","lon":22.85161,"lat":63.82384,"pop":0},{"id":660544,"name":"Botans","lon":24.2,"lat":60.06667,"pop":0},{"id":843983,"name":"Boviken","lon":25.63577,"lat":60.22655,"pop":0},{"id":842386,"name":"Bovägen","lon":21.17601,"lat":62.77689,"pop":0},{"id":660537,"name":"Box","alt":["Boxby"],"lon":25.40002,"lat":60.31048,"pop":0},{"id":12238025,"name":"Box","lon":23.62648,"lat":59.94075,"pop":0},{"id":660538,"name":"Boxby","lon":23.65,"lat":59.95,"pop":0},{"id":660532,"name":"Brahelinna","alt":["Brahenlinna"],"lon":27.28333,"lat":61.5,"pop":0},{"id":842236,"name":"Brandmyr","lon":21.47962,"lat":62.31909,"pop":0},{"id":12225277,"name":"Brasas","lon":25.54351,"lat":60.35029,"pop":0},{"id":841525,"name":"Brattnäs","lon":22.33447,"lat":60.26609,"pop":0},{"id":844232,"name":"Brattnäs","lon":25.69403,"lat":60.32818,"pop":0},{"id":660493,"name":"Bredhällan","alt":["Bredhall","Bredhallan","Bredhäll"],"lon":21.16151,"lat":62.9698,"pop":0},{"id":660478,"name":"Bredslätt","lon":23.96197,"lat":60.09214,"pop":0},{"id":660476,"name":"Bredvik","lon":22.96573,"lat":59.92137,"pop":0},{"id":844245,"name":"Bredvik","lon":25.98681,"lat":60.32312,"pop":0},{"id":660498,"name":"Bredäng","lon":23.75604,"lat":59.99291,"pop":0},{"id":842784,"name":"Brinken","lon":21.54824,"lat":62.95115,"pop":0},{"id":660474,"name":"Brinkinmäki","alt":["Brinken","Brinkinmaeki"],"lon":24.60886,"lat":60.17089,"pop":0},{"id":12298555,"name":"Brinkkullen","lon":22.7279,"lat":60.15705,"pop":0},{"id":840623,"name":"Brissas","lon":24.41389,"lat":60.09889,"pop":0},{"id":7521727,"name":"Brissas","lon":24.40692,"lat":60.09898,"pop":0},{"id":660472,"name":"Bro","lon":22.55,"lat":63.5,"pop":0},{"id":7521634,"name":"Bro","lon":24.44054,"lat":60.11453,"pop":0},{"id":636835,"name":"Broby","alt":["Siltakyla","Siltakylä","Stor Kuppis"],"lon":26.71667,"lat":60.5,"pop":0},{"id":660471,"name":"Broböle","lon":25.27344,"lat":60.35179,"pop":0},{"id":842775,"name":"Brohugget","lon":21.63996,"lat":62.94084,"pop":0},{"id":10102364,"name":"Brokull","lon":22.18987,"lat":63.17392,"pop":0},{"id":660469,"name":"Brokärr","lon":22.601,"lat":60.13048,"pop":0},{"id":660467,"name":"Bromarv","alt":["Bromarf","Bromarr","Bromarvi"],"lon":23.03389,"lat":59.98874,"pop":0},{"id":10102444,"name":"Brorsbacken","lon":22.28083,"lat":63.20633,"pop":0},{"id":842737,"name":"Brotthagen","lon":21.27609,"lat":63.1712,"pop":0},{"id":840620,"name":"Broända","lon":24.2876,"lat":60.10293,"pop":0},{"id":10102456,"name":"Brudhamn","lon":22.36456,"lat":63.30683,"pop":0},{"id":660465,"name":"Brudsund","lon":22.04364,"lat":63.29043,"pop":0},{"id":847599,"name":"Brusas","lon":25.28031,"lat":60.45779,"pop":0},{"id":842201,"name":"Bruskbacken","lon":21.50581,"lat":62.27547,"pop":0},{"id":660531,"name":"Brändbacka","lon":23,"lat":63.65,"pop":0},{"id":660512,"name":"Brändskogen","alt":["Brandskog","Brändskog"],"lon":21.47415,"lat":62.74639,"pop":0},{"id":7627409,"name":"Brändö","alt":["Braendoe"],"lon":21.47012,"lat":61.85457,"pop":0},{"id":660514,"name":"Brändövik","lon":21.18942,"lat":63.25702,"pop":0},{"id":660510,"name":"Brännan","alt":["Brannan","Brannback","Brännback"],"lon":21.52082,"lat":62.94173,"pop":0},{"id":660511,"name":"Brännars","lon":22.51771,"lat":63.1755,"pop":0},{"id":842335,"name":"Brännbacken","lon":21.58625,"lat":62.69376,"pop":0},{"id":842887,"name":"Brännbacken","lon":21.67377,"lat":63.10791,"pop":0},{"id":7283611,"name":"Brännbacken","lon":21.509,"lat":62.60898,"pop":0},{"id":842306,"name":"Bränngårdarna","lon":21.54333,"lat":62.67257,"pop":0},{"id":660508,"name":"Brännlund","lon":22.53333,"lat":63.36667,"pop":0},{"id":10101517,"name":"Brännmalmen","alt":["Braennmalmen","Satomaeki","Satomäki"],"lon":25.06197,"lat":60.2973,"pop":0},{"id":842333,"name":"Brännskiftet","lon":21.57509,"lat":62.69911,"pop":0},{"id":660470,"name":"Brödtorp","lon":23.48333,"lat":60.1,"pop":0},{"id":844547,"name":"Bullers","lon":26.43065,"lat":60.38186,"pop":0},{"id":842222,"name":"Butsbacken","lon":21.44615,"lat":62.29599,"pop":0},{"id":11279752,"name":"Bybacken","lon":21.61856,"lat":61.49311,"pop":0},{"id":796207,"name":"Byggmästar","lon":22.71667,"lat":63.75,"pop":0},{"id":10101789,"name":"Byn","lon":21.93202,"lat":63.08412,"pop":0},{"id":10102449,"name":"Byrkholmen","lon":22.29255,"lat":63.23002,"pop":0},{"id":660437,"name":"Byskatan","alt":["Byskata"],"lon":23.1129,"lat":63.71192,"pop":0},{"id":847567,"name":"Byträsk","lon":25.25667,"lat":60.30333,"pop":0},{"id":847558,"name":"Byända","lon":25.19875,"lat":60.41604,"pop":0},{"id":660761,"name":"Båsa","lon":23.78048,"lat":59.99003,"pop":0},{"id":660759,"name":"Båsaböle","lon":23.4623,"lat":59.949,"pop":0},{"id":10101705,"name":"Båskgårdarna","alt":["Baskgardarna"],"lon":21.38961,"lat":62.83653,"pop":0},{"id":10101722,"name":"Båtgrund","alt":["Batgrund"],"lon":21.31345,"lat":63.18085,"pop":0},{"id":842291,"name":"Båthusen","lon":21.36039,"lat":62.38246,"pop":0},{"id":660744,"name":"Båtsmora","lon":23.88333,"lat":60.13333,"pop":0},{"id":660743,"name":"Båtvik","alt":["Botvik"],"lon":24.36544,"lat":60.0901,"pop":0},{"id":660799,"name":"Bäck","alt":["Back","Backas","Bäckas"],"lon":23.01667,"lat":63.73333,"pop":0},{"id":660791,"name":"Bäckby","alt":["Baeckby"],"lon":23.11695,"lat":63.62331,"pop":146},{"id":660792,"name":"Bäckby","alt":["Baeckby","Pekinkylae","Pekinkylä"],"lon":26.21001,"lat":60.58408,"pop":0},{"id":660789,"name":"Bäckisviken","lon":24.36667,"lat":60.05,"pop":0},{"id":660788,"name":"Bäckliden","lon":21.41396,"lat":62.44396,"pop":0},{"id":660785,"name":"Bäcks","lon":24.1,"lat":60.2,"pop":0},{"id":660784,"name":"Bäcksbacka","lon":23.10277,"lat":63.45279,"pop":0},{"id":660797,"name":"Bäckäng","lon":25.56821,"lat":60.35199,"pop":0},{"id":660775,"name":"Bällby","lon":23.84429,"lat":60.18255,"pop":0},{"id":660764,"name":"Bärs","lon":22.59702,"lat":63.43974,"pop":0},{"id":660574,"name":"Böle","lon":21.67889,"lat":63.12415,"pop":0},{"id":660575,"name":"Böle","lon":21.35484,"lat":62.43169,"pop":0},{"id":660576,"name":"Böle","lon":23.59466,"lat":60.11939,"pop":0},{"id":660577,"name":"Böle","lon":24.06667,"lat":60.05,"pop":0},{"id":660578,"name":"Böle","alt":["Bole","Gamlabole","Gamlaböle"],"lon":22.44479,"lat":59.85444,"pop":0},{"id":660579,"name":"Böle","lon":21.61877,"lat":60.14283,"pop":0},{"id":840399,"name":"Böle","lon":24.47387,"lat":60.01195,"pop":0},{"id":840642,"name":"Böle","lon":24.3224,"lat":60.11711,"pop":0},{"id":842161,"name":"Böle","lon":21.57972,"lat":62.24059,"pop":0},{"id":840635,"name":"Bölsmark","lon":24.0141,"lat":60.12026,"pop":0},{"id":10101708,"name":"Börängen","alt":["Boeraengen"],"lon":21.57282,"lat":62.9167,"pop":0},{"id":660551,"name":"Bösas","lon":22.68211,"lat":63.39183,"pop":0},{"id":11669713,"name":"Central Kouvola","lon":26.70406,"lat":60.86789,"pop":0},{"id":660433,"name":"Dagsmark","lon":21.64581,"lat":62.2314,"pop":0},{"id":660432,"name":"Dal","lon":23.30086,"lat":59.9788,"pop":0},{"id":840520,"name":"Dal","lon":24.02258,"lat":60.0503,"pop":0},{"id":660431,"name":"Dalabacka","lon":22.8639,"lat":63.42482,"pop":0},{"id":10102459,"name":"Dalabacken","lon":22.29133,"lat":63.42042,"pop":0},{"id":10101695,"name":"Dalas","lon":21.23257,"lat":62.669,"pop":0},{"id":660428,"name":"Dalbacken","alt":["Dahlbo","Dalback","Dalbo"],"lon":21.63809,"lat":62.74058,"pop":0},{"id":660427,"name":"Dalby","lon":22.84529,"lat":60.18783,"pop":0},{"id":848599,"name":"Dalen","lon":22.48328,"lat":60.04133,"pop":0},{"id":10101711,"name":"Daliback","lon":21.61226,"lat":62.92044,"pop":0},{"id":660425,"name":"Dalkarby","lon":22.00578,"lat":60.16324,"pop":0},{"id":660426,"name":"Dalkarby","lon":23.49894,"lat":60.08346,"pop":0},{"id":12298563,"name":"Dalkarby","lon":22.72476,"lat":60.18568,"pop":0},{"id":660423,"name":"Dalsbruk","alt":["Taalintehdas"],"lon":22.50455,"lat":60.02031,"pop":0},{"id":844250,"name":"Dalsvik","lon":26.02811,"lat":60.32265,"pop":0},{"id":6698162,"name":"Dálvadas","alt":["Dalvadas","Talvadas","Talvagas","Talvađas"],"lon":26.21673,"lat":69.77548,"pop":0},{"id":660419,"name":"Danskog","lon":23.35,"lat":59.9,"pop":0},{"id":660418,"name":"Danskulla","lon":22.65,"lat":60.31667,"pop":0},{"id":660414,"name":"Degerby","alt":["Degerbju","Degerbyu","Дегербю"],"lon":24.17484,"lat":60.08447,"pop":0},{"id":12493783,"name":"Degerby","lon":22.17393,"lat":60.25952,"pop":0},{"id":660400,"name":"Degerdal","alt":["Digerdal"],"lon":22.59298,"lat":60.20112,"pop":0},{"id":644387,"name":"Degergård","lon":23.05124,"lat":60.0613,"pop":0},{"id":847569,"name":"Degermossa","lon":25.20073,"lat":60.27913,"pop":0},{"id":660412,"name":"Degernäs","lon":23.58333,"lat":60.15,"pop":0},{"id":660413,"name":"Degernäs","lon":22.60183,"lat":63.62233,"pop":0},{"id":11237582,"name":"Deiskeri","alt":["Dejskaer","Dejskär"],"lon":21.34438,"lat":61.95418,"pop":0},{"id":660398,"name":"Diskarla","lon":22.6,"lat":60.4,"pop":0},{"id":840709,"name":"Djupbäck","lon":24.29234,"lat":60.1573,"pop":0},{"id":660389,"name":"Djupsund","lon":22.95946,"lat":63.81536,"pop":0},{"id":660390,"name":"Djupsund","lon":22.12492,"lat":63.29221,"pop":0},{"id":660388,"name":"Djupvik","lon":21.63333,"lat":62.16667,"pop":0},{"id":660382,"name":"Domarby","lon":22.21776,"lat":60.22114,"pop":0},{"id":660377,"name":"Domvik","lon":24.46667,"lat":60.06667,"pop":0},{"id":12148775,"name":"Dotterböle","lon":23.29721,"lat":60.00435,"pop":0},{"id":631823,"name":"Dragnäsbäck","alt":["Vetokannas"],"lon":21.61526,"lat":63.11821,"pop":0},{"id":660374,"name":"Dragsfjärd","alt":["Dragsf'jard","Dragsfjaerdi vald","Dragsfjärdi vald","Драгсфьярд"],"lon":22.48333,"lat":60.06667,"pop":3309},{"id":660373,"name":"Dragsvik","lon":23.49684,"lat":59.98764,"pop":0},{"id":660371,"name":"Draka","lon":22.56561,"lat":63.45327,"pop":0},{"id":660370,"name":"Drombom","alt":["Rumpila"],"lon":25.98041,"lat":60.56123,"pop":0},{"id":660376,"name":"Drägsby","alt":["Draegsby","Treksilae","Treksilä"],"lon":25.56404,"lat":60.37184,"pop":0},{"id":12440220,"name":"Dönsby","lon":23.6805,"lat":60.08751,"pop":0},{"id":660363,"name":"Ebbo","alt":["Ehbbo","Epoo","Эббо"],"lon":25.84609,"lat":60.34906,"pop":0},{"id":660362,"name":"Edesjärvi","lon":23.55466,"lat":62.52606,"pop":0},{"id":660357,"name":"Edsevö","lon":22.85741,"lat":63.63549,"pop":510},{"id":660356,"name":"Edsvik","lon":21.20632,"lat":62.76031,"pop":0},{"id":660355,"name":"Edväinen","alt":["Edvainen","Ervesbyu"],"lon":21.24388,"lat":60.90671,"pop":0},{"id":660347,"name":"Eerikkilä","lon":30.11667,"lat":62.65,"pop":0},{"id":660349,"name":"Eerikkälä","lon":28.81667,"lat":62.05,"pop":0},{"id":660350,"name":"Eerikkälä","alt":["Eerikkala","Erikkala","Erikkälä","Yerikkyalya"],"lon":28.28333,"lat":61.9,"pop":0},{"id":840226,"name":"Eerikkälä","lon":27.66285,"lat":60.50593,"pop":0},{"id":841709,"name":"Eerikvalla","lon":22.10437,"lat":60.35212,"pop":0},{"id":660343,"name":"Eerola","lon":25.75,"lat":61.65,"pop":0},{"id":7602324,"name":"Eerola","lon":24.02229,"lat":61.28986,"pop":0},{"id":660124,"name":"Eestinkylä","alt":["Estby"],"lon":24.45694,"lat":60.08719,"pop":0},{"id":7521715,"name":"Eestinmalmi","alt":["Estmalmen"],"lon":24.6914,"lat":60.16163,"pop":0},{"id":844331,"name":"Eestinmäki","alt":["Eestinmaki","Estbacka"],"lon":25.6136,"lat":60.38217,"pop":0},{"id":660340,"name":"Egypti","lon":26.81089,"lat":63.54227,"pop":0},{"id":660339,"name":"Egyptinkorpi","alt":["Ehgjuptinkorpi","Эгюптинкорпи"],"lon":29.51667,"lat":63.56667,"pop":0},{"id":10101457,"name":"Ehikki","lon":25.15691,"lat":62.03619,"pop":0},{"id":660337,"name":"Ehtamo","lon":22.2782,"lat":61.15319,"pop":0},{"id":10101409,"name":"Ehunsalmi","lon":24.9207,"lat":62.00047,"pop":0},{"id":660333,"name":"Eimisjärvi","lon":30.79673,"lat":62.485,"pop":0},{"id":7647789,"name":"Einola","lon":24.79099,"lat":60.45986,"pop":0},{"id":6690947,"name":"Eira","alt":["06"],"lon":24.93704,"lat":60.15646,"pop":0},{"id":847576,"name":"Eiro","lon":25.31633,"lat":60.25666,"pop":0},{"id":660330,"name":"Eiskola","lon":28.52274,"lat":61.09946,"pop":0},{"id":660328,"name":"Eitikansalo","lon":27.91667,"lat":63.25,"pop":0},{"id":660325,"name":"Ekenäs","alt":["Ehkenes","Ekenaes","Ekenas","Tammisaari","Tammisari","Э́кенес"],"lon":23.43389,"lat":59.97359,"pop":14377},{"id":660323,"name":"Ekerö","lon":23.53607,"lat":60.03449,"pop":0},{"id":660320,"name":"Eknäs","alt":["Eknas","Oknes","Öknes"],"lon":22.6,"lat":60.3,"pop":0},{"id":660321,"name":"Eknäs","alt":["Eknas","Ekniemi"],"lon":22.59192,"lat":60.21434,"pop":0},{"id":660317,"name":"Ekola","alt":["Eckos"],"lon":22.76495,"lat":63.33295,"pop":0},{"id":660316,"name":"Ekoluoma","lon":22.75,"lat":63.26667,"pop":0},{"id":10101439,"name":"Ekonen","lon":25.18474,"lat":61.85687,"pop":0},{"id":660305,"name":"Elehvä","lon":28.61667,"lat":65.7,"pop":0},{"id":10101288,"name":"Elijärvenkulma","alt":["Elijaervenkulma"],"lon":22.30505,"lat":60.86537,"pop":0},{"id":660294,"name":"Elimäki","alt":["Ehlimjaki","Elima","Elimae","Elimaeki","Elimä","Элимяки"],"lon":26.46667,"lat":60.71667,"pop":8751},{"id":10101412,"name":"Elimäki","alt":["Elimaeki"],"lon":24.88472,"lat":62.03821,"pop":0},{"id":12514286,"name":"Elingonranta","lon":25.42375,"lat":66.40794,"pop":0},{"id":660289,"name":"Elkkyinen","lon":21.39427,"lat":60.87661,"pop":0},{"id":10101581,"name":"Elkonniemi","lon":27.84543,"lat":65.42037,"pop":0},{"id":660281,"name":"Ellola","lon":30.2,"lat":62.11667,"pop":0},{"id":660282,"name":"Ellola","lon":27.4525,"lat":60.99169,"pop":0},{"id":660280,"name":"Elmdal","lon":22.84284,"lat":60.15881,"pop":0},{"id":660279,"name":"Elomäki","lon":28.63333,"lat":63.78333,"pop":0},{"id":660277,"name":"Eloranta","lon":21.85,"lat":61.7,"pop":0},{"id":7645417,"name":"Elovainio","lon":23.5563,"lat":61.55954,"pop":0},{"id":660274,"name":"Elsö","alt":["Elso","Elveso","Elvesö"],"lon":21,"lat":60,"pop":0},{"id":660309,"name":"Elämäjärvi","alt":["Ehljamjajarvi","Elaemaejaervi","Elamajarvi","Элямяярви"],"lon":25.66947,"lat":63.47372,"pop":0},{"id":660270,"name":"Emaus","lon":23.02343,"lat":63.45061,"pop":0},{"id":660269,"name":"Emeli","alt":["Petrihuuhla","Petrihuuhta"],"lon":30.13333,"lat":62.03333,"pop":0},{"id":660268,"name":"Emeliinsyrjä","lon":31.04745,"lat":62.52501,"pop":0},{"id":660267,"name":"Emmes","lon":23.58163,"lat":63.67472,"pop":0},{"id":660263,"name":"Emo","lon":30.21081,"lat":63.17613,"pop":0},{"id":7732096,"name":"Emola","lon":27.26857,"lat":61.70247,"pop":0},{"id":660262,"name":"Emolahti","lon":25.89653,"lat":63.66681,"pop":0},{"id":660260,"name":"Emoniemi","lon":25.95,"lat":63.63333,"pop":0},{"id":841815,"name":"Empo","alt":["AEmboda","Ämboda"],"lon":22.38305,"lat":60.3878,"pop":0},{"id":660253,"name":"Enanniemi","alt":["Enonniemi"],"lon":29.41318,"lat":61.77679,"pop":0},{"id":660252,"name":"Enanranta","alt":["Enanlahti"],"lon":29.5,"lat":61.76667,"pop":0},{"id":842413,"name":"Enbacken","lon":21.18545,"lat":62.79288,"pop":0},{"id":12298564,"name":"Engelsby","lon":22.72847,"lat":60.16434,"pop":0},{"id":660249,"name":"England","lon":22.47928,"lat":63.31662,"pop":0},{"id":660244,"name":"Ennyinen","alt":["Ennys"],"lon":21.7603,"lat":60.64309,"pop":0},{"id":660242,"name":"Eno","alt":["Ehno","Эно"],"lon":30.15422,"lat":62.80511,"pop":6891},{"id":660241,"name":"Enokunta","lon":24.11934,"lat":61.71707,"pop":0},{"id":12363182,"name":"Enola","lon":23.14721,"lat":60.38866,"pop":0},{"id":10101182,"name":"Enolanmäki","alt":["Enolanmaeki"],"lon":21.70547,"lat":61.33218,"pop":0},{"id":660237,"name":"Enonjoenmylly","lon":27.93333,"lat":62.1,"pop":0},{"id":660235,"name":"Enonkoski","alt":["Ehnonkoski","Энонкоски"],"lon":28.93333,"lat":62.08333,"pop":1714},{"id":651882,"name":"Enonkylä","alt":["Enonkyla","Kolehmainen"],"lon":26.77338,"lat":64.35119,"pop":0},{"id":660234,"name":"Enonlahti","lon":28.03951,"lat":62.6921,"pop":0},{"id":660232,"name":"Enonsalo","lon":28.3915,"lat":62.674,"pop":0},{"id":660229,"name":"Enontekiö","alt":["ENF","Eanodat","Ehnontekijo","Enodak","Enontekioe","Enontekioe vald","Enontekis","Enontekiö vald","Heahtta","Hetta","Heähtta","ai nong tai ji e","Энонтекиё","埃農泰基厄"],"lon":23.63215,"lat":68.38573,"pop":2145},{"id":660223,"name":"Ensilä","alt":["Ehnsilja","Ensila","Ensilae","Энсиля"],"lon":28.95,"lat":65.15,"pop":0},{"id":660254,"name":"Enäjärvi","lon":27.12089,"lat":60.84666,"pop":0},{"id":10101202,"name":"Enäjärvi","alt":["Enaejaervi"],"lon":21.63753,"lat":61.548,"pop":0},{"id":660217,"name":"Epaala","lon":24.25764,"lat":61.36067,"pop":0},{"id":660216,"name":"Epilä","lon":23.6679,"lat":61.50808,"pop":0},{"id":660206,"name":"Eriksnäs","alt":["Ericksnass","Eriksnas"],"lon":25.35,"lat":60.26667,"pop":0},{"id":660204,"name":"Erkanvaara","alt":["Ehrkanvara","Эрканвара"],"lon":30.54402,"lat":62.90833,"pop":0},{"id":660186,"name":"Erkkilä","lon":23.21667,"lat":63.13333,"pop":0},{"id":660187,"name":"Erkkilä","lon":22.8,"lat":63.13333,"pop":0},{"id":10102293,"name":"Erkkilänmäki","alt":["Erkkilaenmaeki"],"lon":22.08664,"lat":63.06819,"pop":0},{"id":843708,"name":"Erkkiperä","lon":23.49083,"lat":64.03421,"pop":0},{"id":660181,"name":"Erkylä","lon":24.91667,"lat":60.7,"pop":0},{"id":842223,"name":"Erlandsbacken","lon":21.46088,"lat":62.30405,"pop":0},{"id":660179,"name":"Erlandsböle","lon":25.84622,"lat":60.4801,"pop":0},{"id":844327,"name":"Ernestas","lon":25.5995,"lat":60.37827,"pop":0},{"id":660169,"name":"Erottaja","lon":26.18938,"lat":60.84411,"pop":0},{"id":7283612,"name":"Ersbacken","lon":21.50591,"lat":62.62418,"pop":0},{"id":660168,"name":"Ersby","lon":22.24671,"lat":60.28267,"pop":0},{"id":656007,"name":"Erse","alt":["Jarso","Jerso","Jersö","Järsö"],"lon":24.48187,"lat":60.04715,"pop":0},{"id":660163,"name":"Ervasti","lon":29.45,"lat":66.2,"pop":0},{"id":660164,"name":"Ervasti","lon":27.43352,"lat":65.32801,"pop":0},{"id":843925,"name":"Ervastinkylä","lon":25.30066,"lat":64.97391,"pop":0},{"id":449931,"name":"Ervastinranta","lon":25.29997,"lat":65.18346,"pop":0},{"id":660162,"name":"Ervasto","alt":["Ervstboele","Ervstböle"],"lon":23.06826,"lat":60.12818,"pop":0},{"id":660161,"name":"Ervelä","alt":["Ervela"],"lon":23.17567,"lat":60.22139,"pop":0},{"id":660212,"name":"Eräjärvi","alt":["Ehrjajarvi","Eraejaervi","Эряярви"],"lon":24.55753,"lat":61.57977,"pop":0},{"id":660213,"name":"Eräjärvi","alt":["Ehrjajarvi","Era","Eraejaervi","Erajarvi","Erä","Эряярви"],"lon":28.76476,"lat":61.45697,"pop":0},{"id":660211,"name":"Erämaa","lon":22.11667,"lat":62.05,"pop":0},{"id":660209,"name":"Eräslahti","lon":24.62139,"lat":61.70924,"pop":0},{"id":10101698,"name":"Esabacken","lon":21.47414,"lat":62.78026,"pop":0},{"id":660153,"name":"Eskeli","lon":23.6,"lat":63.06667,"pop":0},{"id":12232620,"name":"Eskeli","lon":25.64732,"lat":61.17413,"pop":0},{"id":7644979,"name":"Eskelinsaari","lon":27.84716,"lat":62.22113,"pop":0},{"id":660155,"name":"Eskelä","lon":30.06667,"lat":62.8,"pop":0},{"id":660148,"name":"Eskilom","lon":26.05174,"lat":60.59668,"pop":0},{"id":660135,"name":"Eskola","alt":["Esko"],"lon":27.46667,"lat":65.33333,"pop":0},{"id":660136,"name":"Eskola","lon":28.36667,"lat":64.45,"pop":0},{"id":660137,"name":"Eskola","alt":["Ehskola","Эскола"],"lon":24.15095,"lat":63.91505,"pop":0},{"id":660138,"name":"Eskola","lon":24.75,"lat":61.91667,"pop":0},{"id":660139,"name":"Eskola","lon":22.91966,"lat":61.50479,"pop":0},{"id":660140,"name":"Eskola","lon":22.7,"lat":61.48333,"pop":0},{"id":8693306,"name":"Eskolanmäki","lon":26.71202,"lat":60.84973,"pop":0},{"id":660158,"name":"Espoo","alt":["AEaes-Poo","Ehspoo","Epsoo","Esbo","Esbobo","Esboo","Esbou","Esbuu","Espo","Espoeoe","Espuu","Espöö","Poo","Spoo","ai si bo","esupo","Ääs-Poo","Έσποο","Еспо","Еспоо","Эспоо","ესპოო","エスポー","埃斯波"],"lon":24.6522,"lat":60.2052,"pop":256760},{"id":7521615,"name":"Espoon Keskus","alt":["Cena","Centti","Eekoo","Epekepe","Esbo centrum","Espis","Espoon Centti","Espoon Sentti","Kespoo","Sena","Sentti"],"lon":24.65233,"lat":60.20475,"pop":0},{"id":7521624,"name":"Espoonkartano","alt":["Esbogard","Esbogård"],"lon":24.58371,"lat":60.19921,"pop":0},{"id":7521636,"name":"Espoonlahti","alt":["Esboviken"],"lon":24.65307,"lat":60.15054,"pop":0},{"id":660126,"name":"Esse","alt":["AEhtaevae","Ähtävä"],"lon":23.05738,"lat":63.59371,"pop":922},{"id":843420,"name":"Etelä-Haaga","alt":["Soedra Haga","Södra Haga"],"lon":24.89536,"lat":60.21347,"pop":0},{"id":6940574,"name":"Etelä-Hervanta","lon":23.86308,"lat":61.43926,"pop":0},{"id":660119,"name":"Etelä-Ii","lon":25.36667,"lat":65.26667,"pop":0},{"id":660107,"name":"Etelä-Mahlu","alt":["Etela-Mahlu","Etelamaki","Etelämäki"],"lon":25.11667,"lat":62.6,"pop":0},{"id":644564,"name":"Etelä-Niskamäki","lon":27.01162,"lat":62.23377,"pop":0},{"id":660101,"name":"Etelä-Petruma","lon":28.83333,"lat":62.46667,"pop":0},{"id":641130,"name":"Etelä-Poitsila","alt":["Norsby","Poitsila"],"lon":27.15005,"lat":60.55735,"pop":0},{"id":660091,"name":"Etelä-Vartsala","alt":["Etela-Vartsala","Varsala Soederby","Vartsala Soederby","Vartsala Söderby"],"lon":21.30215,"lat":60.51075,"pop":0},{"id":660089,"name":"Etelä-Vuokko","lon":29.18126,"lat":63.34524,"pop":0},{"id":7626638,"name":"Etelä-Äimälä","lon":24.19538,"lat":61.27345,"pop":0},{"id":660118,"name":"Eteläinen","alt":["Ehteljajnen","Etelaeinen","Etelainen","Этеляйнен"],"lon":24.68108,"lat":61.07061,"pop":0},{"id":660109,"name":"Etelälahti","lon":25.34895,"lat":64.05983,"pop":0},{"id":660108,"name":"Etelämaa","lon":21.66667,"lat":61.78333,"pop":0},{"id":11874889,"name":"Etelämäki","alt":["Sunnanberg"],"lon":22.81056,"lat":60.28781,"pop":0},{"id":660105,"name":"Etelänkylä","lon":23.97947,"lat":64.23244,"pop":0},{"id":842283,"name":"Eteläpää","lon":21.55309,"lat":62.37291,"pop":0},{"id":10101522,"name":"Etelärinne","alt":["Etelaerinne"],"lon":25.01778,"lat":60.38606,"pop":0},{"id":660087,"name":"Etola","lon":25.17702,"lat":61.04791,"pop":0},{"id":10101189,"name":"Etu-Amerikka","alt":["Fraemre Amerika","Främre Amerika"],"lon":21.65714,"lat":61.47911,"pop":0},{"id":852817,"name":"Etu-Lammi","lon":21.49624,"lat":61.01715,"pop":0},{"id":7647486,"name":"Etu-Martti","lon":24.87872,"lat":60.62128,"pop":0},{"id":660085,"name":"Etu-Moksi","lon":24.4,"lat":60.48333,"pop":0},{"id":660083,"name":"Etu-Töölö","alt":["13","Etu-Toeoeloe","Fraemre Toeloe","Främre Tölö"],"lon":24.92515,"lat":60.17298,"pop":0},{"id":660086,"name":"Etukylä","lon":26.89299,"lat":60.45246,"pop":0},{"id":660081,"name":"Eugmo","lon":22.78724,"lat":63.80854,"pop":0},{"id":660077,"name":"Eura","lon":22.13333,"lat":61.13333,"pop":9338},{"id":660078,"name":"Eura","lon":23.00293,"lat":60.94846,"pop":0},{"id":660079,"name":"Eura","lon":22.76667,"lat":60.56667,"pop":0},{"id":660073,"name":"Eurajoki","alt":["Euraaminne","Euraåminne"],"lon":21.73333,"lat":61.2,"pop":5656},{"id":660070,"name":"Eurakoski","lon":22.08022,"lat":61.20807,"pop":0},{"id":660064,"name":"Evijärvi","lon":24.56667,"lat":63.91667,"pop":0},{"id":660065,"name":"Evijärvi","lon":23.48333,"lat":63.36667,"pop":2878},{"id":840754,"name":"Evitskog","alt":["Hievala"],"lon":24.34122,"lat":60.19903,"pop":0},{"id":660069,"name":"Eväjärvi","lon":24.85554,"lat":61.79633,"pop":0},{"id":660056,"name":"Fagerkulla","lon":22.42422,"lat":60.34671,"pop":0},{"id":660053,"name":"Fagersta","alt":["Fagerstad","Fogersta","Фогерста"],"lon":25.80205,"lat":60.29146,"pop":0},{"id":660051,"name":"Fagervik","lon":23.81277,"lat":60.02542,"pop":0},{"id":7283607,"name":"Faggbacken","lon":21.47007,"lat":62.58971,"pop":0},{"id":10102422,"name":"Falisa","lon":22.13173,"lat":63.19462,"pop":0},{"id":660049,"name":"Falkki","alt":["Falkberg"],"lon":22.91167,"lat":60.14443,"pop":0},{"id":660046,"name":"Fall","lon":24.18819,"lat":60.15298,"pop":0},{"id":660045,"name":"Fallbacken","alt":["Fallbacka"],"lon":21.32756,"lat":62.86468,"pop":0},{"id":660044,"name":"Fallböle","alt":["Fallbole","Ralbole","Ralböle"],"lon":22.21111,"lat":60.25427,"pop":0},{"id":660037,"name":"Fantsnäs","lon":26.22978,"lat":60.40138,"pop":0},{"id":660031,"name":"Fasarby","lon":25.98534,"lat":60.37861,"pop":0},{"id":660030,"name":"Fastarby","lon":23.32215,"lat":60.07824,"pop":0},{"id":12226258,"name":"Fastholma","lon":25.02688,"lat":60.20286,"pop":0},{"id":660028,"name":"Fatipori","lon":22.03579,"lat":61.45516,"pop":0},{"id":660023,"name":"Filppula","lon":22.81667,"lat":63.21667,"pop":0},{"id":660024,"name":"Filppula","alt":["Filpula"],"lon":21.62387,"lat":61.78009,"pop":0},{"id":660022,"name":"Filpus","lon":25.01667,"lat":65.8,"pop":0},{"id":660014,"name":"Finby","lon":21.37122,"lat":62.48895,"pop":0},{"id":660019,"name":"Finby","lon":21.88171,"lat":60.20319,"pop":0},{"id":660020,"name":"Finby","lon":23.25464,"lat":60.11042,"pop":0},{"id":660021,"name":"Finby","lon":23.67835,"lat":60.02883,"pop":0},{"id":841646,"name":"Finby","lon":22.27598,"lat":60.3114,"pop":0},{"id":660004,"name":"Finholm","alt":["Finnholm"],"lon":22.86496,"lat":63.82968,"pop":0},{"id":6930911,"name":"Finlaysonin alue","lon":23.75841,"lat":61.50161,"pop":0},{"id":11169170,"name":"Finnari","alt":["Finnarv"],"lon":22.94546,"lat":60.13937,"pop":0},{"id":10102440,"name":"Finnas","lon":22.23954,"lat":63.22087,"pop":0},{"id":10102446,"name":"Finnasbacken","lon":22.26413,"lat":63.26326,"pop":0},{"id":842392,"name":"Finnbacka","lon":21.47509,"lat":62.77535,"pop":0},{"id":660010,"name":"Finnby","alt":["Finby"],"lon":22.50426,"lat":60.39075,"pop":0},{"id":660016,"name":"Finnby","alt":["Finby","Suomenkyla","Suomenkylae","Suomenkylä"],"lon":26.48746,"lat":60.57889,"pop":0},{"id":660017,"name":"Finnby","alt":["Finby","Suomenkyla","Suomenkylae","Suomenkylä"],"lon":25.63619,"lat":60.41872,"pop":0},{"id":842907,"name":"Finnby","lon":21.59878,"lat":63.14156,"pop":0},{"id":660007,"name":"Finne","lon":22.71065,"lat":63.81177,"pop":0},{"id":842921,"name":"Finnholmen","lon":21.67028,"lat":63.16183,"pop":0},{"id":7646554,"name":"Finninkylä","lon":25.87393,"lat":62.4468,"pop":0},{"id":12225820,"name":"Finnoo","lon":24.70774,"lat":60.15994,"pop":0},{"id":840647,"name":"Finnsbacka","lon":24.42561,"lat":60.12206,"pop":0},{"id":660011,"name":"Finnäs","lon":22.72608,"lat":63.79981,"pop":0},{"id":659996,"name":"Finnö","alt":["Einno","Einnö","Finno"],"lon":21.49797,"lat":60.18066,"pop":0},{"id":659992,"name":"Finpyy","alt":["Finby"],"lon":21.8791,"lat":61.58892,"pop":0},{"id":659990,"name":"Finsjö","lon":22.66667,"lat":60.01667,"pop":0},{"id":659989,"name":"Fiskars","alt":["Fiskari"],"lon":23.54281,"lat":60.12992,"pop":0},{"id":842151,"name":"Flackåsen","lon":21.58856,"lat":62.23513,"pop":0},{"id":659974,"name":"Fladan","lon":21.31326,"lat":62.00062,"pop":0},{"id":10101217,"name":"Fleiviiki","alt":["Flevik"],"lon":21.66071,"lat":61.54925,"pop":0},{"id":659954,"name":"Flossböle","alt":["Flossboele"],"lon":22.6,"lat":60.31667,"pop":0},{"id":12225402,"name":"Flyet","lon":23.46712,"lat":59.97721,"pop":0},{"id":659952,"name":"Flyt","lon":24.10102,"lat":60.15186,"pop":0},{"id":659940,"name":"Forsby","lon":22.86616,"lat":63.57121,"pop":476},{"id":659941,"name":"Forsby","lon":22.53643,"lat":63.49595,"pop":0},{"id":659942,"name":"Forsby","alt":["Forsbju","Koskenkyla","Koskenkylae","Koskenkylä","Форсбю"],"lon":25.94969,"lat":60.50285,"pop":0},{"id":842520,"name":"Forsen","lon":21.57975,"lat":62.90335,"pop":0},{"id":659935,"name":"Forssa","alt":["Forsa","Forss","QVE","fu er sa","fwrsa","Форса","Форсса","فورسا","福爾薩"],"lon":23.62146,"lat":60.81462,"pop":17852},{"id":659934,"name":"Forsslätt","lon":25.75671,"lat":60.54842,"pop":0},{"id":12331075,"name":"Foula","lon":23.07058,"lat":60.17988,"pop":0},{"id":11874873,"name":"Foutila","alt":["Fougdila"],"lon":22.71845,"lat":60.36276,"pop":0},{"id":659930,"name":"Framnäs","lon":23.1,"lat":60,"pop":0},{"id":842459,"name":"Framstu","lon":21.41265,"lat":62.85426,"pop":0},{"id":659929,"name":"Frankböle","lon":23.18333,"lat":60.1,"pop":0},{"id":659927,"name":"Fransila","lon":30.28333,"lat":62.58333,"pop":0},{"id":840587,"name":"Fremböle","lon":24.22743,"lat":60.08591,"pop":0},{"id":659920,"name":"Friggesby","alt":["Fritgesbju","Фритгесбю"],"lon":24.50312,"lat":60.05456,"pop":0},{"id":7521730,"name":"Friisilä","alt":["Friisilae","Friisku","Frisans","Frisku"],"lon":24.71933,"lat":60.16624,"pop":0},{"id":7647410,"name":"Friisinmäki","alt":["Frisbacka","Frisis","Frisukka"],"lon":24.78928,"lat":60.21283,"pop":0},{"id":659917,"name":"Friitala","alt":["Friby"],"lon":21.87567,"lat":61.43081,"pop":0},{"id":844338,"name":"Frimans","lon":25.98923,"lat":60.38953,"pop":0},{"id":841799,"name":"Friskala","lon":22.23898,"lat":60.39933,"pop":0},{"id":659910,"name":"Frost","alt":["Frostdal"],"lon":22.58333,"lat":63.56667,"pop":0},{"id":659908,"name":"Frustila","lon":22.21667,"lat":63.05,"pop":0},{"id":659925,"name":"Fräntilä","alt":["Franti","Frantila","Fränti"],"lon":23.07911,"lat":63.31315,"pop":0},{"id":659914,"name":"Fröjdböle","alt":["Froejdboele","Froibele"],"lon":22.55,"lat":60.31667,"pop":0},{"id":659915,"name":"Fröjdböle","lon":22.61667,"lat":60.13333,"pop":0},{"id":659912,"name":"Frönäs","lon":21.37922,"lat":62.73743,"pop":0},{"id":659907,"name":"Fuila","lon":22.64711,"lat":60.39364,"pop":0},{"id":10102434,"name":"Furuholmen","lon":22.24762,"lat":63.20095,"pop":0},{"id":842156,"name":"Furuviken","lon":21.3249,"lat":62.25321,"pop":0},{"id":10101747,"name":"Fågelberget","alt":["Fagelberget","Lintuvuori"],"lon":21.73426,"lat":63.12879,"pop":0},{"id":840641,"name":"Fågelvik","lon":24.2979,"lat":60.11271,"pop":0},{"id":7283132,"name":"Fållbäcken","lon":21.49333,"lat":62.59271,"pop":0},{"id":660036,"name":"Fårholmen","alt":["Farholmen","Karholm","Karkholm","Lammassaari","Lemmassaari"],"lon":22.76193,"lat":63.69385,"pop":0},{"id":660063,"name":"Fäboda","alt":["Faboda","Febuda"],"lon":22.59321,"lat":63.66406,"pop":0},{"id":842269,"name":"Fältas","lon":21.65,"lat":62.36667,"pop":0},{"id":842776,"name":"Färdis brännan","lon":21.63807,"lat":62.9318,"pop":0},{"id":659946,"name":"Förby","lon":22.87176,"lat":60.09491,"pop":0},{"id":10102462,"name":"Gabels","lon":22.34409,"lat":63.38845,"pop":0},{"id":849024,"name":"Galls","lon":21.78307,"lat":60.16874,"pop":0},{"id":659891,"name":"Galtarby","lon":22.60272,"lat":60.06431,"pop":0},{"id":842462,"name":"Galtback","lon":21.42533,"lat":62.85379,"pop":0},{"id":659889,"name":"Galtby","lon":21.59999,"lat":60.18084,"pop":0},{"id":848397,"name":"Galtby Brygga","lon":21.58831,"lat":60.18409,"pop":0},{"id":10101739,"name":"Gamla hamnen","alt":["Vanhasatama"],"lon":21.69152,"lat":63.06896,"pop":0},{"id":659887,"name":"Gammelbacka","alt":["Kamppula"],"lon":25.63812,"lat":60.37309,"pop":0},{"id":659886,"name":"Gammelby","alt":["Vanhakyla","Vanhakylae","Vanhakylä"],"lon":25.88184,"lat":60.48985,"pop":0},{"id":842376,"name":"Gammelstu","lon":21.32225,"lat":62.75469,"pop":0},{"id":653833,"name":"Gárnjárga","alt":["Garnjarga","Garnjargsuolo","Karnjarga","Karunjargga"],"lon":27.1275,"lat":69.92632,"pop":0},{"id":659880,"name":"Garpgård","lon":26.0105,"lat":60.46216,"pop":0},{"id":659879,"name":"Garpom","lon":26.01129,"lat":60.54916,"pop":0},{"id":659878,"name":"Garsböle","alt":["Garsbele","Garsbole"],"lon":22.45642,"lat":60.31346,"pop":0},{"id":659850,"name":"Genböle","lon":22.50819,"lat":60.08147,"pop":0},{"id":659849,"name":"Gennarby","lon":23.33003,"lat":60.04392,"pop":0},{"id":659846,"name":"Gerby","lon":21.594,"lat":63.13394,"pop":0},{"id":659847,"name":"Gerby","lon":25.9542,"lat":60.43836,"pop":0},{"id":6694930,"name":"Gers","lon":23.00011,"lat":63.60386,"pop":0},{"id":659841,"name":"Gesterby","lon":25.27742,"lat":60.33436,"pop":0},{"id":659855,"name":"Gesterby","alt":["Gasterby","Gästerby"],"lon":22.72191,"lat":60.21496,"pop":0},{"id":840689,"name":"Gesterby","lon":24.44518,"lat":60.13509,"pop":0},{"id":10101493,"name":"Gillern","alt":["Kilteri"],"lon":24.84662,"lat":60.25994,"pop":0},{"id":659839,"name":"Girsnäs","lon":25.64164,"lat":60.34119,"pop":0},{"id":659838,"name":"Gislom","lon":26.11667,"lat":60.46667,"pop":0},{"id":844451,"name":"Gislom","lon":26.1949,"lat":60.48125,"pop":0},{"id":659824,"name":"Gloskär","lon":23.06667,"lat":59.81667,"pop":0},{"id":659821,"name":"Gottböle","lon":21.36926,"lat":62.44667,"pop":0},{"id":659818,"name":"Grabbskog","lon":23.38632,"lat":60.0358,"pop":0},{"id":842524,"name":"Granasbacken","lon":21.66667,"lat":62.9,"pop":0},{"id":659813,"name":"Granbacka","lon":23.51667,"lat":63.56667,"pop":0},{"id":840683,"name":"Granbacka","lon":24.38271,"lat":60.12921,"pop":0},{"id":7283613,"name":"Granfors","lon":21.48685,"lat":62.63716,"pop":0},{"id":842418,"name":"Granholm","lon":21.71111,"lat":62.79188,"pop":0},{"id":659801,"name":"Granliden","lon":21.4347,"lat":62.52845,"pop":0},{"id":842307,"name":"Granliden","lon":21.54385,"lat":62.66512,"pop":0},{"id":842221,"name":"Grannasbacken","lon":21.44296,"lat":62.3,"pop":0},{"id":7283620,"name":"Grannäset","lon":21.47896,"lat":62.62675,"pop":0},{"id":659779,"name":"Granskog","lon":21.27274,"lat":62.8231,"pop":0},{"id":842195,"name":"Granskog","lon":21.35153,"lat":62.28733,"pop":0},{"id":659777,"name":"Granvik","lon":22.26167,"lat":60.20143,"pop":0},{"id":659790,"name":"Granö","lon":23.51667,"lat":63.56667,"pop":0},{"id":796203,"name":"Grev","lon":22.73377,"lat":63.74144,"pop":0},{"id":659764,"name":"Grevböle","lon":26.15964,"lat":60.40191,"pop":0},{"id":659760,"name":"Gripsböle","lon":22.6,"lat":60.33333,"pop":0},{"id":659759,"name":"Grisasby","alt":["Grisarby"],"lon":26.36172,"lat":60.46812,"pop":0},{"id":659757,"name":"Grisselören","alt":["Grisselo","Grisselon","Grisseloren","Grisselö","Grisselön"],"lon":22.49346,"lat":63.61221,"pop":0},{"id":847357,"name":"Grundbacka","alt":["Perusmaki","Perusmäki"],"lon":24.72653,"lat":60.28928,"pop":0},{"id":10102303,"name":"Grundbacken","lon":22.0307,"lat":63.18634,"pop":0},{"id":659747,"name":"Grundsund","lon":23.02632,"lat":59.92583,"pop":0},{"id":659749,"name":"Grundören","alt":["Grundo","Grundoren","Grundö"],"lon":22.38716,"lat":63.51027,"pop":0},{"id":7839046,"name":"Gruotila","alt":["Grotila"],"lon":24.09197,"lat":60.24482,"pop":0},{"id":11920041,"name":"Grusby","lon":21.61845,"lat":61.67676,"pop":0},{"id":659817,"name":"Gråböle","alt":["Graboele","Kraila"],"lon":23.04636,"lat":60.11788,"pop":0},{"id":842298,"name":"Gränden","lon":21.20091,"lat":62.66137,"pop":0},{"id":659799,"name":"Grännäs","lon":21.8688,"lat":60.17685,"pop":0},{"id":844158,"name":"Grännäs","lon":25.86346,"lat":60.29093,"pop":0},{"id":12225432,"name":"Gräsa","lon":24.75785,"lat":60.17363,"pop":0},{"id":848814,"name":"Gröndal","lon":21.90556,"lat":60.155,"pop":0},{"id":10101496,"name":"Grönkulla","alt":["Groenkulla","Viherkumpu"],"lon":24.87791,"lat":60.28006,"pop":0},{"id":659754,"name":"Grönvik","lon":22.86667,"lat":59.95,"pop":0},{"id":659751,"name":"Grötas","lon":22.66547,"lat":63.3997,"pop":0},{"id":10101725,"name":"Guldsmedis","lon":21.54555,"lat":62.95314,"pop":0},{"id":842387,"name":"Gullbacken","lon":21.18223,"lat":62.77503,"pop":0},{"id":848677,"name":"Gullkrona","lon":22.08625,"lat":60.08715,"pop":0},{"id":659738,"name":"Gullö","alt":["Gule","Gullo"],"lon":23.41972,"lat":59.94649,"pop":0},{"id":659737,"name":"Gumbacka","lon":24.59118,"lat":60.1286,"pop":0},{"id":659734,"name":"Gumbostrand","lon":25.29452,"lat":60.25627,"pop":0},{"id":659735,"name":"Gumböle","alt":["Gumboele","Gumbole","Kumpyoeli","Kumpyöli"],"lon":24.61684,"lat":60.21948,"pop":1178},{"id":659736,"name":"Gumböle","lon":23.91271,"lat":60.08886,"pop":0},{"id":798942,"name":"Gumböle","lon":25.14806,"lat":60.26,"pop":0},{"id":12298562,"name":"Gundby","lon":22.76268,"lat":60.18146,"pop":0},{"id":841526,"name":"Gundvik","lon":22.35165,"lat":60.25497,"pop":0},{"id":659732,"name":"Gunilack","lon":22.41465,"lat":63.36153,"pop":0},{"id":10101501,"name":"Gunnari","lon":24.7549,"lat":60.38196,"pop":0},{"id":7839053,"name":"Gunnarla","lon":24.06006,"lat":60.23342,"pop":0},{"id":659728,"name":"Gunnarsby","lon":24.48166,"lat":60.10396,"pop":0},{"id":659726,"name":"Gunnarskulla","lon":24.50806,"lat":60.09194,"pop":0},{"id":659729,"name":"Gunnarsnäs","alt":["Gunnarnas","Gunnarnäs","Gunnarsnas"],"lon":22.28771,"lat":60.26564,"pop":0},{"id":659721,"name":"Gyltö","alt":["Gylt","Gylto","Stor Gylto","Stor Gyltö"],"lon":21,"lat":60,"pop":0},{"id":659722,"name":"Gyltö","lon":21.48333,"lat":60.11667,"pop":0},{"id":659719,"name":"Gyttja","alt":["Gyutya"],"lon":22.03551,"lat":60.16482,"pop":0},{"id":10102443,"name":"Gållos","alt":["Gallos"],"lon":22.22587,"lat":63.21124,"pop":0},{"id":842478,"name":"Gålören","lon":21.37174,"lat":62.86891,"pop":0},{"id":10102417,"name":"Gårdarna","alt":["Gardarna"],"lon":21.80921,"lat":63.43269,"pop":0},{"id":840725,"name":"Gårdsböle","lon":24.14564,"lat":60.1737,"pop":0},{"id":659868,"name":"Gåsjarvi","alt":["Gasjarv","Gasjarvi","Gåsjärv"],"lon":23.48333,"lat":63.65,"pop":0},{"id":659897,"name":"Gädda","alt":["Gadda","Gaddnas","Gäddnäs"],"lon":22.78991,"lat":63.80673,"pop":0},{"id":659892,"name":"Gäddrag","lon":25.86667,"lat":60.28333,"pop":0},{"id":659856,"name":"Gästerböle","alt":["Gasterbele","Gasterbole","Gasterby","Gesterbole","Gesterby","Gesterböle","Gästerby"],"lon":22.43098,"lat":60.2904,"pop":0},{"id":659854,"name":"Gästersö","alt":["Gastersjo","Gasterso","Gästersjö"],"lon":23.7,"lat":59.96667,"pop":0},{"id":659852,"name":"Gästgivars","alt":["Gastgivar","Gastgivars","Gästgivar"],"lon":22.33333,"lat":63.4,"pop":0},{"id":659717,"name":"Haaga","alt":["29","Haagis","Haga"],"lon":24.89759,"lat":60.22132,"pop":0},{"id":659714,"name":"Haajainen","alt":["Haajaiskyla","Haajaiskylä","Haajanen"],"lon":26.98561,"lat":63.63615,"pop":0},{"id":659710,"name":"Haali","lon":23.42305,"lat":60.49054,"pop":0},{"id":659708,"name":"Haanela","lon":27.16667,"lat":65.35,"pop":0},{"id":659707,"name":"Haankylä","lon":22.14315,"lat":60.76914,"pop":0},{"id":659705,"name":"Haanpää","lon":23.08333,"lat":62.31667,"pop":0},{"id":659706,"name":"Haanpää","alt":["Haanpaa"],"lon":22.9559,"lat":60.51112,"pop":0},{"id":659702,"name":"Haapa-aho","alt":["Matero"],"lon":29.28333,"lat":64.86667,"pop":0},{"id":659674,"name":"Haapa-Kimola","alt":["Haapakimola","Khapa-Kimola","Хапа-Кимола"],"lon":26.31249,"lat":60.79802,"pop":0},{"id":854982,"name":"Haapainen","lon":22.06464,"lat":60.7152,"pop":0},{"id":10101447,"name":"Haapajoenkulma","lon":25.24625,"lat":61.90246,"pop":0},{"id":659680,"name":"Haapajärvi","lon":25.3,"lat":64.08333,"pop":0},{"id":659681,"name":"Haapajärvi","alt":["Aspsjoe","Aspsjö","Haapajaervi","Haapavesi","Khapajarvi","Khapayarvi","Хапаярви"],"lon":25.33333,"lat":63.75,"pop":7627},{"id":659682,"name":"Haapajärvi","lon":23.45,"lat":63.31667,"pop":0},{"id":659683,"name":"Haapajärvi","lon":28.31448,"lat":60.92323,"pop":0},{"id":659684,"name":"Haapajärvi","lon":24.45078,"lat":60.25207,"pop":0},{"id":659662,"name":"Haapakoski","alt":["Khapakoski","Хапакоски"],"lon":26.19576,"lat":65.33692,"pop":0},{"id":659663,"name":"Haapakoski","lon":25.30358,"lat":64.14254,"pop":0},{"id":659664,"name":"Haapakoski","lon":26.71391,"lat":63.27585,"pop":0},{"id":659665,"name":"Haapakoski","lon":23.14082,"lat":62.94921,"pop":0},{"id":659666,"name":"Haapakoski","lon":23.4,"lat":62.91667,"pop":0},{"id":659667,"name":"Haapakoski","alt":["Khapakoski","Хапакоски"],"lon":27.15735,"lat":62.45714,"pop":0},{"id":659668,"name":"Haapakoski","lon":21.86667,"lat":61.78333,"pop":0},{"id":659658,"name":"Haapakylä","lon":28.88333,"lat":63.65,"pop":0},{"id":659659,"name":"Haapakylä","lon":26.06396,"lat":62.72924,"pop":0},{"id":659660,"name":"Haapakylä","lon":24.27397,"lat":60.33695,"pop":0},{"id":659631,"name":"Haapala","lon":27.34671,"lat":65.70714,"pop":0},{"id":659632,"name":"Haapala","lon":24.81667,"lat":65.05,"pop":0},{"id":659633,"name":"Haapala","lon":28.55,"lat":64,"pop":0},{"id":659634,"name":"Haapala","alt":["Haapalankyla","Haapalankylä","Khapala","Хапала"],"lon":27.19925,"lat":60.78865,"pop":0},{"id":449927,"name":"Haapalahti","lon":25.41667,"lat":65.18333,"pop":0},{"id":659627,"name":"Haapalahti","lon":30.11552,"lat":62.9856,"pop":0},{"id":659628,"name":"Haapalahti","lon":28.91667,"lat":61.9,"pop":0},{"id":7731928,"name":"Haapalahti","lon":29.0827,"lat":63.56304,"pop":0},{"id":7731934,"name":"Haapalahti","lon":29.09038,"lat":63.56623,"pop":0},{"id":7732558,"name":"Haapalinna","lon":23.68549,"lat":61.50825,"pop":0},{"id":659621,"name":"Haapaloso","lon":30.42338,"lat":62.44606,"pop":0},{"id":10101350,"name":"Haapaloukko","lon":22.31744,"lat":62.7034,"pop":0},{"id":659620,"name":"Haapaluoma","alt":["Pera-seinajoki","Perä-seinäjoki"],"lon":23.19604,"lat":62.56868,"pop":0},{"id":7645620,"name":"Haapamaa","lon":25.56173,"lat":64.8945,"pop":0},{"id":659609,"name":"Haapamäki","alt":["Haapamaeki","Haapamaki","Khapamjaki","Хапамяки"],"lon":26.124,"lat":63.51039,"pop":0},{"id":659610,"name":"Haapamäki","alt":["Haapamaeki","Haapamaki","Khapamjaki","Хапамяки"],"lon":26.73081,"lat":62.86284,"pop":0},{"id":659611,"name":"Haapamäki","lon":28.29803,"lat":62.55349,"pop":0},{"id":659612,"name":"Haapamäki","alt":["Haapamaeki","Haapamaki","Khapamjaki","Хапамяки"],"lon":24.45411,"lat":62.25389,"pop":0},{"id":659590,"name":"Haapaniemi","lon":27.67336,"lat":62.87996,"pop":0},{"id":659591,"name":"Haapaniemi","lon":26,"lat":63.08333,"pop":0},{"id":659592,"name":"Haapaniemi","lon":28.0814,"lat":62.09848,"pop":0},{"id":659593,"name":"Haapaniemi","lon":29.28702,"lat":61.83358,"pop":0},{"id":659594,"name":"Haapaniemi","lon":24.00314,"lat":61.40621,"pop":0},{"id":659595,"name":"Haapaniemi","lon":22.69109,"lat":61.36984,"pop":0},{"id":659596,"name":"Haapaniemi","lon":23.41165,"lat":60.7798,"pop":0},{"id":659597,"name":"Haapaniemi","lon":23.44749,"lat":60.23645,"pop":0},{"id":842865,"name":"Haapaniemi","alt":["Aspnas","Aspnäs"],"lon":21.7209,"lat":63.08711,"pop":0},{"id":659589,"name":"Haapaoja","lon":29.53333,"lat":61.61667,"pop":0},{"id":659578,"name":"Haapasaari","lon":24.43817,"lat":61.50697,"pop":0},{"id":659579,"name":"Haapasaari","lon":21.48333,"lat":61.16667,"pop":0},{"id":659580,"name":"Haapasaari","alt":["Aspoe","Aspö"],"lon":27.19231,"lat":60.28913,"pop":0},{"id":659577,"name":"Haapasalmi","alt":["Khapasalmi","Хапасалми"],"lon":29.69966,"lat":62.2114,"pop":0},{"id":659573,"name":"Haapasalo","alt":["Khapasalo","Хапасало"],"lon":24.11429,"lat":63.36022,"pop":0},{"id":659564,"name":"Haapavaara","lon":30.98333,"lat":62.51667,"pop":0},{"id":659565,"name":"Haapavaara","alt":["Khapavara","Хапавара"],"lon":30.16208,"lat":61.88764,"pop":0},{"id":659554,"name":"Haapavesi","alt":["Chaapavesi","Gaapavesi","Haapavesi linn","Khaapavesi","Khapavesi","ha pa wei xi","Χάαπαβεσι","Гаапавесі","Хаапавеси","Хапавеси","ہاپاویسی","哈帕韋西"],"lon":25.36667,"lat":64.13333,"pop":7717},{"id":659553,"name":"Haapavirta","lon":30.06667,"lat":62.7,"pop":0},{"id":659551,"name":"Haapiala","lon":27.61667,"lat":61.45,"pop":0},{"id":659550,"name":"Haapimaa","lon":23.02494,"lat":61.73762,"pop":0},{"id":659548,"name":"Haapoja","lon":22.76667,"lat":63.11667,"pop":0},{"id":659544,"name":"Haaposaari","lon":26.33333,"lat":64.53333,"pop":0},{"id":659542,"name":"Haapovaara","alt":["Haapavaara","Haapo","Khapovara","Хаповара"],"lon":29.26147,"lat":62.88042,"pop":0},{"id":659559,"name":"Haapovaara","lon":29.54309,"lat":65.31418,"pop":0},{"id":659560,"name":"Haapovaara","alt":["Haapavaara"],"lon":29.01151,"lat":65.26719,"pop":0},{"id":659561,"name":"Haapovaara","lon":30.78736,"lat":62.66373,"pop":0},{"id":659562,"name":"Haapovaara","lon":30.49099,"lat":62.6837,"pop":0},{"id":659563,"name":"Haapovaara","lon":31.23314,"lat":62.55427,"pop":0},{"id":10101580,"name":"Haapua","lon":27.81632,"lat":65.41558,"pop":0},{"id":659538,"name":"Haara","lon":23.09163,"lat":60.91279,"pop":0},{"id":659537,"name":"Haarahiltunen","alt":["Haara"],"lon":26.66667,"lat":65.71667,"pop":0},{"id":659528,"name":"Haarajoki","lon":26.651,"lat":62.06742,"pop":0},{"id":659529,"name":"Haarajoki","alt":["Kharajoki","Харайоки"],"lon":25.14807,"lat":60.50397,"pop":0},{"id":10102295,"name":"Haarajoki","lon":22.1342,"lat":63.06403,"pop":0},{"id":659530,"name":"Haarajärvi","lon":30.17036,"lat":62.17777,"pop":0},{"id":659514,"name":"Haarala","alt":["Haakala","Kharala","Харала"],"lon":26.17689,"lat":62.98857,"pop":0},{"id":659515,"name":"Haarala","lon":30.48333,"lat":62.25,"pop":0},{"id":7646559,"name":"Haarala","lon":25.87584,"lat":62.42929,"pop":0},{"id":659513,"name":"Haaralanniemi","lon":29.39776,"lat":62.90605,"pop":0},{"id":659512,"name":"Haaramäki","lon":22.86667,"lat":62.95,"pop":0},{"id":659510,"name":"Haaranen","lon":25.8,"lat":64.01667,"pop":0},{"id":659508,"name":"Haaraniemi","lon":26.33333,"lat":64.01667,"pop":0},{"id":7647722,"name":"Haarankylä","lon":26.13101,"lat":60.92365,"pop":0},{"id":659507,"name":"Haaranmäki","lon":24.84722,"lat":64.26966,"pop":0},{"id":843891,"name":"Haaransilta","lon":25.4827,"lat":64.81377,"pop":0},{"id":659505,"name":"Haarjärvi","lon":23.79314,"lat":60.35619,"pop":0},{"id":659504,"name":"Haarla","lon":23.11667,"lat":60.2,"pop":0},{"id":841797,"name":"Haarla","alt":["Harlax"],"lon":22.21697,"lat":60.39125,"pop":0},{"id":12299138,"name":"Haarniittu","lon":23.41495,"lat":60.24809,"pop":0},{"id":659503,"name":"Haaro","lon":21.83314,"lat":60.90085,"pop":0},{"id":12299131,"name":"Haaro","lon":23.25936,"lat":60.24452,"pop":0},{"id":659502,"name":"Haaroinen","lon":22.81696,"lat":60.8807,"pop":0},{"id":659491,"name":"Haataja","lon":28.75491,"lat":66.07526,"pop":0},{"id":659492,"name":"Haataja","lon":27.41667,"lat":64.45,"pop":0},{"id":659493,"name":"Haataja","lon":27.18333,"lat":64.16667,"pop":0},{"id":659495,"name":"Haataja","lon":27.01667,"lat":64.05,"pop":0},{"id":659494,"name":"Haatajankylä","alt":["Haataja","Haatajankyla"],"lon":29.54405,"lat":64.10921,"pop":0},{"id":659489,"name":"Haatala","lon":27.25,"lat":63.15,"pop":0},{"id":854972,"name":"Haatila","lon":22.04972,"lat":60.58917,"pop":0},{"id":659478,"name":"Haavisto","alt":["Khavisto","Хависто"],"lon":25.14876,"lat":61.9801,"pop":0},{"id":659480,"name":"Haavisto","lon":26.60039,"lat":60.61835,"pop":0},{"id":659481,"name":"Haavisto","lon":27.56293,"lat":60.58241,"pop":0},{"id":659482,"name":"Haavisto","alt":["Khavisto","Хависто"],"lon":24.34601,"lat":60.52118,"pop":0},{"id":6930937,"name":"Haavisto","lon":23.59136,"lat":61.56693,"pop":0},{"id":6930953,"name":"Haavisto","lon":23.44353,"lat":61.46589,"pop":0},{"id":842492,"name":"Habram","lon":21.70023,"lat":62.88862,"pop":0},{"id":842357,"name":"Hag","lon":21.61337,"lat":62.72327,"pop":0},{"id":659474,"name":"Haga","lon":23.99266,"lat":60.03716,"pop":0},{"id":847592,"name":"Hagalund","lon":25.34746,"lat":60.37404,"pop":0},{"id":10101818,"name":"Hagnäs","alt":["Hagnaes"],"lon":21.95024,"lat":63.17984,"pop":0},{"id":659466,"name":"Hahkola","lon":22.65,"lat":63.01667,"pop":0},{"id":659462,"name":"Hahmajärvi","lon":23.02404,"lat":61.54448,"pop":0},{"id":12253548,"name":"Haihara","lon":23.87711,"lat":61.4763,"pop":200},{"id":659455,"name":"Haijaa","alt":["Häijää"],"lon":23.1,"lat":61.5,"pop":0},{"id":659454,"name":"Haijainen","lon":21.98977,"lat":60.44166,"pop":0},{"id":854847,"name":"Haijainen","lon":21.90186,"lat":60.6357,"pop":0},{"id":645288,"name":"Haikala","alt":["Myllyla","Myllylä"],"lon":28.13333,"lat":60.75,"pop":0},{"id":847378,"name":"Haikala","lon":24.74825,"lat":60.39847,"pop":0},{"id":659450,"name":"Haikarila","lon":27.85,"lat":61.73333,"pop":0},{"id":659445,"name":"Haikka","lon":23.66352,"lat":61.47113,"pop":0},{"id":659444,"name":"Haikkaanlahti","lon":27.98629,"lat":61.18182,"pop":0},{"id":844285,"name":"Haikkoo","alt":["Haiko"],"lon":25.61954,"lat":60.3472,"pop":0},{"id":659440,"name":"Haikola","lon":24.53333,"lat":63.9,"pop":0},{"id":659441,"name":"Haikola","lon":27.89628,"lat":61.19611,"pop":0},{"id":7731936,"name":"Haikola","lon":29.03644,"lat":63.55788,"pop":0},{"id":659438,"name":"Haikosaari","lon":24.944,"lat":64.31591,"pop":0},{"id":659435,"name":"Hailila","lon":27.60284,"lat":60.51761,"pop":0},{"id":659431,"name":"Hailuoto","alt":["Ailuoto","Chailouoto","Hailuotas","Karlo","Karloe","Karlö","Khajluoto","hai lu ao tuo dao","hairuoto dao","Χάιλουοτο","Хайлуото","ハイルオト島","海盧奧托島"],"lon":24.71385,"lat":65.009,"pop":955},{"id":659430,"name":"Haimari","lon":23.5,"lat":62.91667,"pop":0},{"id":659429,"name":"Haimila","lon":27.70025,"lat":60.92796,"pop":0},{"id":659428,"name":"Haimoo","lon":24.49339,"lat":60.45991,"pop":0},{"id":659427,"name":"Hainari","lon":23.76901,"lat":61.85975,"pop":0},{"id":659242,"name":"Haisio","lon":23.55555,"lat":60.8204,"pop":0},{"id":659424,"name":"Haistila","lon":21.91887,"lat":61.40756,"pop":0},{"id":659421,"name":"Haitula","lon":22.92052,"lat":60.9209,"pop":0},{"id":659420,"name":"Hajala","lon":22.91463,"lat":60.41843,"pop":0},{"id":7647485,"name":"Hakala","lon":24.86945,"lat":60.61304,"pop":0},{"id":8030479,"name":"Hakala","lon":23.08218,"lat":61.77135,"pop":0},{"id":7645247,"name":"Hakalanniemi","lon":24.43789,"lat":61.01893,"pop":0},{"id":10101434,"name":"Hakalanperä","alt":["Hakalanperae"],"lon":24.99884,"lat":62.0962,"pop":0},{"id":7645813,"name":"Hakali","lon":28.27579,"lat":61.07185,"pop":0},{"id":7645624,"name":"Hakamaa","lon":25.51368,"lat":64.93382,"pop":0},{"id":852711,"name":"Hakametsä","lon":21.43691,"lat":60.79892,"pop":0},{"id":6930900,"name":"Hakametsä","lon":23.8384,"lat":61.49112,"pop":0},{"id":12363173,"name":"Hakamäki","alt":["Hakamaki"],"lon":23.0981,"lat":60.35394,"pop":0},{"id":12331068,"name":"Hakkala","lon":23.01332,"lat":60.13482,"pop":0},{"id":659396,"name":"Hakkarala","lon":25.11667,"lat":63.05,"pop":0},{"id":659395,"name":"Hakkaraniemi","lon":24.93388,"lat":63.35673,"pop":0},{"id":659393,"name":"Hakkari","lon":27.93333,"lat":63.08333,"pop":0},{"id":659394,"name":"Hakkari","lon":23.7648,"lat":61.33782,"pop":0},{"id":659390,"name":"Hakkenpää","alt":["Hakenpa","Hakenpä","Hakkeenpaa","Hakkeenpää","Hakkenpaa"],"lon":21.60088,"lat":60.50607,"pop":0},{"id":659385,"name":"Hakkila","lon":23.59021,"lat":61.10626,"pop":0},{"id":659386,"name":"Hakkila","alt":["Haxbole","Haxböle"],"lon":25.07346,"lat":60.29238,"pop":0},{"id":842063,"name":"Hakkinen","lon":22.39478,"lat":60.48811,"pop":0},{"id":659378,"name":"Hakkola","lon":22.7247,"lat":62.54971,"pop":0},{"id":659375,"name":"Hakoinen","lon":21.45687,"lat":60.8569,"pop":0},{"id":659372,"name":"Hakokylä","lon":28.95,"lat":64.7,"pop":0},{"id":659367,"name":"Hakola","lon":27.11667,"lat":65.6,"pop":0},{"id":659369,"name":"Hakola","lon":22.83294,"lat":63.16378,"pop":0},{"id":659364,"name":"Hakoniemi","lon":26.76017,"lat":63.72664,"pop":0},{"id":659365,"name":"Hakoniemi","lon":26.25,"lat":63.45,"pop":0},{"id":7731821,"name":"Hakosuo","lon":30.36801,"lat":62.1311,"pop":0},{"id":659360,"name":"Hakovaara","lon":30.80362,"lat":62.77245,"pop":0},{"id":844385,"name":"Haksi","alt":["Hax","Haxboele","Haxböle"],"lon":25.54218,"lat":60.41209,"pop":0},{"id":854693,"name":"Hakula","lon":21.41531,"lat":60.70159,"pop":0},{"id":854907,"name":"Hakula","lon":22.42888,"lat":60.53077,"pop":0},{"id":8030478,"name":"Hakumäki","lon":23.08231,"lat":61.76614,"pop":0},{"id":659355,"name":"Hakuni","lon":22.90037,"lat":61.14324,"pop":0},{"id":659406,"name":"Hakunila","alt":["Hakansboele","Håkansböle"],"lon":25.10342,"lat":60.27822,"pop":0},{"id":847427,"name":"Hakuninmaa","alt":["Hakansaker","Håkansåker"],"lon":24.89227,"lat":60.25357,"pop":0},{"id":659350,"name":"Halikko","lon":23.08333,"lat":60.4,"pop":9344},{"id":659344,"name":"Halila","lon":28.00943,"lat":61.21334,"pop":0},{"id":842058,"name":"Halinen","alt":["Hallis"],"lon":22.31263,"lat":60.46911,"pop":0},{"id":659341,"name":"Halivaara","alt":["Hali"],"lon":28.94832,"lat":63.04426,"pop":0},{"id":659340,"name":"Halkia","lon":25.31793,"lat":60.52314,"pop":0},{"id":659339,"name":"Halkivaha","lon":23.29845,"lat":61.19049,"pop":0},{"id":10101322,"name":"Halkivaha","lon":21.89876,"lat":62.83962,"pop":0},{"id":449917,"name":"Halkokari","lon":25.29448,"lat":65.1942,"pop":0},{"id":796237,"name":"Halkokari","lon":23.13708,"lat":63.85932,"pop":0},{"id":659334,"name":"Halkokumpu","alt":["Halkukumpu"],"lon":26.85331,"lat":62.17986,"pop":0},