[{"id":3580468,"name":"Adelphi","alt":["Adelphia"],"lon":-61.67659,"lat":12.10991,"pop":0},{"id":3580466,"name":"Amber Belair","lon":-61.7555,"lat":11.99365,"pop":0},{"id":3580460,"name":"Après Tout","lon":-61.6723,"lat":12.05972,"pop":0},{"id":3580459,"name":"Argyle","lon":-61.47852,"lat":12.45601,"pop":0},{"id":3580458,"name":"Arthur Seat","lon":-61.64562,"lat":12.17745,"pop":0},{"id":3580453,"name":"Baillies Bacolet","alt":["Bacolet"],"lon":-61.68327,"lat":12.03257,"pop":0},{"id":11964150,"name":"Ballast Ground","lon":-61.75158,"lat":12.04298,"pop":0},{"id":3580449,"name":"Bamboo","lon":-61.78783,"lat":12.00861,"pop":0},{"id":3580448,"name":"Barique","lon":-61.652,"lat":12.17703,"pop":0},{"id":3580447,"name":"Barrow","lon":-61.70476,"lat":12.04975,"pop":0},{"id":3580445,"name":"Battle Hill","lon":-61.62553,"lat":12.10228,"pop":0},{"id":3580444,"name":"Beaton","lon":-61.69591,"lat":12.03485,"pop":0},{"id":3580443,"name":"Beaulieu","lon":-61.73623,"lat":12.07059,"pop":0},{"id":3580442,"name":"Beauregard","lon":-61.67493,"lat":12.11234,"pop":0},{"id":3580438,"name":"Becke Moui","lon":-61.69717,"lat":12.01725,"pop":0},{"id":3580435,"name":"Belair","lon":-61.44061,"lat":12.49227,"pop":0},{"id":3580436,"name":"Belair","lon":-61.62599,"lat":12.16023,"pop":0},{"id":3580433,"name":"Belle Isle","lon":-61.65075,"lat":12.03443,"pop":0},{"id":3580432,"name":"Belle Plain","lon":-61.71402,"lat":12.04376,"pop":0},{"id":3580429,"name":"Bellevue","lon":-61.68333,"lat":12.18333,"pop":0},{"id":3580430,"name":"Bellevue","lon":-61.65234,"lat":12.11064,"pop":0},{"id":3580431,"name":"Bellevue","lon":-61.66254,"lat":12.05266,"pop":0},{"id":3580426,"name":"Belmont","lon":-61.69088,"lat":12.18746,"pop":0},{"id":3580427,"name":"Belmont","lon":-61.62633,"lat":12.17467,"pop":0},{"id":3580428,"name":"Belmont","lon":-61.74966,"lat":12.04124,"pop":0},{"id":3580425,"name":"Belvedere","lon":-61.43333,"lat":12.5,"pop":0},{"id":3580424,"name":"Belvidere","lon":-61.69697,"lat":12.13537,"pop":0},{"id":3580422,"name":"Birch Grove","lon":-61.67222,"lat":12.11401,"pop":0},{"id":3580414,"name":"Blaize","lon":-61.64606,"lat":12.15876,"pop":0},{"id":3580413,"name":"Blow Hole","lon":-61.76645,"lat":11.99697,"pop":0},{"id":3580412,"name":"Boca","lon":-61.72301,"lat":12.07532,"pop":0},{"id":3580410,"name":"Bogles","lon":-61.43333,"lat":12.5,"pop":0},{"id":3580409,"name":"Bois de Gannes","lon":-61.70707,"lat":12.0398,"pop":0},{"id":3580402,"name":"Brandon Hall","lon":-61.64195,"lat":12.11472,"pop":0},{"id":3580399,"name":"Brizan","alt":["Brisant"],"lon":-61.75212,"lat":12.1029,"pop":0},{"id":3580397,"name":"Bylands","lon":-61.65996,"lat":12.13509,"pop":0},{"id":3580396,"name":"Café","lon":-61.74493,"lat":12.03736,"pop":0},{"id":3580393,"name":"Calivigny","lon":-61.72789,"lat":12.01871,"pop":0},{"id":3580389,"name":"Calliste","alt":["Calliste Land Settlement"],"lon":-61.77438,"lat":12.01015,"pop":0},{"id":3580383,"name":"Carrière","alt":["Carriere"],"lon":-61.63497,"lat":12.16652,"pop":0},{"id":3580380,"name":"Castaigne","lon":-61.67225,"lat":12.12509,"pop":0},{"id":3580379,"name":"Castle Hill","lon":-61.67316,"lat":12.19956,"pop":0},{"id":3580376,"name":"Céleste","alt":["Celeste"],"lon":-61.64339,"lat":12.2142,"pop":0},{"id":3580375,"name":"Chadeau","lon":-61.68756,"lat":12.1384,"pop":0},{"id":3580372,"name":"Champs Fleurs","lon":-61.68694,"lat":12.05664,"pop":0},{"id":3580370,"name":"Chantimelle","lon":-61.66193,"lat":12.21129,"pop":0},{"id":3580368,"name":"Charlotte Vale","lon":-61.7053,"lat":12.04341,"pop":0},{"id":3580365,"name":"Chutz","lon":-61.65218,"lat":12.10823,"pop":0},{"id":11281268,"name":"Citern Village","lon":-61.39096,"lat":12.5178,"pop":0},{"id":3580363,"name":"Clabony","lon":-61.66029,"lat":12.13475,"pop":0},{"id":3580361,"name":"Clarkes Court","lon":-61.73333,"lat":12.03333,"pop":0},{"id":3580360,"name":"Clozier","lon":-61.69726,"lat":12.14209,"pop":0},{"id":3580358,"name":"Concord","lon":-61.73956,"lat":12.11856,"pop":0},{"id":3580355,"name":"Confer","alt":["Canne Fond"],"lon":-61.72417,"lat":12.01802,"pop":0},{"id":3580354,"name":"Conference","alt":["Upper Conference"],"lon":-61.61797,"lat":12.16098,"pop":0},{"id":3580352,"name":"Constantine","lon":-61.72042,"lat":12.07935,"pop":0},{"id":3580351,"name":"Content","lon":-61.6658,"lat":12.03597,"pop":0},{"id":3580350,"name":"Corbeau Town","lon":-61.71954,"lat":12.04603,"pop":0},{"id":3580349,"name":"Corinth","lon":-61.67748,"lat":12.036,"pop":0},{"id":3580342,"name":"Crochu","lon":-61.64536,"lat":12.06098,"pop":0},{"id":3580338,"name":"D’Arbeau","lon":-61.7509,"lat":12.06122,"pop":0},{"id":3580334,"name":"Deblando","lon":-61.64415,"lat":12.10269,"pop":0},{"id":3580331,"name":"Des Isles","lon":-61.66667,"lat":12.21667,"pop":0},{"id":3580327,"name":"Diego Piece","lon":-61.6745,"lat":12.20523,"pop":0},{"id":3580325,"name":"Dothan","lon":-61.74299,"lat":12.13758,"pop":0},{"id":3580321,"name":"Dover","lon":-61.43333,"lat":12.5,"pop":0},{"id":3580318,"name":"Dumfries","lon":-61.45736,"lat":12.46311,"pop":0},{"id":3580316,"name":"Dunfermline","alt":["Dumfermline"],"lon":-61.6274,"lat":12.13719,"pop":0},{"id":3580315,"name":"Duquesne","lon":-61.67015,"lat":12.20954,"pop":0},{"id":3580311,"name":"Egmont","lon":-61.7216,"lat":12.00589,"pop":0},{"id":3580307,"name":"Elie Hall","lon":-61.64118,"lat":12.19954,"pop":0},{"id":3580305,"name":"Epping Forest","lon":-61.70266,"lat":12.04577,"pop":0},{"id":3580304,"name":"Fairfield","lon":-61.66096,"lat":12.05589,"pop":0},{"id":3580303,"name":"Falege","alt":["Falaise"],"lon":-61.7545,"lat":12.03652,"pop":0},{"id":3580301,"name":"Felix Park","lon":-61.64878,"lat":12.06385,"pop":0},{"id":3580298,"name":"Florida","lon":-61.70309,"lat":12.15943,"pop":0},{"id":3580295,"name":"Fontenoy","lon":-61.75257,"lat":12.06898,"pop":0},{"id":3580294,"name":"Ford","lon":-61.62506,"lat":12.11801,"pop":0},{"id":3580292,"name":"Fort Jeudy","lon":-61.70911,"lat":11.99993,"pop":0},{"id":3580288,"name":"Frequente","lon":-61.76726,"lat":12.01385,"pop":0},{"id":3580281,"name":"Golflands","lon":-61.75,"lat":12.01667,"pop":0},{"id":3580279,"name":"Gouyave","alt":["Charlotte Town","Gouave","Goyave","Guyave"],"lon":-61.72965,"lat":12.16462,"pop":3378},{"id":3580274,"name":"Grand Anse","alt":["Grand Ance"],"lon":-61.75157,"lat":12.03017,"pop":0},{"id":3580266,"name":"Grand Bay","lon":-61.4348,"lat":12.47427,"pop":0},{"id":3580264,"name":"Grand Bras","alt":["Grand Bra"],"lon":-61.6311,"lat":12.13406,"pop":0},{"id":3580265,"name":"Grand Bras","lon":-61.63663,"lat":12.12238,"pop":0},{"id":3580259,"name":"Grand Mal","lon":-61.75259,"lat":12.07742,"pop":0},{"id":3580257,"name":"Grand Roy","lon":-61.74537,"lat":12.1322,"pop":0},{"id":3580254,"name":"Granton","lon":-61.7248,"lat":12.09251,"pop":0},{"id":3580236,"name":"Grenville","alt":["La Baye"],"lon":-61.62498,"lat":12.12278,"pop":2476},{"id":3580232,"name":"Gretna Green","lon":-61.74989,"lat":12.05786,"pop":0},{"id":3580229,"name":"Gwa Kay","lon":-61.77112,"lat":12.02017,"pop":0},{"id":3580225,"name":"Happy Hill","lon":-61.75595,"lat":12.08941,"pop":0},{"id":3580223,"name":"Harford Village","lon":-61.63524,"lat":12.11763,"pop":0},{"id":3580306,"name":"Helvellyn","lon":-61.6313,"lat":12.22411,"pop":0},{"id":3580219,"name":"Hermitage","lon":-61.48856,"lat":12.45157,"pop":0},{"id":3580220,"name":"Hermitage","lon":-61.63356,"lat":12.17649,"pop":0},{"id":3580221,"name":"Hermitage","lon":-61.74012,"lat":12.08226,"pop":0},{"id":3580218,"name":"Hermon","lon":-61.62703,"lat":12.15651,"pop":0},{"id":3580215,"name":"Hillsborough","lon":-61.45597,"lat":12.48292,"pop":1000},{"id":3580212,"name":"Hope Bacolet","lon":-61.62238,"lat":12.07883,"pop":0},{"id":3580208,"name":"Horne","lon":-61.75636,"lat":12.00448,"pop":0},{"id":3580206,"name":"Hyde Park","lon":-61.74423,"lat":12.0507,"pop":0},{"id":3580205,"name":"Industry","lon":-61.6792,"lat":12.21811,"pop":0},{"id":3580200,"name":"Ka-fe Beau","lon":-61.75408,"lat":12.02806,"pop":0},{"id":11281263,"name":"Kendace","lon":-61.38779,"lat":12.51513,"pop":0},{"id":3580182,"name":"L’Appelle","lon":-61.43347,"lat":12.52272,"pop":0},{"id":3580169,"name":"L’Espérance","alt":["L'Esperance","L’Esperance"],"lon":-61.71016,"lat":12.18098,"pop":0},{"id":3580166,"name":"L’Esterre","lon":-61.48422,"lat":12.46936,"pop":0},{"id":3580167,"name":"L’Esterre","lon":-61.64158,"lat":12.11868,"pop":0},{"id":3580164,"name":"L’Étage","alt":["L'Etage","L’Etage"],"lon":-61.63452,"lat":12.18622,"pop":0},{"id":3580195,"name":"La Digue","alt":["La Didue"],"lon":-61.64624,"lat":12.11272,"pop":0},{"id":3580194,"name":"La Femme","lon":-61.70423,"lat":12.04109,"pop":0},{"id":3580193,"name":"La Filette","lon":-61.63969,"lat":12.14052,"pop":0},{"id":3580192,"name":"La Fortune","lon":-61.63474,"lat":12.21935,"pop":0},{"id":3580187,"name":"La Mode","lon":-61.64051,"lat":12.21619,"pop":0},{"id":3580188,"name":"La Mode","lon":-61.73407,"lat":12.06704,"pop":0},{"id":3580183,"name":"La Poterie","lon":-61.60924,"lat":12.17204,"pop":0},{"id":3580198,"name":"Laborie","lon":-61.72797,"lat":12.04119,"pop":0},{"id":3580186,"name":"Lance aux Épines","alt":["L'Anse Aux Epines"],"lon":-61.75634,"lat":11.99848,"pop":0},{"id":3580175,"name":"Laura","lon":-61.69756,"lat":12.03801,"pop":0},{"id":11281260,"name":"Lauriston","lon":-61.47256,"lat":12.47358,"pop":0},{"id":3580163,"name":"Levera","lon":-61.63217,"lat":12.22232,"pop":0},{"id":3580161,"name":"Levera Development","lon":-61.61467,"lat":12.21017,"pop":0},{"id":3580141,"name":"Lower Capitol","lon":-61.66939,"lat":12.11974,"pop":0},{"id":3580140,"name":"Lower La Tante","lon":-61.64643,"lat":12.05252,"pop":0},{"id":3580139,"name":"Lower La Taste","alt":["La Taste"],"lon":-61.62266,"lat":12.19482,"pop":0},{"id":3580138,"name":"Lower Pearls","alt":["Lower Pearl"],"lon":-61.6264,"lat":12.14151,"pop":0},{"id":3580137,"name":"Lower Woburn","alt":["Mount Desir"],"lon":-61.73552,"lat":12.01375,"pop":0},{"id":3580136,"name":"Mabouya","lon":-61.72988,"lat":12.14844,"pop":0},{"id":8030387,"name":"Magazine Beach","lon":-61.78196,"lat":12.01239,"pop":0},{"id":3580131,"name":"Mahot","lon":-61.63711,"lat":12.05927,"pop":0},{"id":3580127,"name":"Mamma Cannes","lon":-61.65126,"lat":12.0654,"pop":0},{"id":3580125,"name":"Mango","lon":-61.72307,"lat":12.08844,"pop":0},{"id":3580124,"name":"Maran","lon":-61.72357,"lat":12.17445,"pop":0},{"id":3580120,"name":"Mardigras","lon":-61.72396,"lat":12.05072,"pop":0},{"id":3580121,"name":"Mardigras","lon":-61.71508,"lat":12.05577,"pop":0},{"id":3580119,"name":"Marian","lon":-61.72611,"lat":12.02217,"pop":0},{"id":3580118,"name":"Marigot","lon":-61.74422,"lat":12.12294,"pop":0},{"id":3580116,"name":"Marli","lon":-61.64142,"lat":12.22036,"pop":0},{"id":3580114,"name":"Marlmount","lon":-61.65404,"lat":12.05138,"pop":0},{"id":3580112,"name":"Marquis","lon":-61.62809,"lat":12.10498,"pop":0},{"id":3580106,"name":"Maulti","lon":-61.67015,"lat":12.04133,"pop":0},{"id":3580103,"name":"Meldrum","lon":-61.43333,"lat":12.5,"pop":0},{"id":3580095,"name":"Mirabeau","alt":["Merebeau"],"lon":-61.64615,"lat":12.12745,"pop":0},{"id":3580093,"name":"Molinière","alt":["Maliniere","Moliniere"],"lon":-61.75788,"lat":12.08619,"pop":0},{"id":3580091,"name":"Mon Plaisir","lon":-61.72912,"lat":12.13093,"pop":0},{"id":3580090,"name":"Mon Repos","lon":-61.67814,"lat":12.04623,"pop":0},{"id":3580088,"name":"Mont Tout","lon":-61.75465,"lat":12.02354,"pop":0},{"id":3580089,"name":"Montreuil","lon":-61.64653,"lat":12.18939,"pop":0},{"id":3580084,"name":"Morne Docteur","lon":-61.75,"lat":12.1,"pop":0},{"id":3580083,"name":"Morne Fendue","alt":["Morne Fondue"],"lon":-61.63271,"lat":12.20991,"pop":0},{"id":3580080,"name":"Morne Jaloux","lon":-61.69453,"lat":12.13942,"pop":0},{"id":3580081,"name":"Morne Jaloux","lon":-61.7347,"lat":12.03066,"pop":0},{"id":3580079,"name":"Morne Jaloux Ridge","lon":-61.735,"lat":12.03966,"pop":0},{"id":3580078,"name":"Morne Longue","lon":-61.68698,"lat":12.12166,"pop":0},{"id":3580077,"name":"Morne Rouge","lon":-61.77157,"lat":12.01762,"pop":0},{"id":3580074,"name":"Morne Tranquille","lon":-61.69059,"lat":12.06009,"pop":0},{"id":3580073,"name":"Mount Agnes","lon":-61.66744,"lat":12.06936,"pop":0},{"id":3580072,"name":"Mount Airy","lon":-61.71974,"lat":12.04364,"pop":0},{"id":3580071,"name":"Mount Alexander","lon":-61.65,"lat":12.21667,"pop":0},{"id":3580070,"name":"Mount Carmel","alt":["Mont Carmel"],"lon":-61.63977,"lat":12.09178,"pop":0},{"id":3580069,"name":"Mount Cassell Land Settlement","lon":-61.65529,"lat":12.06864,"pop":0},{"id":3580068,"name":"Mount Cenis","lon":-61.70704,"lat":12.17289,"pop":0},{"id":3580067,"name":"Mount Craven","lon":-61.64967,"lat":12.22106,"pop":0},{"id":3580065,"name":"Mount Fann","lon":-61.62567,"lat":12.09094,"pop":0},{"id":3580063,"name":"Mount Gay","lon":-61.73921,"lat":12.06009,"pop":0},{"id":3580057,"name":"Mount Helicon","lon":-61.73917,"lat":12.05466,"pop":0},{"id":3580055,"name":"Mount Horne","lon":-61.6439,"lat":12.14438,"pop":0},{"id":3580052,"name":"Mount Moritz","alt":["Mont Moritz","Mount Marice","Mount Morice"],"lon":-61.74687,"lat":12.08127,"pop":0},{"id":3580051,"name":"Mount Moritz Land Settlement","lon":-61.74646,"lat":12.08394,"pop":0},{"id":3580050,"name":"Mount Nesbit","lon":-61.72852,"lat":12.14824,"pop":0},{"id":3580049,"name":"Mount Nesbit Land Settlement","lon":-61.71947,"lat":12.13967,"pop":0},{"id":3580045,"name":"Mount Pleasant","lon":-61.43469,"lat":12.47869,"pop":0},{"id":3580046,"name":"Mount Pleasant","lon":-61.71351,"lat":12.04982,"pop":0},{"id":3580042,"name":"Mount Rich","lon":-61.64633,"lat":12.19404,"pop":0},{"id":3580038,"name":"Mount Rose","lon":-61.62769,"lat":12.18829,"pop":0},{"id":3580039,"name":"Mount Rose","lon":-61.70905,"lat":12.04605,"pop":0},{"id":3580037,"name":"Mount Royal","lon":-61.74153,"lat":12.05551,"pop":0},{"id":3580036,"name":"Mount Stanhope","lon":-61.68464,"lat":12.18577,"pop":0},{"id":3580035,"name":"Mount Weldale","lon":-61.7455,"lat":12.05413,"pop":0},{"id":3580033,"name":"Mount William","lon":-61.67186,"lat":12.21988,"pop":0},{"id":3580034,"name":"Mount William","lon":-61.68104,"lat":12.06872,"pop":0},{"id":3580032,"name":"Moya","lon":-61.62325,"lat":12.15347,"pop":0},{"id":3580031,"name":"Munich","lon":-61.64477,"lat":12.08322,"pop":0},{"id":11281264,"name":"Nahoo","lon":-61.38333,"lat":12.51455,"pop":0},{"id":3580026,"name":"New Hampshire","lon":-61.72555,"lat":12.08377,"pop":0},{"id":3580025,"name":"Nianganfoix","lon":-61.6751,"lat":12.12191,"pop":0},{"id":3580023,"name":"Nonpareil","alt":["Crayfish"],"lon":-61.69031,"lat":12.21174,"pop":0},{"id":11964151,"name":"Observatory","lon":-61.74801,"lat":12.05499,"pop":0},{"id":3580020,"name":"Paddock","lon":-61.74366,"lat":12.04518,"pop":0},{"id":3580015,"name":"Panorama","lon":-61.65015,"lat":12.22015,"pop":0},{"id":3580014,"name":"Paraclete","lon":-61.64325,"lat":12.15083,"pop":0},{"id":3580013,"name":"Parade","lon":-61.73584,"lat":12.04889,"pop":0},{"id":3580011,"name":"Paradise","lon":-61.69329,"lat":12.14439,"pop":0},{"id":3580012,"name":"Paradise","lon":-61.62304,"lat":12.13716,"pop":0},{"id":3580009,"name":"Pearls","lon":-61.62344,"lat":12.14953,"pop":0},{"id":3580006,"name":"Pêcher","lon":-61.68388,"lat":12.11987,"pop":0},{"id":3580005,"name":"Peggy’s Whim","alt":["Peggy's Whim","Peggys Whim"],"lon":-61.64033,"lat":12.17437,"pop":0},{"id":3580004,"name":"Perdmontemps","lon":-61.7009,"lat":12.04766,"pop":0},{"id":3580002,"name":"Petit Bacaye","lon":-61.69463,"lat":12.01827,"pop":0},{"id":3579999,"name":"Petit Balthazar","lon":-61.66702,"lat":12.10176,"pop":0},{"id":3579998,"name":"Petit Bouc","lon":-61.75075,"lat":12.01916,"pop":0},{"id":3579996,"name":"Petit Calivigny","lon":-61.71145,"lat":12.00641,"pop":0},{"id":3579990,"name":"Petit Étang","lon":-61.68698,"lat":12.06442,"pop":0},{"id":3579988,"name":"Pierre Marie","lon":-61.65108,"lat":12.06583,"pop":0},{"id":3579984,"name":"Plaisance","lon":-61.64349,"lat":12.09819,"pop":0},{"id":3579981,"name":"Plaisance Land Settlement","lon":-61.69062,"lat":12.14765,"pop":0},{"id":3579977,"name":"Pomme Rose","lon":-61.65461,"lat":12.05638,"pop":0},{"id":3579974,"name":"Post Royal","lon":-61.63651,"lat":12.09983,"pop":0},{"id":3579970,"name":"Prospect","alt":["Le Sausos"],"lon":-61.66305,"lat":12.22355,"pop":0},{"id":3579969,"name":"Providence","lon":-61.67447,"lat":12.05215,"pop":0},{"id":3579966,"name":"Pyrénées","lon":-61.67394,"lat":12.13746,"pop":0},{"id":3579961,"name":"Radix","lon":-61.72609,"lat":12.06168,"pop":0},{"id":3579960,"name":"Ravine","lon":-61.73597,"lat":12.06263,"pop":0},{"id":3579954,"name":"Retreat","lon":-61.71777,"lat":12.07674,"pop":0},{"id":3579955,"name":"Retreat","lon":-61.66,"lat":12.06596,"pop":0},{"id":3579951,"name":"Richmond","lon":-61.73241,"lat":12.10256,"pop":0},{"id":3579952,"name":"Richmond","lon":-61.64689,"lat":12.10603,"pop":0},{"id":3579949,"name":"Richmond Hill","lon":-61.73955,"lat":12.05007,"pop":0},{"id":3579946,"name":"River Sallee","alt":["Riviere Sallee","Rivière Sallee"],"lon":-61.61456,"lat":12.19853,"pop":0},{"id":3579943,"name":"Rose Hill","lon":-61.62466,"lat":12.21086,"pop":0},{"id":3579942,"name":"Rosemont","lon":-61.70719,"lat":12.15481,"pop":0},{"id":3579939,"name":"Ruth Howard","lon":-61.75559,"lat":12.01668,"pop":0},{"id":3579935,"name":"Saint Cloud","lon":-61.63591,"lat":12.12512,"pop":0},{"id":3579933,"name":"Saint Cyr","lon":-61.6496,"lat":12.12775,"pop":0},{"id":3579934,"name":"Saint Cyr","lon":-61.68321,"lat":12.1144,"pop":0},{"id":3579931,"name":"Saint David’s","lon":-61.66875,"lat":12.04903,"pop":1321},{"id":3579925,"name":"Saint George's","alt":["Fort Royal","Georgetown","Grenada City","Lewis","Port Louis","Port Royal","Saint George","Saint George.s","Saint-Georges","Sent Dzordzas","Sent Džordžas","Sent Tzortzes","Sent-Dzhorzhes","St Georges","St. George's","seinteujojiseu","sentojojizu","snt g'wrg'","Σεντ Τζόρτζες","Сент-Джоржес","סנט ג'ורג'","セントジョージズ","세인트조지스"],"lon":-61.75226,"lat":12.05288,"pop":7500},{"id":3579920,"name":"Saint James","lon":-61.65829,"lat":12.1147,"pop":0},{"id":3579917,"name":"Saint John","lon":-61.63823,"lat":12.17081,"pop":0},{"id":3579918,"name":"Saint John","lon":-61.63333,"lat":12.11667,"pop":0},{"id":3579914,"name":"Saint Margaret","lon":-61.68332,"lat":12.10144,"pop":0},{"id":3579909,"name":"Saint Mary","lon":-61.70153,"lat":12.15048,"pop":0},{"id":3579908,"name":"Saint Omer","lon":-61.67954,"lat":12.14063,"pop":0},{"id":3579904,"name":"Saint Paul’s","lon":-61.71598,"lat":12.04933,"pop":0},{"id":3579905,"name":"Saint Paul’s","lon":-61.72912,"lat":12.04678,"pop":0},{"id":3579894,"name":"Sans Souci","lon":-61.7455,"lat":12.05681,"pop":0},{"id":3579891,"name":"Sauteurs","alt":["Sautiers"],"lon":-61.63917,"lat":12.21833,"pop":1320},{"id":3579887,"name":"Simon","lon":-61.61479,"lat":12.13784,"pop":0},{"id":3579882,"name":"Six Roads","lon":-61.46098,"lat":12.46798,"pop":0},{"id":3579880,"name":"Snug Corner","lon":-61.72978,"lat":12.07601,"pop":0},{"id":3579879,"name":"Soubise","lon":-61.62859,"lat":12.11216,"pop":0},{"id":3579872,"name":"Springs","lon":-61.7442,"lat":12.04086,"pop":0},{"id":3579870,"name":"Syracuse","lon":-61.68158,"lat":12.03453,"pop":0},{"id":3579868,"name":"Tanteen","lon":-61.74752,"lat":12.04838,"pop":0},{"id":3579866,"name":"Telescope","lon":-61.61038,"lat":12.12726,"pop":0},{"id":3579863,"name":"Tempé","alt":["Tempe","Temple"],"lon":-61.73673,"lat":12.05645,"pop":0},{"id":3579861,"name":"Terre Cannes","lon":-61.67377,"lat":12.0686,"pop":0},{"id":3579859,"name":"The Bocas","lon":-61.73405,"lat":12.04424,"pop":0},{"id":3579858,"name":"The Cliff","lon":-61.7345,"lat":12.02632,"pop":0},{"id":3579857,"name":"The Lance","lon":-61.72953,"lat":12.16742,"pop":0},{"id":3579856,"name":"The Lime","lon":-61.76071,"lat":12.01669,"pop":0},{"id":3579855,"name":"The Park","lon":-61.71717,"lat":12.05278,"pop":0},{"id":3579860,"name":"Thebaide","alt":["Thebaid"],"lon":-61.67066,"lat":12.05304,"pop":0},{"id":3579854,"name":"Tivoli","lon":-61.61641,"lat":12.17268,"pop":0},{"id":3579852,"name":"Trevellan","lon":-61.63764,"lat":12.21701,"pop":0},{"id":3579851,"name":"Tricolar","lon":-61.65282,"lat":12.18641,"pop":0},{"id":3579849,"name":"True Blue","lon":-61.76851,"lat":12.00409,"pop":0},{"id":3579842,"name":"Union","lon":-61.67079,"lat":12.20715,"pop":0},{"id":3579843,"name":"Union","lon":-61.65783,"lat":12.20897,"pop":0},{"id":3579840,"name":"Union Village","alt":["Union"],"lon":-61.63475,"lat":12.10491,"pop":0},{"id":3579839,"name":"Upper Capitol","lon":-61.66309,"lat":12.11485,"pop":0},{"id":3579838,"name":"Upper La Tante","lon":-61.65,"lat":12.05,"pop":0},{"id":3579837,"name":"Upper La Taste","alt":["La Taste"],"lon":-61.61813,"lat":12.19302,"pop":0},{"id":3579836,"name":"Upper Pearls","alt":["Upper Pearl"],"lon":-61.61998,"lat":12.15795,"pop":0},{"id":3579835,"name":"Vendôme","lon":-61.71629,"lat":12.0802,"pop":0},{"id":3579833,"name":"Victoria","alt":["Grand Pauve","Grand Pauvre","Saint Mark","Saint Mark Village","Saint Marks"],"lon":-61.70677,"lat":12.19021,"pop":2256},{"id":3579832,"name":"Vincennes","lon":-61.68926,"lat":12.05304,"pop":0},{"id":3579831,"name":"Vineyard","lon":-61.69958,"lat":12.05357,"pop":0},{"id":3579830,"name":"Waltham","lon":-61.70112,"lat":12.20049,"pop":0},{"id":3579828,"name":"Welcome Hall","lon":-61.65472,"lat":12.20975,"pop":0},{"id":3579825,"name":"Westerhall Land Settlement","lon":-61.70094,"lat":12.01906,"pop":0},{"id":3579824,"name":"Westerhall Point","alt":["Westerhall"],"lon":-61.70076,"lat":12.00956,"pop":0},{"id":3579821,"name":"White Gun","lon":-61.73883,"lat":12.052,"pop":0},{"id":3579819,"name":"Willis","lon":-61.71957,"lat":12.0856,"pop":0},{"id":3579818,"name":"Windsor","lon":-61.66838,"lat":12.13246,"pop":0},{"id":3579817,"name":"Windsor Castle","lon":-61.69876,"lat":12.04521,"pop":0},{"id":3579816,"name":"Windsor Forest","lon":-61.69339,"lat":12.05614,"pop":0},{"id":3579815,"name":"Windward","lon":-61.43033,"lat":12.51239,"pop":0},{"id":3579814,"name":"Woburn","alt":["Woborn"],"lon":-61.7351,"lat":12.02121,"pop":0}]