[{"id":2413991,"name":"Abeokuta","lon":-14.61667,"lat":13.36667,"pop":0},{"id":2413990,"name":"Abuko","lon":-16.65583,"lat":13.40417,"pop":6572},{"id":2413988,"name":"Ahalulie","alt":["Anulie","Sare Jabel"],"lon":-14.91667,"lat":13.46667,"pop":0},{"id":2413987,"name":"Alaji Yoro","lon":-16.28389,"lat":13.52306,"pop":0},{"id":2413985,"name":"Albadarr","alt":["Albreda"],"lon":-16.38667,"lat":13.33444,"pop":0},{"id":2413984,"name":"Alhaji Abdoulie Liegh","lon":-15.28333,"lat":13.7,"pop":0},{"id":2413983,"name":"Alhaji Bajonkoto","lon":-15.81667,"lat":13.53333,"pop":0},{"id":2413982,"name":"Alhaji Dembo","lon":-14.88333,"lat":13.46667,"pop":0},{"id":2413981,"name":"Alicali Kunda","alt":["Alical Kunda"],"lon":-15.73333,"lat":13.53333,"pop":0},{"id":2413980,"name":"Alimaka","alt":["Keralima"],"lon":-14.48333,"lat":13.46667,"pop":0},{"id":2413979,"name":"Aljamdu","alt":["Alijamadu"],"lon":-16.45556,"lat":13.4,"pop":0},{"id":2413977,"name":"Aljamdu Kamara Kunda","lon":-16.45,"lat":13.4,"pop":0},{"id":2413976,"name":"Aljamdu Kanteh Kunda","lon":-16.45,"lat":13.4,"pop":0},{"id":2413974,"name":"Alla Kunda","lon":-16.01139,"lat":13.16722,"pop":0},{"id":2413973,"name":"Alla Tenta","lon":-14.66667,"lat":13.45,"pop":0},{"id":2413975,"name":"Allahein","lon":-16.74694,"lat":13.07278,"pop":0},{"id":2413971,"name":"Alohungari","lon":-14.23333,"lat":13.31667,"pop":0},{"id":2413970,"name":"Alohungari Banta","lon":-14.13333,"lat":13.26667,"pop":0},{"id":2413969,"name":"Alpha","lon":-16.35,"lat":13.46667,"pop":0},{"id":2413968,"name":"Alpha Hamjatu","lon":-16.31667,"lat":13.46667,"pop":0},{"id":2413967,"name":"Alpha N’Ding","lon":-16.35,"lat":13.46667,"pop":0},{"id":2413965,"name":"Amdalai","alt":["Amdulai","Amdulay","Ker Serigne Njaga","Sarin N'Jaga","Sarin N’Jaga"],"lon":-16.7225,"lat":13.43194,"pop":0},{"id":2413966,"name":"Amdallai","alt":["Darsilam"],"lon":-16.42278,"lat":13.58833,"pop":0},{"id":2413964,"name":"Ampaya","lon":-16.69083,"lat":13.4525,"pop":0},{"id":2413963,"name":"Anias Kunda","lon":-15.18333,"lat":13.56667,"pop":123},{"id":2413962,"name":"Arangalain","alt":["Erangalain"],"lon":-16.14694,"lat":13.20667,"pop":0},{"id":2413961,"name":"Arongkoli Kunda","lon":-15.86667,"lat":13.23333,"pop":0},{"id":2413954,"name":"Ba Duma","lon":-16.33333,"lat":13.35,"pop":0},{"id":2413959,"name":"Babilon Gunjur","lon":-16.74611,"lat":13.21333,"pop":0},{"id":2413957,"name":"Babou Jobe","lon":-15.3,"lat":13.6,"pop":236},{"id":2413956,"name":"Badari","lon":-14.1,"lat":13.33333,"pop":600},{"id":2413955,"name":"Badja Kunda","lon":-14.05,"lat":13.46667,"pop":0},{"id":2413953,"name":"Badume","lon":-15.36667,"lat":13.4,"pop":0},{"id":2413951,"name":"Bafuloto","lon":-16.6275,"lat":13.31889,"pop":0},{"id":2413950,"name":"Bafulotor","lon":-16.31639,"lat":13.43972,"pop":0},{"id":2413949,"name":"Bahdad","lon":-15.1,"lat":13.61667,"pop":0},{"id":2413948,"name":"Bahen","lon":-15.41667,"lat":13.58333,"pop":0},{"id":2413947,"name":"Bahoom","lon":-16.32861,"lat":13.57139,"pop":0},{"id":2413946,"name":"Bai Ba","alt":["Baiaba","Niani Baia"],"lon":-14.5,"lat":13.5,"pop":0},{"id":2413943,"name":"Bai N’Ding","lon":-14.5,"lat":13.5,"pop":0},{"id":2413940,"name":"Bai Tenda","lon":-15.41667,"lat":13.45,"pop":0},{"id":2413944,"name":"Baien","lon":-16.05,"lat":13.56667,"pop":0},{"id":2413942,"name":"Baintengkay","alt":["Bintinki"],"lon":-15.4,"lat":13.66667,"pop":0},{"id":2413941,"name":"Baipal","lon":-16.09972,"lat":13.17611,"pop":0},{"id":2413939,"name":"Bajagar Dumbutu","alt":["Cibagnari"],"lon":-16.11806,"lat":13.20944,"pop":0},{"id":2413937,"name":"Bajagar Jola","alt":["Bajagar"],"lon":-16.12417,"lat":13.20111,"pop":0},{"id":2413938,"name":"Bajagar Jola","lon":-16.11889,"lat":13.19444,"pop":0},{"id":2413935,"name":"Bajana","alt":["Baijana"],"lon":-15.88333,"lat":13.31667,"pop":907},{"id":2413936,"name":"Bajana","alt":["Baijana"],"lon":-16.39833,"lat":13.18694,"pop":0},{"id":2413934,"name":"Bajankoto","alt":["Perai Memadi"],"lon":-14.25,"lat":13.38333,"pop":0},{"id":2413933,"name":"Bajilo","lon":-16.21417,"lat":13.21,"pop":0},{"id":2413932,"name":"Bajiran","lon":-15.96667,"lat":13.28333,"pop":59},{"id":2413928,"name":"Bajon Koto","lon":-15.56667,"lat":13.46667,"pop":0},{"id":2413929,"name":"Bajon Koto","alt":["Sare Hamady"],"lon":-15.61667,"lat":13.36667,"pop":0},{"id":2413931,"name":"Bajong Koto","lon":-16.64944,"lat":13.22972,"pop":0},{"id":2413927,"name":"Bajong Kotor","alt":["Bajon Kotor"],"lon":-16.66167,"lat":13.41167,"pop":0},{"id":2413930,"name":"Bajonkoto","lon":-16.09556,"lat":13.23,"pop":0},{"id":2413925,"name":"Bakadagy","alt":["Hamdalai"],"lon":-15.01667,"lat":13.71667,"pop":0},{"id":2413926,"name":"Bakadagy","alt":["Bakadaji"],"lon":-14.38333,"lat":13.3,"pop":1979},{"id":2413924,"name":"Bakadaji Kunda","alt":["Bakadaji"],"lon":-14.83333,"lat":13.65,"pop":0},{"id":2413923,"name":"Bakalarr","alt":["Bakalari","Bakolar","Sissora"],"lon":-16.42667,"lat":13.42167,"pop":0},{"id":2413922,"name":"Bakang","lon":-16.14444,"lat":13.50444,"pop":458},{"id":2413921,"name":"Bakary Sambou","lon":-16.64417,"lat":13.23889,"pop":0},{"id":2413920,"name":"Bakau","alt":["ba kao","bakau","bakaw","باكاو","巴考","바카우"],"lon":-16.68194,"lat":13.47806,"pop":43098},{"id":2413919,"name":"Bakau Kunku","lon":-16.6825,"lat":13.45972,"pop":0},{"id":2413918,"name":"Bakau NDing","lon":-16.68361,"lat":13.47,"pop":0},{"id":2413917,"name":"Bakendik","alt":["Bakkendik"],"lon":-16.45361,"lat":13.45611,"pop":0},{"id":2593156,"name":"Bakote","lon":-16.70028,"lat":13.46583,"pop":0},{"id":2413915,"name":"Bakoti","alt":["Bakoteh","Bakotti"],"lon":-16.69833,"lat":13.43,"pop":0},{"id":2413913,"name":"Balanghar Ker N’Derry","alt":["Balangar","Balanghar Ker N'Derry","Ballangar"],"lon":-15.39936,"lat":13.66411,"pop":0},{"id":2413912,"name":"Balanghar Njoben","lon":-15.41667,"lat":13.66667,"pop":0},{"id":2413911,"name":"Balanghar Wharf Town","alt":["Balangar","Balanghar"],"lon":-15.36238,"lat":13.66716,"pop":22},{"id":2413909,"name":"Bali","alt":["Balli"],"lon":-16.11722,"lat":13.5675,"pop":0},{"id":2413908,"name":"Bali Hali Hawah","alt":["Bali Hali Howeh"],"lon":-16.11167,"lat":13.59,"pop":0},{"id":11184156,"name":"Bali Mandinka","lon":-16.09047,"lat":13.49292,"pop":0},{"id":2413907,"name":"Balingho","alt":["Balingo","Balingo Town"],"lon":-15.60692,"lat":13.49341,"pop":252},{"id":2413906,"name":"Ballen","lon":-16.09472,"lat":13.16611,"pop":0},{"id":2413905,"name":"Balo Ibra","lon":-15.41667,"lat":13.58333,"pop":0},{"id":2413904,"name":"Balo Omar","lon":-15.43333,"lat":13.58333,"pop":0},{"id":2413902,"name":"Bamba","lon":-15.28333,"lat":13.63333,"pop":0},{"id":2413899,"name":"Bamba Jallow","lon":-15.31667,"lat":13.56667,"pop":0},{"id":2413896,"name":"Bamba Kolong","alt":["Bamba Kolon"],"lon":-15.13333,"lat":13.6,"pop":70},{"id":2413898,"name":"Bambako","alt":["Bambaka"],"lon":-15.76667,"lat":13.4,"pop":381},{"id":2413897,"name":"Bambako Kura","lon":-15.3,"lat":13.61667,"pop":0},{"id":2413895,"name":"Bambali","alt":["Bambale","Bombale"],"lon":-15.33333,"lat":13.48333,"pop":1255},{"id":2413894,"name":"Bambatenda","lon":-15.58333,"lat":13.51667,"pop":0},{"id":2413892,"name":"Banatenda","alt":["Banna Tenda"],"lon":-14.48333,"lat":13.38333,"pop":0},{"id":2413891,"name":"Bandinto","lon":-16.74361,"lat":13.08417,"pop":0},{"id":2413890,"name":"Banenko Simaila","alt":["Banenko"],"lon":-14.13333,"lat":13.28333,"pop":0},{"id":2413888,"name":"Bangali","lon":-16.415,"lat":13.51083,"pop":0},{"id":2413889,"name":"Bangali","lon":-16.41222,"lat":13.50611,"pop":0},{"id":2413887,"name":"Bangaly","lon":-16.45,"lat":13.48333,"pop":24},{"id":2413886,"name":"Bangasiya Fali","lon":-14.13333,"lat":13.26667,"pop":59},{"id":2413885,"name":"Bangherr","lon":-15.26667,"lat":13.7,"pop":212},{"id":2413881,"name":"Bani","alt":["Banni"],"lon":-14.73333,"lat":13.55,"pop":524},{"id":2413882,"name":"Bani","lon":-14.6,"lat":13.51667,"pop":0},{"id":2413883,"name":"Bani","lon":-14.25,"lat":13.38333,"pop":0},{"id":2413884,"name":"Bani","lon":-13.86667,"lat":13.38333,"pop":0},{"id":2413880,"name":"Baniakang","alt":["Baniakan"],"lon":-16.7475,"lat":13.32556,"pop":0},{"id":2413879,"name":"Banicuba Yoroyel","lon":-14.53333,"lat":13.43333,"pop":0},{"id":2413878,"name":"Baniko","lon":-14.43333,"lat":13.26667,"pop":0},{"id":2413877,"name":"Banja","alt":["Bahwa"],"lon":-14.28333,"lat":13.26667,"pop":0},{"id":2413876,"name":"Banjul","alt":["BJL","Bandzhul","Bandzul","Bandzula","Bandzulis","Bandżul","Bandžula","Bandžulis","Banjoul","Banjulo","Banyul","Banzhul","Banĵulo","Bathurst","Bathurstopolis","Mpanzoul","bajula","ban cul","ban zhu","ban zhu er","banjul","banjula","banjuli","banjuru","banjwl","bngwl","pancul","Μπανζούλ","Банджул","Банжул","Банџул","Банҷул","Բանջուլ","באנזשול","בנגול","بانجول","बंजुल","बाञ्जुल","ਬੰਜੁਲ","பஞ்சுல்","บันจูล","བཱན་ཇཱུ་ལ།","ბანჯული","ባንጁል","バンジュール","班珠尔","班竹","반줄"],"lon":-16.57803,"lat":13.45274,"pop":34589},{"id":2413874,"name":"Banjul NDing","alt":["Little Banjul"],"lon":-16.65722,"lat":13.37333,"pop":0},{"id":2413871,"name":"Bankuba Samboido","lon":-14.53333,"lat":13.43333,"pop":0},{"id":2413870,"name":"Bankulling","lon":-16.0725,"lat":13.29667,"pop":34},{"id":2413869,"name":"Bankuwule","lon":-14.13333,"lat":13.48333,"pop":0},{"id":2413868,"name":"Banni","lon":-16.00694,"lat":13.52139,"pop":0},{"id":2413867,"name":"Banniba Jonki","alt":["Bani Bajenko"],"lon":-15.23333,"lat":13.41667,"pop":0},{"id":2413866,"name":"Bansang","alt":["Bansang Tenda","Barsangsang"],"lon":-14.65,"lat":13.43333,"pop":7615},{"id":2413842,"name":"Banta Su","lon":-15.51667,"lat":13.55,"pop":0},{"id":2413865,"name":"Bantam Bilo","lon":-16.71528,"lat":13.34417,"pop":0},{"id":2413844,"name":"Bantan Yima","lon":-14.9,"lat":13.46667,"pop":0},{"id":2413864,"name":"Bantanding Sancha","lon":-16.28333,"lat":13.58333,"pop":0},{"id":2413863,"name":"Bantanding Toranka","alt":["Bantanding"],"lon":-16.25528,"lat":13.58806,"pop":0},{"id":2413861,"name":"Bantang Killing","alt":["Banta Killi"],"lon":-15.7,"lat":13.58333,"pop":792},{"id":2413862,"name":"Bantang Killing","lon":-16.41472,"lat":13.34528,"pop":0},{"id":2413860,"name":"Bantang Koto","lon":-15.3,"lat":13.65,"pop":32},{"id":2413859,"name":"Bantang Kotor","lon":-14.21667,"lat":13.31667,"pop":0},{"id":2413858,"name":"Bantango Koto","lon":-14.55,"lat":13.55,"pop":293},{"id":2413857,"name":"Bantanjang","lon":-15.95,"lat":13.28333,"pop":63},{"id":2413855,"name":"Bantanto","lon":-15.15,"lat":13.58333,"pop":326},{"id":2413853,"name":"Bantanto Jawara Jallow","alt":["Bantanta","Bantanto"],"lon":-15.25,"lat":13.7,"pop":0},{"id":2413852,"name":"Bantanto Ker Daburi","lon":-15.23333,"lat":13.68333,"pop":0},{"id":2413851,"name":"Bantanto Ker Daburie","lon":-15.25,"lat":13.7,"pop":0},{"id":2413850,"name":"Bantanto Ker Ebrima Kah","alt":["Bantanto Ebrima Kah"],"lon":-15.25,"lat":13.7,"pop":0},{"id":2413849,"name":"Bantanto Ker Olai","lon":-15.23333,"lat":13.7,"pop":0},{"id":2413848,"name":"Bantanto Ker Oldi","lon":-15.26667,"lat":13.7,"pop":0},{"id":2413847,"name":"Bantanto Ker Samba Olo","lon":-15.23333,"lat":13.68333,"pop":0},{"id":2413846,"name":"Bantanto Ker Sulay","lon":-15.23333,"lat":13.7,"pop":0},{"id":2413845,"name":"Bantanto Musa Bah","lon":-15.25,"lat":13.7,"pop":415},{"id":2413843,"name":"Bantasu","lon":-16.1,"lat":13.32139,"pop":0},{"id":2413839,"name":"Banto Nding","lon":-14.08333,"lat":13.46667,"pop":999},{"id":2413838,"name":"Banu Kunda","lon":-14.01667,"lat":13.38333,"pop":0},{"id":2413836,"name":"Barajali","alt":["Barrajalli"],"lon":-14.95,"lat":13.6,"pop":0},{"id":2413835,"name":"Barajali Tenda","lon":-14.95,"lat":13.58333,"pop":143},{"id":2413834,"name":"Baraji Kunda","alt":["Barajali Kunda"],"lon":-14,"lat":13.4,"pop":0},{"id":2413832,"name":"Baria","alt":["Barria"],"lon":-16.13333,"lat":13.53333,"pop":0},{"id":2413833,"name":"Baria","lon":-16.4,"lat":13.33333,"pop":0},{"id":2413829,"name":"Baro Kunda","lon":-15.31667,"lat":13.65,"pop":0},{"id":2413830,"name":"Baro Kunda","alt":["Barukunda"],"lon":-15.26667,"lat":13.48333,"pop":1991},{"id":2413831,"name":"Baro Kunda","alt":["Barrakunda"],"lon":-14.11667,"lat":13.48333,"pop":0},{"id":2413828,"name":"Baro Kunda Tenda","lon":-15.3,"lat":13.48333,"pop":0},{"id":2413827,"name":"Barra","lon":-16.54556,"lat":13.48278,"pop":5323},{"id":2413826,"name":"Barra Kunda","lon":-13.8,"lat":13.55,"pop":0},{"id":2413823,"name":"Barrow Kunda","lon":-16.06694,"lat":13.23028,"pop":0},{"id":2413822,"name":"Base Nding","lon":-14.2,"lat":13.3,"pop":0},{"id":2413821,"name":"Basori","alt":["Bassori"],"lon":-16.59194,"lat":13.22556,"pop":0},{"id":2413818,"name":"Basse Santa Su","alt":["Bas Santa Su","Basse","ba sai sheng su","basesantasu","バセ・サンタ・ス","巴塞聖蘇","바세산타수"],"lon":-14.21373,"lat":13.30995,"pop":14380},{"id":2413820,"name":"Bassen","lon":-16.27528,"lat":13.17389,"pop":0},{"id":2413819,"name":"Bassen Kansana","lon":-16.06278,"lat":13.16639,"pop":0},{"id":2413817,"name":"Bassik","lon":-15.5,"lat":13.53333,"pop":270},{"id":2413816,"name":"Batelling","alt":["Battelling"],"lon":-15.85,"lat":13.4,"pop":347},{"id":2413815,"name":"Batending Kajara","alt":["Batending","Battending","Bottending"],"lon":-16.31778,"lat":13.25667,"pop":0},{"id":2413814,"name":"Bati","lon":-15.13333,"lat":13.58333,"pop":0},{"id":2413813,"name":"Bati Hai","lon":-15.2,"lat":13.7,"pop":0},{"id":2413812,"name":"Bati Jaha","lon":-15.11667,"lat":13.75,"pop":427},{"id":2413811,"name":"Bati Jama Gen","lon":-15.2,"lat":13.71667,"pop":0},{"id":2413810,"name":"Bati Ndar","alt":["Bati N'Da","Bati N’Da","Batti N'Dau","Batti N’Dau"],"lon":-15.2,"lat":13.7,"pop":822},{"id":2413809,"name":"Bati Yungo","alt":["Yungo"],"lon":-15.2,"lat":13.71667,"pop":138},{"id":2413808,"name":"Bator Sateh","alt":["Batori Sateh"],"lon":-16.77889,"lat":13.15306,"pop":0},{"id":2413806,"name":"Battabut Denelu","lon":-16.15361,"lat":13.19361,"pop":0},{"id":2413805,"name":"Battabut Kantora","alt":["Battabut"],"lon":-16.16,"lat":13.20639,"pop":0},{"id":2413804,"name":"Battending","alt":["Batena"],"lon":-16.21639,"lat":13.18194,"pop":0},{"id":2413803,"name":"Batukunku","alt":["Bakau Kunku"],"lon":-16.80083,"lat":13.32444,"pop":0},{"id":2413802,"name":"Bayarr","lon":-16.25,"lat":13.28333,"pop":0},{"id":2413801,"name":"Beeta Bukafungi","alt":["Beeta","Bita"],"lon":-16.2875,"lat":13.19056,"pop":0},{"id":2413798,"name":"Berending","alt":["Barrinding","Berrending"],"lon":-16.46444,"lat":13.49028,"pop":0},{"id":2413797,"name":"Beretto","lon":-15.58333,"lat":13.55,"pop":168},{"id":2413795,"name":"Berrending","lon":-16.74333,"lat":13.14,"pop":0},{"id":2413794,"name":"Berry Narbeh","alt":["Barry Narbeh"],"lon":-14.38333,"lat":13.45,"pop":152},{"id":2413793,"name":"Bessi","lon":-16.36194,"lat":13.19528,"pop":0},{"id":2413792,"name":"Bessi Nding","lon":-16.50139,"lat":13.21917,"pop":0},{"id":2413791,"name":"Bia Hamady","lon":-14.43333,"lat":13.46667,"pop":0},{"id":2413789,"name":"Bijiba","lon":-16.31667,"lat":13.51667,"pop":0},{"id":2413788,"name":"Bijilo","lon":-16.73,"lat":13.41806,"pop":0},{"id":2413785,"name":"Bintang","alt":["Vintang"],"lon":-16.21417,"lat":13.24972,"pop":0},{"id":2413783,"name":"Biram Giddo Ya","lon":-15.85,"lat":13.58333,"pop":0},{"id":2413782,"name":"Biram Kardo Ya","lon":-15.85,"lat":13.58333,"pop":0},{"id":2413781,"name":"Biranoya","lon":-15.53333,"lat":13.41667,"pop":53},{"id":2413779,"name":"Birom","lon":-14.43333,"lat":13.26667,"pop":0},{"id":2413778,"name":"Birong Kunda","alt":["Biram Kunda"],"lon":-15.78333,"lat":13.58333,"pop":148},{"id":2413777,"name":"Bisandugu","lon":-14.08333,"lat":13.3,"pop":0},{"id":2413776,"name":"Bissari Bajongkoto","lon":-15.9,"lat":13.2,"pop":0},{"id":2413775,"name":"Bissari Madi","alt":["Bissari","Marige"],"lon":-15.9,"lat":13.2,"pop":0},{"id":2413774,"name":"Bluntu","lon":-16.01889,"lat":13.17528,"pop":0},{"id":2413772,"name":"Bondali Jola","lon":-16.01667,"lat":13.23333,"pop":0},{"id":2413773,"name":"Bondali Jola","alt":["Bondali","Bundali"],"lon":-15.91667,"lat":13.23333,"pop":0},{"id":2413771,"name":"Bondali Tenda","alt":["Bundali"],"lon":-15.9,"lat":13.25,"pop":182},{"id":2413769,"name":"Bonto","lon":-16.55583,"lat":13.29028,"pop":0},{"id":2413770,"name":"Bonto","lon":-16.55944,"lat":13.27806,"pop":0},{"id":2413768,"name":"Boraba","alt":["Boroba","Sare Yora Beri","Sare Yoro Beri"],"lon":-14.73333,"lat":13.51667,"pop":468},{"id":2413767,"name":"Boro Kandakase","lon":-14.03333,"lat":13.41667,"pop":0},{"id":2413766,"name":"Boro Majang Kunda","alt":["Boro Manjang Kunda"],"lon":-14.03333,"lat":13.41667,"pop":0},{"id":2413765,"name":"Boro Modi Bane","lon":-14.03333,"lat":13.43333,"pop":207},{"id":2413763,"name":"Boro Sambakabaya","alt":["Boro Sambaya"],"lon":-14.03333,"lat":13.41667,"pop":0},{"id":2413764,"name":"Borong Kunda","lon":-14.6,"lat":13.63333,"pop":0},{"id":2413762,"name":"Bosa","lon":-16.72111,"lat":13.23222,"pop":0},{"id":2413760,"name":"Bowe","lon":-14.91667,"lat":13.48333,"pop":0},{"id":2413757,"name":"Brefet","lon":-14.26667,"lat":13.33333,"pop":0},{"id":2413758,"name":"Brefet","lon":-16.38139,"lat":13.24333,"pop":0},{"id":2413755,"name":"Brifu","lon":-13.93333,"lat":13.5,"pop":1292},{"id":2413750,"name":"Brikama","lon":-15.88333,"lat":13.58333,"pop":0},{"id":2413751,"name":"Brikama","lon":-15.33333,"lat":13.56667,"pop":0},{"id":2413752,"name":"Brikama","lon":-15.93333,"lat":13.31667,"pop":65},{"id":2413753,"name":"Brikama","alt":["Brikame","beulikama","brykama","bu li ka ma","burikama","Брикама","Брикаме","بریکاما","ブリカマ","布里卡馬","브리카마"],"lon":-16.64944,"lat":13.27136,"pop":77700},{"id":2413749,"name":"Brikama Ba","alt":["Brekana","Brikama"],"lon":-14.93333,"lat":13.53333,"pop":0},{"id":2413746,"name":"Brikama Nding","lon":-14.93333,"lat":13.53333,"pop":1092},{"id":2413745,"name":"Brufut","lon":-16.75139,"lat":13.38417,"pop":0},{"id":7522055,"name":"Brufut Heights","lon":-16.75745,"lat":13.39175,"pop":0},{"id":2413744,"name":"Brufut Manjago","lon":-16.74306,"lat":13.37306,"pop":0},{"id":2413743,"name":"Brumen","lon":-15.83333,"lat":13.25,"pop":296},{"id":7114325,"name":"Brusubi","lon":-16.73767,"lat":13.40565,"pop":0},{"id":2413741,"name":"Buchilling","lon":-16.02806,"lat":13.21028,"pop":0},{"id":2413740,"name":"Budayell","lon":-15.26667,"lat":13.38333,"pop":0},{"id":2413739,"name":"Buduck Maila Secka","lon":-15.36667,"lat":13.7,"pop":0},{"id":2413738,"name":"Buduk","lon":-15.1,"lat":13.75,"pop":334},{"id":2413735,"name":"Buiba Jalo Kunda","lon":-15.45,"lat":13.43333,"pop":0},{"id":2413734,"name":"Buiba Mandinka","alt":["Baba","Buiba"],"lon":-15.45,"lat":13.43333,"pop":503},{"id":2413733,"name":"Buiba Musa Njadoh","lon":-15.45,"lat":13.43333,"pop":0},{"id":2413732,"name":"Buiba Musa Sallah","lon":-15.45,"lat":13.45,"pop":110},{"id":2413731,"name":"Bukafungi","lon":-16.28333,"lat":13.2,"pop":0},{"id":2413730,"name":"Bukari Kunda","lon":-14.71667,"lat":13.5,"pop":19},{"id":2413729,"name":"Bulangor","alt":["Bulanjor"],"lon":-16.26667,"lat":13.26667,"pop":0},{"id":2413728,"name":"Bulanjor","lon":-16.24833,"lat":13.27972,"pop":439},{"id":2413727,"name":"Bulengart","lon":-15.91667,"lat":13.2,"pop":317},{"id":2413726,"name":"Bullellai","alt":["Bullelai","Burelai"],"lon":-16.23722,"lat":13.19222,"pop":0},{"id":2413724,"name":"Bulok","lon":-16.41583,"lat":13.17667,"pop":0},{"id":2413722,"name":"Bulufula","alt":["Bulufulla"],"lon":-15.91667,"lat":13.28333,"pop":0},{"id":2413721,"name":"Bumari","lon":-15.78333,"lat":13.4,"pop":0},{"id":2413720,"name":"Bungiga","lon":-16.08972,"lat":13.20444,"pop":0},{"id":2413716,"name":"Buniadu","lon":-15.33333,"lat":13.55,"pop":766},{"id":2413717,"name":"Buniadu","lon":-16.47722,"lat":13.48278,"pop":0},{"id":2413718,"name":"Buniadu","lon":-16.19806,"lat":13.19694,"pop":0},{"id":2413714,"name":"Bunkilling","lon":-16.77917,"lat":13.33306,"pop":0},{"id":2413713,"name":"Bunobor","lon":-15.98333,"lat":13.18333,"pop":0},{"id":2413712,"name":"Buntung","lon":-15.2,"lat":13.73333,"pop":69},{"id":2413711,"name":"Bunubor","lon":-16.05333,"lat":13.18389,"pop":0},{"id":2413710,"name":"Bunubor Brikama","lon":-16.03083,"lat":13.18833,"pop":0},{"id":2413709,"name":"Bununka Kunda","lon":-16.68528,"lat":13.42722,"pop":0},{"id":2413708,"name":"Bunyai","lon":-16.04694,"lat":13.22417,"pop":0},{"id":2413707,"name":"Buram","lon":-16.22278,"lat":13.25806,"pop":0},{"id":2413706,"name":"Buramba","alt":["Arankon Kunda"],"lon":-15.91667,"lat":13.23333,"pop":0},{"id":2413704,"name":"Burang Ya","lon":-15.85,"lat":13.56667,"pop":0},{"id":2413703,"name":"Bureng","alt":["Buraing"],"lon":-15.28333,"lat":13.41667,"pop":1472},{"id":2413702,"name":"Burock","alt":["Meris"],"lon":-16.04167,"lat":13.24139,"pop":0},{"id":2413701,"name":"Burrong","alt":["Birong"],"lon":-16.17944,"lat":13.32667,"pop":0},{"id":2413700,"name":"Buruku","lon":-14.7,"lat":13.48333,"pop":0},{"id":2413699,"name":"Busanehkai","lon":-16.11667,"lat":13.23333,"pop":0},{"id":2413698,"name":"Busongai","lon":-15.81667,"lat":13.23333,"pop":0},{"id":2413696,"name":"Busumbala","alt":["Old-Busumbala"],"lon":-16.6875,"lat":13.33917,"pop":0},{"id":2413692,"name":"Busura","lon":-15.08333,"lat":13.63333,"pop":215},{"id":2413693,"name":"Busura","lon":-16.44833,"lat":13.53778,"pop":0},{"id":2413694,"name":"Busura","alt":["Busure"],"lon":-14.5,"lat":13.31667,"pop":125},{"id":2413695,"name":"Busura","alt":["Nanetto"],"lon":-16.635,"lat":13.1825,"pop":0},{"id":2413691,"name":"Bwiam","lon":-16.08639,"lat":13.23528,"pop":0},{"id":2412239,"name":"Cape Point","alt":["Cap Sainte Marie","Cape Saint Mary"],"lon":-16.66917,"lat":13.48917,"pop":0},{"id":2413687,"name":"Carrols Wharf","lon":-15.16667,"lat":13.68333,"pop":73},{"id":2413684,"name":"Cha Kunda","lon":-14.53333,"lat":13.38333,"pop":700},{"id":2413685,"name":"Chabai","lon":-15.86667,"lat":13.2,"pop":288},{"id":2413683,"name":"Chalen","alt":["Chalen Ker Bakary Salla"],"lon":-15,"lat":13.78333,"pop":60},{"id":2413682,"name":"Chalen Ker Bakari Salla","lon":-15,"lat":13.78333,"pop":0},{"id":2413679,"name":"Chamen","lon":-15.95,"lat":13.56667,"pop":0},{"id":2413680,"name":"Chamen","lon":-15.68333,"lat":13.55,"pop":0},{"id":2413681,"name":"Chamen","lon":-16.38889,"lat":13.51944,"pop":0},{"id":2413678,"name":"Chamen Baka","lon":-15.38333,"lat":13.71667,"pop":149},{"id":2413677,"name":"Chamen Sosseh","lon":-16.2625,"lat":13.49139,"pop":0},{"id":2413675,"name":"Chamoi","lon":-14.11667,"lat":13.46667,"pop":0},{"id":2413676,"name":"Chamoi","lon":-14.16667,"lat":13.31667,"pop":0},{"id":2413674,"name":"Changai","lon":-14.66667,"lat":13.58333,"pop":496},{"id":2413673,"name":"Changally Chewdu","lon":-14.33333,"lat":13.36667,"pop":348},{"id":2413672,"name":"Changally Lankadi","alt":["Changally"],"lon":-14.33333,"lat":13.35,"pop":0},{"id":2413671,"name":"Charen","lon":-14.66667,"lat":13.35,"pop":230},{"id":2413669,"name":"Charjel","lon":-14.55,"lat":13.46667,"pop":381},{"id":2413670,"name":"Charjel","alt":["Chargel"],"lon":-14.55,"lat":13.45,"pop":0},{"id":2413668,"name":"Charmen","lon":-15.16667,"lat":13.7,"pop":0},{"id":2413667,"name":"Charno Musa","alt":["Cherna Musa"],"lon":-14.65,"lat":13.41667,"pop":0},{"id":2413665,"name":"Checken","lon":-15.45,"lat":13.58333,"pop":140},{"id":2413664,"name":"Cheedi Laibe Ya","lon":-15.85,"lat":13.58333,"pop":0},{"id":2413663,"name":"Cheedy Wollof","lon":-15.85,"lat":13.58333,"pop":49},{"id":2413662,"name":"Cheken","lon":-15.05,"lat":13.6,"pop":0},{"id":2413661,"name":"Chewal Bessell","lon":-14.46667,"lat":13.36667,"pop":0},{"id":2413660,"name":"Chilla","lon":-16.28333,"lat":13.55,"pop":1249},{"id":2413659,"name":"Chisay","lon":-16.3,"lat":13.5,"pop":194},{"id":2413656,"name":"Choya","lon":-15.25,"lat":13.55,"pop":187},{"id":2413655,"name":"Choyen","lon":-15.41667,"lat":13.65,"pop":0},{"id":2413653,"name":"Daba Kunda","alt":["Doba Kunda","Dula Kunda"],"lon":-14.3,"lat":13.31667,"pop":1302},{"id":2413652,"name":"Dabaly","lon":-15.23333,"lat":13.51667,"pop":0},{"id":2413651,"name":"Dabatu","alt":["Sare Dabatu"],"lon":-15.3,"lat":13.36667,"pop":93},{"id":2413650,"name":"Dafa","lon":-15.4,"lat":13.6,"pop":190},{"id":2413649,"name":"Dai Mandinka","alt":["Dai"],"lon":-15.81667,"lat":13.55,"pop":295},{"id":2413648,"name":"Dalaba","lon":-15.21667,"lat":13.6,"pop":0},{"id":2413647,"name":"Damfa Kunda","lon":-14.18333,"lat":13.33333,"pop":0},{"id":2413646,"name":"Dandugu","lon":-14.13333,"lat":13.28333,"pop":282},{"id":2413645,"name":"Dankunku","alt":["Dankunko"],"lon":-15.31667,"lat":13.56667,"pop":1641},{"id":2413643,"name":"Dankunku Fula","lon":-15.31667,"lat":13.56667,"pop":0},{"id":2413639,"name":"Daranka","lon":-16.62861,"lat":13.37694,"pop":0},{"id":2413636,"name":"Darsilame Key Koro","alt":["Darsilame Ker Koro","Darsilane Ker Koro"],"lon":-14.15,"lat":13.26667,"pop":0},{"id":2413634,"name":"Darsilami","lon":-14.26667,"lat":13.4,"pop":326},{"id":2413635,"name":"Darsilami","lon":-16.65806,"lat":13.17583,"pop":0},{"id":2413633,"name":"Darsilami Jimara","lon":-14.45,"lat":13.36667,"pop":0},{"id":2413632,"name":"Darsilami Tenda","lon":-14.28333,"lat":13.36667,"pop":0},{"id":2413628,"name":"Daru","lon":-15.05,"lat":13.61667,"pop":0},{"id":2413629,"name":"Daru","lon":-16.01833,"lat":13.59194,"pop":136},{"id":2413630,"name":"Daru","lon":-16.25167,"lat":13.55167,"pop":0},{"id":2413631,"name":"Daru","lon":-14.61667,"lat":13.36667,"pop":0},{"id":2413627,"name":"Daru Fatiho","lon":-15.38333,"lat":13.4,"pop":0},{"id":2413625,"name":"Daru Lohen","lon":-16.13222,"lat":13.59361,"pop":245},{"id":2413624,"name":"Daru Mbaien","lon":-15.1,"lat":13.8,"pop":0},{"id":2413623,"name":"Daru Rilwan","lon":-15.98333,"lat":13.55,"pop":1045},{"id":2413626,"name":"Darule Barakatu","lon":-15.71667,"lat":13.55,"pop":0},{"id":2413619,"name":"Darusalam","lon":-15.4,"lat":13.66667,"pop":141},{"id":2413620,"name":"Darusalam","lon":-16.395,"lat":13.53528,"pop":0},{"id":2413621,"name":"Darusalam","lon":-16.08083,"lat":13.52778,"pop":249},{"id":2413622,"name":"Darusalam","alt":["Jumakunda"],"lon":-16.01611,"lat":13.28028,"pop":0},{"id":2413618,"name":"Darusalameh","lon":-14.9,"lat":13.7,"pop":0},{"id":2413617,"name":"Darusalem","lon":-15.13333,"lat":13.73333,"pop":0},{"id":2413616,"name":"Dasalami","lon":-15.95,"lat":13.26667,"pop":0},{"id":2413615,"name":"Dasilame","lon":-14.93333,"lat":13.53333,"pop":0},{"id":2413609,"name":"Dasilami","alt":["Daresalama","Dasalami"],"lon":-15.1,"lat":13.66667,"pop":0},{"id":2413610,"name":"Dasilami","lon":-15.55,"lat":13.56667,"pop":0},{"id":2413611,"name":"Dasilami","alt":["Darsilami","Dasalami"],"lon":-16.13639,"lat":13.53056,"pop":0},{"id":2413612,"name":"Dasilami","lon":-13.95,"lat":13.51667,"pop":0},{"id":2413613,"name":"Dasilami","alt":["Darselameh","Dasalami"],"lon":-15.23333,"lat":13.48333,"pop":0},{"id":2413614,"name":"Dasilami","lon":-13.93333,"lat":13.48333,"pop":0},{"id":2413608,"name":"Dau Dula","lon":-16.77583,"lat":13.14444,"pop":0},{"id":2413606,"name":"Dekordeh Bah","lon":-16.38056,"lat":13.44583,"pop":0},{"id":2413605,"name":"Demati Kunda","lon":-15.26667,"lat":13.38333,"pop":302},{"id":2413604,"name":"Demba Cheesay","lon":-15.28333,"lat":13.71667,"pop":0},{"id":2413603,"name":"Demba Chippo","lon":-16.3,"lat":13.51667,"pop":0},{"id":2413602,"name":"Demba Darboe","lon":-15.31667,"lat":13.55,"pop":0},{"id":2413601,"name":"Demba Hainey","lon":-16.38333,"lat":13.46667,"pop":0},{"id":2413600,"name":"Demba Kali","alt":["Demba Kale"],"lon":-14.65,"lat":13.58333,"pop":166},{"id":2413599,"name":"Demba Kumbale","alt":["Demba Koumbel","Dembo Kumbel"],"lon":-13.85,"lat":13.46667,"pop":0},{"id":2413596,"name":"Demba Kunda","alt":["Joli Kah"],"lon":-14.66667,"lat":13.61667,"pop":0},{"id":2413597,"name":"Demba Kunda","lon":-15.31667,"lat":13.55,"pop":185},{"id":2413598,"name":"Demba Kunda","alt":["Morbugu"],"lon":-14.26667,"lat":13.25,"pop":4817},{"id":2413595,"name":"Demba Njai Ya","alt":["Sidiya"],"lon":-16.62056,"lat":13.23694,"pop":0},{"id":2413593,"name":"Demba Wanda","alt":["Demba Waddu"],"lon":-14.46667,"lat":13.5,"pop":0},{"id":2413592,"name":"Demba Wendu","lon":-14.33333,"lat":13.45,"pop":189},{"id":2413594,"name":"Dembaso","lon":-14.53333,"lat":13.45,"pop":0},{"id":2413591,"name":"Dembel Jawor","lon":-14.4,"lat":13.31667,"pop":0},{"id":2413590,"name":"Demfai Karim","alt":["Sare Saoma","Sare Saouma"],"lon":-14.65,"lat":13.63333,"pop":28},{"id":2413589,"name":"Demfai Njaga","alt":["Demfai"],"lon":-14.65,"lat":13.61667,"pop":385},{"id":2413588,"name":"Denton","alt":["Sare Ram"],"lon":-14.93333,"lat":13.5,"pop":1712},{"id":2413586,"name":"Dewru","lon":-16.62778,"lat":13.26278,"pop":0},{"id":2413582,"name":"Deya","lon":-16.73611,"lat":13.26472,"pop":0},{"id":2413583,"name":"Deya","lon":-16.74861,"lat":13.25917,"pop":0},{"id":2413584,"name":"Deya","lon":-16.74917,"lat":13.24278,"pop":0},{"id":2413585,"name":"Deya","lon":-16.735,"lat":13.24306,"pop":0},{"id":2413580,"name":"Diabugu","alt":["Dirboko"],"lon":-14.4,"lat":13.38333,"pop":3722},{"id":2413581,"name":"Diabugu","alt":["Sare Alpha"],"lon":-13.98333,"lat":13.36667,"pop":0},{"id":2413579,"name":"Diabugu Basilla","lon":-13.95,"lat":13.33333,"pop":1199},{"id":2413578,"name":"Diabugu Tenda","lon":-14.41667,"lat":13.38333,"pop":45},{"id":2413576,"name":"Diemballa Ker Cherno","lon":-15.4,"lat":13.75,"pop":0},{"id":2413575,"name":"Diemballa Ker Madi","lon":-15.4,"lat":13.73333,"pop":0},{"id":2413574,"name":"Diemballa Ker Musa","lon":-15.4,"lat":13.75,"pop":0},{"id":2413572,"name":"Diganteh","lon":-15.53333,"lat":13.38333,"pop":0},{"id":2413573,"name":"Diganteh","alt":["Digante"],"lon":-15.43333,"lat":13.36667,"pop":701},{"id":2413570,"name":"Dingirie","alt":["Dingarai"],"lon":-14.91667,"lat":13.76667,"pop":512},{"id":2413571,"name":"Dingirie","lon":-14.91667,"lat":13.75,"pop":0},{"id":2413568,"name":"Dinguiri","alt":["Dinguirin"],"lon":-14.06667,"lat":13.3,"pop":0},{"id":2413569,"name":"Dinguiri","alt":["Dinguirin","Fula Kunda"],"lon":-14.06667,"lat":13.28333,"pop":0},{"id":2413567,"name":"Dinkirai","lon":-15.26667,"lat":13.38333,"pop":0},{"id":2413566,"name":"Dipa Kunda Wollof","alt":["Dipa Kunda"],"lon":-15.46667,"lat":13.56667,"pop":0},{"id":2413565,"name":"Dippa Kunda","alt":["Dipa Kunda"],"lon":-16.68694,"lat":13.44028,"pop":0},{"id":2413564,"name":"Djalabango","lon":-16.67861,"lat":13.28056,"pop":0},{"id":2413563,"name":"Djifanga","lon":-16.19222,"lat":13.17056,"pop":0},{"id":2413562,"name":"Dobang Kunda","lon":-14.63333,"lat":13.41667,"pop":0},{"id":2413561,"name":"Dobbo","alt":["Dobo"],"lon":-14.63333,"lat":13.46667,"pop":723},{"id":2413560,"name":"Dobo","lon":-15.96667,"lat":13.55,"pop":535},{"id":2413557,"name":"Dobong","lon":-16.07389,"lat":13.24167,"pop":0},{"id":2413553,"name":"Doke Alla","alt":["Doki Alla"],"lon":-14.9,"lat":13.71667,"pop":0},{"id":2413552,"name":"Dongoro Ba","alt":["Dongoro"],"lon":-15.28333,"lat":13.38333,"pop":629},{"id":2413551,"name":"Dongoro Nding","lon":-15.21667,"lat":13.46667,"pop":74},{"id":2413548,"name":"Douassu","lon":-16.55083,"lat":13.19444,"pop":0},{"id":2413547,"name":"Drame Joka","alt":["Drame Joku"],"lon":-16.15778,"lat":13.56528,"pop":0},{"id":2413546,"name":"Duma Sansang","lon":-15.28333,"lat":13.51667,"pop":0},{"id":2413545,"name":"Dumbutto","lon":-16.04444,"lat":13.25611,"pop":0},{"id":2413544,"name":"Dumbutu","alt":["Dumbuttu","Saniang Kunda"],"lon":-15.83333,"lat":13.35,"pop":825},{"id":2413543,"name":"Dumfoya","alt":["Sare Dumfoya"],"lon":-14.21667,"lat":13.41667,"pop":112},{"id":2413542,"name":"Dungal","lon":-14.83333,"lat":13.5,"pop":0},{"id":2413541,"name":"Duniajoe","alt":["Dunyo Joyo"],"lon":-16.46694,"lat":13.57028,"pop":0},{"id":2413539,"name":"Duonki","lon":-15.81667,"lat":13.16667,"pop":0},{"id":2413538,"name":"Dutabulu","alt":["Dutta Bullu"],"lon":-15.61667,"lat":13.56667,"pop":0},{"id":2413537,"name":"Ebadong","lon":-14.6,"lat":13.4,"pop":0},{"id":2413534,"name":"Eloi","alt":["Elol"],"lon":-16.26722,"lat":13.25,"pop":0},{"id":2413533,"name":"Essau","lon":-16.53472,"lat":13.48389,"pop":5907},{"id":2413531,"name":"Fadia Kunda","lon":-15.03333,"lat":13.6,"pop":124},{"id":2413530,"name":"Fadiya Kunda","lon":-14.2,"lat":13.48333,"pop":0},{"id":2413529,"name":"Fafanding","alt":["Fafending"],"lon":-16.37917,"lat":13.56528,"pop":0},{"id":2413527,"name":"Fajara","lon":-16.69639,"lat":13.47,"pop":0},{"id":2413525,"name":"Faji Kunda","lon":-16.66667,"lat":13.41778,"pop":0},{"id":2413524,"name":"Famori","lon":-16.08333,"lat":13.55,"pop":0},{"id":2413523,"name":"Fantumbu","alt":["Farem-Toumbo","Farintumbu"],"lon":-13.86667,"lat":13.4,"pop":0},{"id":2413514,"name":"Fara Kunku","alt":["Farakunda"],"lon":-16.77861,"lat":13.30917,"pop":0},{"id":2413521,"name":"Faraba","lon":-14.81667,"lat":13.7,"pop":0},{"id":2413522,"name":"Faraba","lon":-14.81667,"lat":13.53333,"pop":0},{"id":2413519,"name":"Faraba Banta","alt":["Faraba Bantang"],"lon":-16.52,"lat":13.26139,"pop":0},{"id":2413517,"name":"Faraba Soto","alt":["Faraba Sutu"],"lon":-16.48444,"lat":13.20333,"pop":0},{"id":2413515,"name":"Farafenni","alt":["Farafenis","fa la fen ni","farafeni","palapeni","פאראפני","ファラフェニ","法拉芬尼","파라페니"],"lon":-15.6,"lat":13.56667,"pop":29867},{"id":2413513,"name":"Faranabe","lon":-14.56667,"lat":13.38333,"pop":0},{"id":2413510,"name":"Farato","lon":-15.43333,"lat":13.55,"pop":34},{"id":2413511,"name":"Farato","lon":-14.21667,"lat":13.4,"pop":186},{"id":2413512,"name":"Farato","lon":-14.55,"lat":13.33333,"pop":0},{"id":2413509,"name":"Farba N’ Daw","alt":["Farba N' Daw","N'Geyen Ker Farba N'Daw","N’Geyen Ker Farba N’Daw"],"lon":-15.41667,"lat":13.65,"pop":0},{"id":2413506,"name":"Farlah","lon":-16.76833,"lat":13.29972,"pop":0},{"id":2413507,"name":"Farlah","alt":["Faarla"],"lon":-16.76444,"lat":13.28472,"pop":0},{"id":2413508,"name":"Farlah","lon":-16.76056,"lat":13.28861,"pop":0},{"id":2413505,"name":"Faro Ya","lon":-15.45,"lat":13.4,"pop":0},{"id":2413504,"name":"Fas","lon":-14.85,"lat":13.6,"pop":0},{"id":2413503,"name":"Fas Abdou","alt":["Fas"],"lon":-14.91667,"lat":13.46667,"pop":0},{"id":2413502,"name":"Fas Maundeh","lon":-14.85,"lat":13.6,"pop":0},{"id":2413498,"name":"Fass","alt":["Fas"],"lon":-15.06667,"lat":13.8,"pop":826},{"id":2413499,"name":"Fass","lon":-15.61667,"lat":13.58333,"pop":278},{"id":2413500,"name":"Fass","lon":-16.42528,"lat":13.56361,"pop":0},{"id":2413501,"name":"Fass","alt":["Belal"],"lon":-14.65,"lat":13.36667,"pop":0},{"id":2413497,"name":"Fass Bamba","lon":-15.06667,"lat":13.8,"pop":0},{"id":2413496,"name":"Fass Mbaien","lon":-15.43333,"lat":13.71667,"pop":0},{"id":2413495,"name":"Fass Njama","lon":-15.18333,"lat":13.76667,"pop":0},{"id":2413494,"name":"Fass Omar Sahor","alt":["Fas Omar Sahor"],"lon":-16.3825,"lat":13.46139,"pop":0},{"id":2413493,"name":"Fatako","lon":-14.4,"lat":13.35,"pop":203},{"id":2413492,"name":"Fatoto","lon":-13.9,"lat":13.4,"pop":0},{"id":2413491,"name":"Fattatenda","alt":["Fatotenda"],"lon":-14.06667,"lat":13.45,"pop":0},{"id":2413490,"name":"Felleng Kotor","alt":["Felling Kotor"],"lon":-15.23333,"lat":13.46667,"pop":0},{"id":2413489,"name":"Findefeto","alt":["Findofato"],"lon":-14.11667,"lat":13.38333,"pop":0},{"id":2413487,"name":"Firdausy","lon":-14.93333,"lat":13.78333,"pop":0},{"id":2413486,"name":"Fitu Fula","lon":-14.7,"lat":13.58333,"pop":0},{"id":2413485,"name":"Fitu Wollof","alt":["Fitu"],"lon":-14.7,"lat":13.6,"pop":0},{"id":2413484,"name":"Fode Kunda","alt":["Fode Kounda"],"lon":-13.93333,"lat":13.5,"pop":0},{"id":2413483,"name":"Fody Biran","lon":-16.00917,"lat":13.58833,"pop":0},{"id":2413482,"name":"Folonko","lon":-16.76167,"lat":13.09083,"pop":0},{"id":2413476,"name":"Fonkoi Kunda","lon":-15.56667,"lat":13.38333,"pop":0},{"id":2413474,"name":"Fori","lon":-14.53333,"lat":13.5,"pop":0},{"id":2413475,"name":"Fori","lon":-14.66667,"lat":13.35,"pop":0},{"id":2413473,"name":"Forlolor","lon":-15.4,"lat":13.4,"pop":0},{"id":2413471,"name":"Fuka","lon":-14.7,"lat":13.46667,"pop":0},{"id":2413470,"name":"Fula Bantang","alt":["Pachari Konoh Ba","Patchari"],"lon":-14.83333,"lat":13.5,"pop":0},{"id":2413469,"name":"Fula Kolong","alt":["Fula Kolon"],"lon":-15.11667,"lat":13.63333,"pop":0},{"id":2413465,"name":"Fula Kunda","lon":-14.83333,"lat":13.58333,"pop":0},{"id":2413466,"name":"Fula Kunda","lon":-16.65,"lat":13.38333,"pop":0},{"id":2413467,"name":"Fula Kunda","alt":["Fula Kulda"],"lon":-16.63111,"lat":13.26917,"pop":0},{"id":2413468,"name":"Fula Kunda","lon":-16.46972,"lat":13.195,"pop":0},{"id":2413464,"name":"Fula Kunku","lon":-16.74944,"lat":13.27333,"pop":0},{"id":2413463,"name":"Fula More Boche","lon":-14.35,"lat":13.3,"pop":0},{"id":2413460,"name":"Funtang","lon":-16.07972,"lat":13.17,"pop":0},{"id":2413458,"name":"Futa Yel","lon":-14.7,"lat":13.43333,"pop":0},{"id":2413457,"name":"Gadafaro","lon":-13.9,"lat":13.4,"pop":0},{"id":2413456,"name":"Galleh Manda","alt":["Manda"],"lon":-14.78333,"lat":13.43333,"pop":1872},{"id":2413455,"name":"Galleh Wollof","alt":["Galleh Jollof","Galleh Jolloff"],"lon":-14.8,"lat":13.43333,"pop":0},{"id":2413454,"name":"Gallo Ya","alt":["Ker Lelly"],"lon":-15.8,"lat":13.58333,"pop":99},{"id":2413453,"name":"Galowya","alt":["Gallo-ya"],"lon":-16.6175,"lat":13.33111,"pop":0},{"id":2413450,"name":"Gambissar","alt":["Gembissara"],"lon":-13.95,"lat":13.31667,"pop":0},{"id":2413448,"name":"Gambissara Bondoh","alt":["Gambissara Fula"],"lon":-14.3,"lat":13.26667,"pop":0},{"id":2413446,"name":"Gambissara Jawor","alt":["Gambissara Jawo"],"lon":-14.3,"lat":13.25,"pop":0},{"id":2413445,"name":"Garawol","alt":["Charnum","Karaoli"],"lon":-13.95,"lat":13.41667,"pop":0},{"id":2413443,"name":"Gayen Pate Gaie","lon":-14.68333,"lat":13.35,"pop":0},{"id":2413442,"name":"Gayo","lon":-14.1,"lat":13.53333,"pop":0},{"id":2413441,"name":"Gebangarr","lon":-16.10722,"lat":13.2025,"pop":0},{"id":2413440,"name":"Genge Tukulor","lon":-15.38333,"lat":13.73333,"pop":0},{"id":2413439,"name":"Genge Wollof","alt":["Genge"],"lon":-15.38333,"lat":13.71667,"pop":0},{"id":2413438,"name":"Genieri","lon":-15.61667,"lat":13.41667,"pop":0},{"id":2413436,"name":"Ghana Town","lon":-16.77111,"lat":13.38444,"pop":0},{"id":2413435,"name":"Gibanak","lon":-16.14083,"lat":13.21417,"pop":0},{"id":2413434,"name":"Gidda","lon":-14.88333,"lat":13.46667,"pop":455},{"id":2413433,"name":"Gikis","lon":-16.28222,"lat":13.18278,"pop":0},{"id":2413432,"name":"Gikis Dandon","alt":["Gikis"],"lon":-16.06639,"lat":13.17056,"pop":0},{"id":2413431,"name":"Gillangel","lon":-14.45,"lat":13.33333,"pop":0},{"id":2413430,"name":"Ginak Kajata","alt":["Jinak","Kajata"],"lon":-16.5275,"lat":13.58139,"pop":0},{"id":2413429,"name":"Ginak Niji","alt":["Niji"],"lon":-16.525,"lat":13.57444,"pop":0},{"id":2413428,"name":"Giniah","lon":-16.09139,"lat":13.22806,"pop":0},{"id":2413427,"name":"Giroba Kunda","alt":["Giroba"],"lon":-14.2,"lat":13.3,"pop":513},{"id":2413426,"name":"Gissay","lon":-16.08833,"lat":13.31083,"pop":0},{"id":2413423,"name":"Gui Jahanka","lon":-15.38333,"lat":13.73333,"pop":0},{"id":2413424,"name":"Gui Jahanka","lon":-15.21667,"lat":13.73333,"pop":0},{"id":2413425,"name":"Guidi Musa","alt":["Sinchu Bachi"],"lon":-14.83333,"lat":13.46667,"pop":0},{"id":2413421,"name":"Gungorong","alt":["Jingory Manga"],"lon":-14.86667,"lat":13.71667,"pop":0},{"id":2413418,"name":"Gunjur","alt":["Kungeru"],"lon":-16.02778,"lat":13.52278,"pop":1327},{"id":2413419,"name":"Gunjur","lon":-16.73389,"lat":13.20194,"pop":14088},{"id":2413417,"name":"Gunjur Kuta","lon":-14.11667,"lat":13.53333,"pop":1566},{"id":2413416,"name":"Gunkoru Ker Hamet","lon":-15.38333,"lat":13.71667,"pop":0},{"id":2413415,"name":"Gunkoru Tukulor","lon":-15.38333,"lat":13.71667,"pop":0},{"id":2413414,"name":"Gunkoru Wollof","alt":["Gunkeru","Gunkoru Wolloff"],"lon":-15.38333,"lat":13.71667,"pop":0},{"id":2413413,"name":"Hamadalie","lon":-14.26667,"lat":13.38333,"pop":0},{"id":2413411,"name":"Hamdalae","lon":-14.95,"lat":13.5,"pop":0},{"id":2413412,"name":"Hamdalae","lon":-16.49306,"lat":13.21139,"pop":0},{"id":2413403,"name":"Hamdalai","lon":-15.26667,"lat":13.71667,"pop":0},{"id":2413404,"name":"Hamdalai","lon":-15.15,"lat":13.58333,"pop":0},{"id":2413405,"name":"Hamdalai","lon":-16.1,"lat":13.56667,"pop":0},{"id":2413406,"name":"Hamdalai","lon":-16.0225,"lat":13.56306,"pop":249},{"id":2413407,"name":"Hamdalai","lon":-15.21667,"lat":13.45,"pop":0},{"id":2413408,"name":"Hamdalai","lon":-16.29361,"lat":13.44278,"pop":0},{"id":2413409,"name":"Hamdalai","lon":-13.8,"lat":13.43333,"pop":0},{"id":2413410,"name":"Hamdalai","lon":-15.36667,"lat":13.38333,"pop":0},{"id":2413402,"name":"Hamdalie","lon":-14.86667,"lat":13.78333,"pop":236},{"id":2413401,"name":"Hela Kunda","lon":-14.36667,"lat":13.3,"pop":0},{"id":2413399,"name":"Herabeh Konoh","lon":-16.43333,"lat":13.48333,"pop":0},{"id":2413398,"name":"Heramakono","lon":-13.85,"lat":13.43333,"pop":0},{"id":2413397,"name":"Hoi","lon":-15.4,"lat":13.66667,"pop":0},{"id":2413395,"name":"Hosnan","lon":-15.01667,"lat":13.8,"pop":0},{"id":2413394,"name":"How Ba","lon":-16.79944,"lat":13.27222,"pop":0},{"id":2413393,"name":"Ibo Town","alt":["Eboe Town"],"lon":-16.67639,"lat":13.43528,"pop":0},{"id":2413392,"name":"Illiassa","lon":-15.75,"lat":13.56667,"pop":0},{"id":2413391,"name":"India","lon":-15.75,"lat":13.56667,"pop":529},{"id":2413390,"name":"India Baddibu","lon":-15.75,"lat":13.56667,"pop":0},{"id":2413388,"name":"Inoman","lon":-16.35,"lat":13.43333,"pop":0},{"id":2413358,"name":"Ja Koto","alt":["Jakotto"],"lon":-15.31667,"lat":13.65,"pop":0},{"id":2413386,"name":"Jababa","alt":["Jahabi","Jakaba"],"lon":-14.36667,"lat":13.36667,"pop":549},{"id":2413385,"name":"Jabbi Kunda","lon":-15.61667,"lat":13.5,"pop":0},{"id":2413384,"name":"Jabel Kunda","lon":-14.65,"lat":13.4,"pop":0},{"id":2413383,"name":"Jabisa","alt":["Jabis"],"lon":-15.46667,"lat":13.46667,"pop":276},{"id":2413381,"name":"Jafai","lon":-15.08333,"lat":13.66667,"pop":0},{"id":2413380,"name":"Jagel","lon":-16.36889,"lat":13.19167,"pop":0},{"id":2413379,"name":"Jaggle","alt":["Jaggli"],"lon":-15.25,"lat":13.75,"pop":0},{"id":2413378,"name":"Jagle","lon":-15.26667,"lat":13.75,"pop":163},{"id":2413377,"name":"Jago","lon":-16.2,"lat":13.53333,"pop":0},{"id":2413375,"name":"Jaha Madina","lon":-14.31667,"lat":13.35,"pop":132},{"id":2413376,"name":"Jahajari","alt":["Jahajan","Jakadia"],"lon":-15.75,"lat":13.58333,"pop":0},{"id":2413374,"name":"Jahatuje","lon":-14.1,"lat":13.53333,"pop":0},{"id":2413373,"name":"Jahawur Mandinka","lon":-15.36667,"lat":13.7,"pop":0},{"id":2413372,"name":"Jahawur Tukulor","lon":-15.36667,"lat":13.7,"pop":0},{"id":2413371,"name":"Jaidina","lon":-15.51667,"lat":13.4,"pop":0},{"id":2413370,"name":"Jailan","alt":["Kahone","Ker Samba Sowe","Samba So"],"lon":-15.01667,"lat":13.71667,"pop":404},{"id":2413369,"name":"Jaiteh Kunda","lon":-15.26667,"lat":13.53333,"pop":0},{"id":6941972,"name":"Jajanbureh","lon":-14.76667,"lat":13.53333,"pop":0},{"id":2413368,"name":"Jakaba","lon":-14.88333,"lat":13.65,"pop":837},{"id":2413367,"name":"Jakau-ur","alt":["Jakau"],"lon":-15.33352,"lat":13.70228,"pop":0},{"id":2413366,"name":"Jakau-ur Sinchu","lon":-15.35,"lat":13.7,"pop":0},{"id":2413365,"name":"Jakhaly","lon":-14.96667,"lat":13.55,"pop":1793},{"id":2413364,"name":"Jakin","lon":-16.23167,"lat":13.16722,"pop":0},{"id":2413363,"name":"Jakisu","lon":-16.24306,"lat":13.18611,"pop":0},{"id":2413359,"name":"Jako Kanjeru","alt":["Jakoe"],"lon":-16.17528,"lat":13.22806,"pop":0},{"id":2413362,"name":"Jakoi","lon":-16.3,"lat":13.23333,"pop":0},{"id":2413361,"name":"Jakoi Bintang","lon":-16.24389,"lat":13.22694,"pop":0},{"id":2413360,"name":"Jakoi Sibrik","lon":-16.29222,"lat":13.27083,"pop":0},{"id":2413353,"name":"Jala Koto","lon":-14.66667,"lat":13.55,"pop":0},{"id":2413352,"name":"Jala Kunda","lon":-14.33333,"lat":13.23333,"pop":0},{"id":2413356,"name":"Jalaba","lon":-15.7,"lat":13.55,"pop":0},{"id":2413357,"name":"Jalaba","lon":-15.36667,"lat":13.38333,"pop":0},{"id":2413354,"name":"Jalakoto","lon":-16.28861,"lat":13.205,"pop":0},{"id":2413351,"name":"Jalambantang","lon":-16.62806,"lat":13.19583,"pop":0},{"id":2413350,"name":"Jalangbereh","lon":-15.4,"lat":13.38333,"pop":0},{"id":2413349,"name":"Jalato Ali","lon":-15.41667,"lat":13.66667,"pop":0},{"id":2413348,"name":"Jalato Nderry","lon":-15.41667,"lat":13.66667,"pop":0},{"id":2413347,"name":"Jalato Sololi Mena","lon":-15.4,"lat":13.66667,"pop":0},{"id":2413345,"name":"Jalew","lon":-15.93333,"lat":13.18333,"pop":0},{"id":2413344,"name":"Jali","lon":-15.96667,"lat":13.35,"pop":1024},{"id":2413342,"name":"Jali Kunda","lon":-15.85,"lat":13.56667,"pop":0},{"id":2413340,"name":"Jallow Koto","alt":["Jallakotto","Jallo Koto","Same"],"lon":-15.31667,"lat":13.63333,"pop":0},{"id":2413337,"name":"Jallow Kunda","lon":-15.15,"lat":13.6,"pop":0},{"id":2413338,"name":"Jallow Kunda","lon":-15.66667,"lat":13.4,"pop":0},{"id":2413339,"name":"Jallow Kunda","lon":-15.38333,"lat":13.35,"pop":0},{"id":2413336,"name":"Jally Kunda","lon":-15.75,"lat":13.55,"pop":0},{"id":2413335,"name":"Jalo Kunda","lon":-15,"lat":13.78333,"pop":0},{"id":2413334,"name":"Jalo Kunda Bakari Sabali","lon":-14.96667,"lat":13.75,"pop":0},{"id":2413333,"name":"Jalo Kunda Demba Sira","lon":-14.96667,"lat":13.76667,"pop":161},{"id":2413332,"name":"Jalo Kunda Fula","lon":-14.96667,"lat":13.75,"pop":0},{"id":2413331,"name":"Jalo Kunda Malick N’Yang","lon":-14.96667,"lat":13.75,"pop":0},{"id":2413330,"name":"Jalo Kunda Mat Mbye","alt":["Jalo Kunda Abdu Secka","Jokul"],"lon":-14.98333,"lat":13.76667,"pop":0},{"id":2413329,"name":"Jalo Kunda Sering Ceesay","lon":-14.98333,"lat":13.75,"pop":0},{"id":2413328,"name":"Jaluby","lon":-14.58333,"lat":13.58333,"pop":0},{"id":2413327,"name":"Jaluby Koto","lon":-14.61667,"lat":13.6,"pop":0},{"id":2413326,"name":"Jaluby Tukulor","lon":-14.55,"lat":13.55,"pop":0},{"id":2413325,"name":"Jama","lon":-15.3,"lat":13.65,"pop":0},{"id":2413319,"name":"Jama Gen","lon":-14.65,"lat":13.65,"pop":0},{"id":2413320,"name":"Jama Gen","lon":-16.47472,"lat":13.58694,"pop":0},{"id":2413324,"name":"Jamagain","lon":-15.01667,"lat":13.76667,"pop":0},{"id":2413318,"name":"Jamagen","lon":-14.81667,"lat":13.71667,"pop":0},{"id":2413321,"name":"Jamagen","lon":-15.45,"lat":13.56667,"pop":48},{"id":2413322,"name":"Jamagen","alt":["Jama Ken"],"lon":-16.25306,"lat":13.53361,"pop":0},{"id":2413323,"name":"Jamagen","alt":["Muritabeh"],"lon":-14.81667,"lat":13.48333,"pop":0},{"id":2413310,"name":"Jamal Mballo","lon":-15.51667,"lat":13.58333,"pop":122},{"id":2413317,"name":"Jamali","alt":["Ker Katim"],"lon":-15.18333,"lat":13.58333,"pop":0},{"id":2413316,"name":"Jamali Babou","lon":-14.76667,"lat":13.56667,"pop":0},{"id":2413315,"name":"Jamali Bere Jallow","lon":-14.76667,"lat":13.58333,"pop":0},{"id":2413314,"name":"Jamali Ganiado Njie","lon":-14.75,"lat":13.56667,"pop":0},{"id":2413313,"name":"Jamali Momodou Kuta","lon":-14.75,"lat":13.58333,"pop":0},{"id":2413312,"name":"Jamali Tamsin Musa","lon":-14.76667,"lat":13.58333,"pop":0},{"id":2413311,"name":"Jamali Tamsir Secka","lon":-14.76667,"lat":13.56667,"pop":0},{"id":2413309,"name":"Jamaly","alt":["Jamari","Jamarli"],"lon":-14.75,"lat":13.58333,"pop":0},{"id":2413308,"name":"Jamara","lon":-15.21667,"lat":13.6,"pop":28},{"id":2413307,"name":"Jamara Nema","lon":-15.21667,"lat":13.6,"pop":0},{"id":2413306,"name":"Jamara Wollof","lon":-15.23333,"lat":13.6,"pop":0},{"id":2413304,"name":"Jambanjali","alt":["Jambanjeli"],"lon":-16.72944,"lat":13.28028,"pop":0},{"id":2413303,"name":"Jambanya","lon":-15.51667,"lat":13.53333,"pop":0},{"id":2413302,"name":"Jambaruya","lon":-14.18333,"lat":13.5,"pop":0},{"id":2413301,"name":"Jambur","alt":["Jambour","Yambur"],"lon":-16.70194,"lat":13.31556,"pop":0},{"id":2413300,"name":"Jamisa","lon":-16.71667,"lat":13.41667,"pop":0},{"id":2413299,"name":"Jammeh Kunda","alt":["Jammi Kunda"],"lon":-16,"lat":13.5,"pop":137},{"id":2413295,"name":"Jamu","lon":-14.73333,"lat":13.4,"pop":0},{"id":2413296,"name":"Jamu","lon":-14.71667,"lat":13.4,"pop":0},{"id":2413297,"name":"Jamu","lon":-14.73333,"lat":13.38333,"pop":0},{"id":2413293,"name":"Jamwell","lon":-15.11667,"lat":13.75,"pop":0},{"id":2413294,"name":"Jamwell","lon":-15.31667,"lat":13.55,"pop":0},{"id":2413280,"name":"Jamwelly","alt":["Jallow Kunda","Jamweley","Janweley"],"lon":-16.63889,"lat":13.25083,"pop":0},{"id":2413292,"name":"Jamwelly","lon":-14.45,"lat":13.46667,"pop":169},{"id":2413291,"name":"Jamwilli","lon":-15.35,"lat":13.71667,"pop":0},{"id":2413290,"name":"Jana Kuyel","lon":-16.26778,"lat":13.16778,"pop":0},{"id":2413286,"name":"Janack","alt":["Janeck"],"lon":-16.23333,"lat":13.16667,"pop":0},{"id":2413289,"name":"Janding Ba","alt":["Kanjeramba"],"lon":-15.93333,"lat":13.2,"pop":0},{"id":2413287,"name":"Janding Jilahar","lon":-15.93333,"lat":13.2,"pop":0},{"id":2413288,"name":"Janding Jilahar","lon":-16.00861,"lat":13.18667,"pop":0},{"id":2413284,"name":"Jane Kunda","lon":-15.33333,"lat":13.71667,"pop":0},{"id":2413285,"name":"Janeh Kunda","lon":-14.61667,"lat":13.65,"pop":0},{"id":2413283,"name":"Jangmarr","alt":["Jang-maru","Tabafulanding"],"lon":-15.93333,"lat":13.3,"pop":0},{"id":2413437,"name":"Janjanbureh","alt":["Georgetown","Jan Jan Bureh","Old Fort George"],"lon":-14.76374,"lat":13.54039,"pop":3584},{"id":2413282,"name":"Janneh Kunda","alt":["Janna Kunda"],"lon":-16.13833,"lat":13.38028,"pop":795},{"id":8693109,"name":"Japineh","lon":-15.42056,"lat":13.42444,"pop":0},{"id":2413279,"name":"Jappeni","alt":["Jafini"],"lon":-15.41667,"lat":13.41667,"pop":0},{"id":2413278,"name":"Jarbang","alt":["Jabang"],"lon":-16.70944,"lat":13.35944,"pop":0},{"id":2413277,"name":"Jareng Ker Modou Warr","lon":-15.28333,"lat":13.71667,"pop":0},{"id":2413276,"name":"Jareng Ker Sait Sowe","lon":-15.26667,"lat":13.71667,"pop":0},{"id":2413274,"name":"Jaring Alieu M’Boge","lon":-15.26667,"lat":13.71667,"pop":0},{"id":2413273,"name":"Jaring Madi Jama","lon":-15.26667,"lat":13.71667,"pop":0},{"id":2413272,"name":"Jaring Mandinka","lon":-15.26667,"lat":13.7,"pop":0},{"id":2413271,"name":"Jarjangfara","alt":["Baijangkortor"],"lon":-15.9,"lat":13.26667,"pop":0},{"id":2413270,"name":"Jarju Kunda","lon":-16.34444,"lat":13.19611,"pop":0},{"id":2413269,"name":"Jarlang","lon":-16.27833,"lat":13.23083,"pop":0},{"id":2413265,"name":"Jarreng","lon":-15.18333,"lat":13.61667,"pop":2705},{"id":2413264,"name":"Jarrol","lon":-15.84546,"lat":13.24412,"pop":788},{"id":2413263,"name":"Jarume Koto","alt":["Jarrume Koto"],"lon":-14.78333,"lat":13.58333,"pop":0},{"id":2413262,"name":"Jarume Kuta","alt":["Jarrume Kuta"],"lon":-14.86667,"lat":13.56667,"pop":0},{"id":2413261,"name":"Jasobo","lon":-15.66667,"lat":13.46667,"pop":267},{"id":2413260,"name":"Jassong","alt":["Sukotto"],"lon":-15.31667,"lat":13.4,"pop":742},{"id":2413258,"name":"Jataly","lon":-14.71667,"lat":13.61667,"pop":0},{"id":2413257,"name":"Jatikoi","alt":["Jongerr"],"lon":-15.98333,"lat":13.28333,"pop":215},{"id":2413255,"name":"Jatta Kunda","lon":-15.7,"lat":13.4,"pop":81},{"id":2413254,"name":"Jatta Sutu","alt":["Jata Sutu"],"lon":-15.25,"lat":13.55,"pop":0},{"id":2413256,"name":"Jattaba","alt":["Jatabba"],"lon":-15.83333,"lat":13.26667,"pop":0},{"id":2413253,"name":"Jau Kunda","alt":["Djan Counda"],"lon":-13.86667,"lat":13.41667,"pop":0},{"id":2413252,"name":"Jawbe","lon":-14.71667,"lat":13.41667,"pop":0},{"id":2413251,"name":"Jawbeh Modeh","alt":["Jawbeh Madeh"],"lon":-14.41667,"lat":13.35,"pop":0},{"id":2413250,"name":"Jawla","lon":-14.18333,"lat":13.41667,"pop":0},{"id":9172226,"name":"Jebbel Satou","lon":-16.04854,"lat":13.58926,"pop":39},{"id":2413249,"name":"Jekka","lon":-14.11667,"lat":13.53333,"pop":0},{"id":2413247,"name":"Jendeh","alt":["Kandimai","Kundum"],"lon":-14.28333,"lat":13.4,"pop":161},{"id":2413246,"name":"Jenoi","alt":["Ginoi"],"lon":-15.56667,"lat":13.48333,"pop":1254},{"id":2413245,"name":"Jenun Kunda","lon":-16.54889,"lat":13.18833,"pop":0},{"id":2413244,"name":"Jereh Kungoto","lon":-16.49889,"lat":13.37083,"pop":0},{"id":2413243,"name":"Jeriko","lon":-15.66667,"lat":13.58333,"pop":603},{"id":2413242,"name":"Jessadi","lon":-15.3,"lat":13.63333,"pop":461},{"id":2413241,"name":"Jessadi Tenda","alt":["Jessida Tenda"],"lon":-15.26667,"lat":13.65,"pop":0},{"id":2413240,"name":"Jessadi Wharf Town","lon":-15.28333,"lat":13.65,"pop":0},{"id":2571472,"name":"Jiboroh Kotor","alt":["Jiboroh"],"lon":-16.57611,"lat":13.17944,"pop":0},{"id":2413237,"name":"Jiboroh Kuta","alt":["Jiboroh"],"lon":-16.57361,"lat":13.18833,"pop":0},{"id":2413236,"name":"Jida","lon":-16.59722,"lat":13.18778,"pop":0},{"id":2413235,"name":"Jifarong","alt":["Jiffarong"],"lon":-15.86667,"lat":13.3,"pop":1038},{"id":2413234,"name":"Jiffet","lon":-16.50139,"lat":13.48472,"pop":170},{"id":2413232,"name":"Jiffin","alt":["Giffin"],"lon":-15.58333,"lat":13.41667,"pop":729},{"id":2413231,"name":"Jifoni","lon":-15.93333,"lat":13.26667,"pop":0},{"id":2413230,"name":"Jigimar","lon":-15.6,"lat":13.56667,"pop":0},{"id":2413229,"name":"Jillimfara","lon":-16.11806,"lat":13.17222,"pop":0},{"id":2413228,"name":"Jimara","lon":-14.43333,"lat":13.26667,"pop":0},{"id":2413227,"name":"Jimbala Fel N’Goh","lon":-15.38333,"lat":13.75,"pop":0},{"id":2413226,"name":"Jimbala Ker Chandou","lon":-15.38333,"lat":13.73333,"pop":0},{"id":2413225,"name":"Jimbala Ker Kara","lon":-15.38333,"lat":13.73333,"pop":0},{"id":2413224,"name":"Jimbana","lon":-16.44861,"lat":13.41972,"pop":0},{"id":2413222,"name":"Jingory Mustapha","lon":-14.86667,"lat":13.73333,"pop":0},{"id":2413221,"name":"Jiroff","lon":-15.7,"lat":13.41667,"pop":613},{"id":2413220,"name":"Jiroff Tenda","lon":-15.71667,"lat":13.43333,"pop":0},{"id":2413219,"name":"Jirrong","alt":["Jirong"],"lon":-15.7,"lat":13.53333,"pop":0},{"id":2413217,"name":"Jissa","lon":-16.20889,"lat":13.57361,"pop":0},{"id":2413216,"name":"Joba","alt":["Jaba","Sare N'Joba","Sare N’Joba"],"lon":-15.21667,"lat":13.43333,"pop":0},{"id":2413215,"name":"Jobe Kunda","lon":-15.41667,"lat":13.41667,"pop":75},{"id":2413214,"name":"Jockul","lon":-15.16667,"lat":13.61667,"pop":378},{"id":2413212,"name":"Jokul Ndowen","alt":["Jokul"],"lon":-14.9,"lat":13.78333,"pop":0},{"id":2413209,"name":"Jom Kunda","alt":["Darselami"],"lon":-16,"lat":13.26667,"pop":0},{"id":2413211,"name":"Jomarr","lon":-15.66667,"lat":13.43333,"pop":230},{"id":2413210,"name":"Jombiya","lon":-16.73333,"lat":13.21667,"pop":39},{"id":2413204,"name":"Jorem","lon":-16.01667,"lat":13.23333,"pop":0},{"id":2413205,"name":"Jorem","alt":["Saneh Kunda"],"lon":-15.95,"lat":13.23333,"pop":0},{"id":2413206,"name":"Jorem","alt":["Tamba Kunda"],"lon":-15.96667,"lat":13.21667,"pop":382},{"id":2413203,"name":"Jorem Bunda Kunda","alt":["Bonda","Joren"],"lon":-15.88333,"lat":13.25,"pop":0},{"id":2413202,"name":"Jorem Drameh Kunda","alt":["Joren","Saneykunda","Sāneykunda"],"lon":-15.88333,"lat":13.23333,"pop":0},{"id":2413201,"name":"Jowara","lon":-16.08,"lat":13.57667,"pop":0},{"id":2413200,"name":"Juburruya","lon":-14.35,"lat":13.3,"pop":0},{"id":2413199,"name":"Jufureh","alt":["Jufuri"],"lon":-16.3825,"lat":13.33861,"pop":0},{"id":2413197,"name":"Jula Kunda","lon":-16.17694,"lat":13.33056,"pop":283},{"id":2413192,"name":"Jum Bakary","lon":-14.45,"lat":13.31667,"pop":136},{"id":2413189,"name":"Jum Mankama","lon":-14.45,"lat":13.33333,"pop":0},{"id":2413196,"name":"Juma Kunda","lon":-16.01722,"lat":13.24194,"pop":0},{"id":2413195,"name":"Jumansari","lon":-15.75,"lat":13.53333,"pop":0},{"id":2413194,"name":"Jumansari Koto","alt":["Jumansari Korto"],"lon":-15.73333,"lat":13.5,"pop":0},{"id":2413193,"name":"Jumaru","lon":-15.93333,"lat":13.3,"pop":0},{"id":2413186,"name":"Juoli","lon":-16.09556,"lat":13.40056,"pop":0},{"id":2413184,"name":"Jurro Kunda","alt":["Sambel Kunda"],"lon":-14.38333,"lat":13.28333,"pop":206},{"id":2413181,"name":"Jurunku","lon":-16.25639,"lat":13.41833,"pop":0},{"id":2413179,"name":"Jwenkelly","lon":-15.83333,"lat":13.18333,"pop":0},{"id":2413176,"name":"Kaba Kotor","lon":-16.28333,"lat":13.48333,"pop":0},{"id":2413177,"name":"Kabakama","lon":-14.2,"lat":13.3,"pop":0},{"id":2413175,"name":"Kabamba","lon":-15.28333,"lat":13.61667,"pop":46},{"id":2413174,"name":"Kabekel","lon":-16.65722,"lat":13.20333,"pop":0},{"id":2413173,"name":"Kabokor","lon":-16.27083,"lat":13.20694,"pop":0},{"id":2413172,"name":"Kachow NDing","lon":-16.70472,"lat":13.33778,"pop":0},{"id":2413171,"name":"Kachuma","lon":-16.76056,"lat":13.22889,"pop":0},{"id":2593159,"name":"Kafaya","lon":-16.77861,"lat":13.13056,"pop":0},{"id":2413169,"name":"Kafenkeng","alt":["Kaffenkeng"],"lon":-16,"lat":13.18333,"pop":0},{"id":2413170,"name":"Kafenkeng","alt":["Kafenkena"],"lon":-16.00222,"lat":13.17167,"pop":0},{"id":2413168,"name":"Kaffenkeng","lon":-15.91667,"lat":13.18333,"pop":0},{"id":2413166,"name":"Kafuta","lon":-16.4675,"lat":13.20139,"pop":0},{"id":2413167,"name":"Kafuta","lon":-16.45889,"lat":13.19667,"pop":0},{"id":2413165,"name":"Kafuta Tumbung","alt":["Kafuta Tubung"],"lon":-16.46056,"lat":13.17417,"pop":0},{"id":2413164,"name":"Kahan","lon":-14.81667,"lat":13.5,"pop":0},{"id":2413161,"name":"Kahow","alt":["Sare Fally"],"lon":-14.81667,"lat":13.48333,"pop":409},{"id":2413155,"name":"Kai Hai","lon":-15.11667,"lat":13.73333,"pop":0},{"id":2413156,"name":"Kai Hai","alt":["Ka-ai"],"lon":-14.88333,"lat":13.58333,"pop":0},{"id":2413153,"name":"Kai Hai Fula Kunda","lon":-14.86667,"lat":13.58333,"pop":0},{"id":2413160,"name":"Kaiaf","lon":-15.61667,"lat":13.4,"pop":1819},{"id":2413157,"name":"Kaianga","lon":-16.20389,"lat":13.17611,"pop":0},{"id":2413151,"name":"Kaijara","lon":-16.31667,"lat":13.25,"pop":0},{"id":2413149,"name":"Kaimbalaing","alt":["Dumungkareh"],"lon":-16.3,"lat":13.38333,"pop":0},{"id":2413148,"name":"Kaimbujae","alt":["Kambuji","Old Kembuji"],"lon":-16.61667,"lat":13.3,"pop":0},{"id":2413147,"name":"Kaimbujae NDing","alt":["Kembuje","New Kembuji"],"lon":-16.62139,"lat":13.285,"pop":0},{"id":2413143,"name":"Kalagi","alt":["Kalaja","Kalaji"],"lon":-15.83559,"lat":13.24855,"pop":0},{"id":2413142,"name":"Kalang","alt":["Kallang"],"lon":-15.95,"lat":13.25,"pop":95},{"id":2413141,"name":"Kalataba","lon":-15.61667,"lat":13.55,"pop":103},{"id":2413140,"name":"Kalem Pol","lon":-14.65,"lat":13.58333,"pop":0},{"id":2413138,"name":"Kali Kunda","alt":["Koli Kunda"],"lon":-14.58333,"lat":13.46667,"pop":0},{"id":2413139,"name":"Kalikajara","lon":-15.31667,"lat":13.61667,"pop":0},{"id":2413136,"name":"Kalimu","lon":-15.91667,"lat":13.25,"pop":0},{"id":2413137,"name":"Kalimu","lon":-16.01667,"lat":13.21667,"pop":0},{"id":2413135,"name":"Kaling","alt":["Kaleng"],"lon":-16.05639,"lat":13.17472,"pop":0},{"id":2413134,"name":"Kamamudu","lon":-15.8,"lat":13.18333,"pop":0},{"id":2413133,"name":"Kambagol","alt":["Kambagali"],"lon":-16.08222,"lat":13.18472,"pop":0},{"id":2413132,"name":"Kambalayba","lon":-15.86667,"lat":13.23333,"pop":0},{"id":2413131,"name":"Kambalin","lon":-16.0525,"lat":13.18,"pop":0},{"id":2413130,"name":"Kambele","lon":-13.91667,"lat":13.51667,"pop":0},{"id":2413129,"name":"Kambi","lon":-14.8,"lat":13.71667,"pop":95},{"id":2413128,"name":"Kambong","lon":-16.10722,"lat":13.21222,"pop":0},{"id":2413127,"name":"Kamemero","alt":["Kamenero"],"lon":-15.81667,"lat":13.21667,"pop":0},{"id":2413126,"name":"Kamessen","lon":-15.96667,"lat":13.16667,"pop":0},{"id":2413125,"name":"Kamessing","lon":-15.83333,"lat":13.18333,"pop":0},{"id":2413122,"name":"Kamfenda","lon":-16.05306,"lat":13.22833,"pop":0},{"id":2413123,"name":"Kamfenda","alt":["Sangajor"],"lon":-16.04028,"lat":13.22917,"pop":0},{"id":2413124,"name":"Kamfenda","alt":["Baji Kunda","Kanfinda"],"lon":-16.05583,"lat":13.21528,"pop":0},{"id":2413121,"name":"Kamos","lon":-16.2225,"lat":13.18556,"pop":0},{"id":2413120,"name":"Kampant","lon":-16.10972,"lat":13.20222,"pop":0},{"id":2413119,"name":"Kampassa","lon":-15.81667,"lat":13.18333,"pop":0},{"id":2413118,"name":"Kamunakore","lon":-14.38333,"lat":13.26667,"pop":0},{"id":2413117,"name":"Kanape","alt":["Bolum"],"lon":-13.93333,"lat":13.56667,"pop":0},{"id":2413116,"name":"Kanau","lon":-16.23333,"lat":13.25,"pop":0},{"id":2413114,"name":"Kandonk","alt":["Kandong"],"lon":-16.31361,"lat":13.245,"pop":0},{"id":2413113,"name":"Kangalabata","lon":-16.06806,"lat":13.16694,"pop":0},{"id":2413108,"name":"Kangwalli","lon":-15.91667,"lat":13.23333,"pop":0},{"id":2413109,"name":"Kangwalli","lon":-16.01667,"lat":13.21667,"pop":0},{"id":2413110,"name":"Kangwalli","lon":-15.91667,"lat":13.21667,"pop":0},{"id":2413111,"name":"Kangwalli","lon":-15.93333,"lat":13.2,"pop":0},{"id":2413104,"name":"Kani Kunda","lon":-15.4,"lat":13.55,"pop":0},{"id":2413105,"name":"Kani Kunda","lon":-15.51667,"lat":13.45,"pop":0},{"id":2413103,"name":"Kani Kunda Wharf Town","lon":-15.38333,"lat":13.55,"pop":0},{"id":2413106,"name":"Kanifing","lon":-16.67444,"lat":13.44639,"pop":0},{"id":2593769,"name":"Kanifing Industrial Estate","lon":-16.66972,"lat":13.45306,"pop":0},{"id":2413102,"name":"Kanilai","lon":-16.01694,"lat":13.17639,"pop":0},{"id":2413101,"name":"Kanjabina","alt":["Kajabina"],"lon":-16.3225,"lat":13.17028,"pop":0},{"id":2413100,"name":"Kanjending","lon":-15.96667,"lat":13.23333,"pop":0},{"id":2413099,"name":"Kanjibat","lon":-15.91667,"lat":13.23333,"pop":136},{"id":2413097,"name":"Kanjiramba","lon":-16.47889,"lat":13.20972,"pop":0},{"id":2413098,"name":"Kanjiramba","lon":-16.41639,"lat":13.16833,"pop":0},{"id":2413096,"name":"Kanjundu","lon":-16.13333,"lat":13.2,"pop":0},{"id":2413095,"name":"Kankuntu","lon":-16.08639,"lat":13.23917,"pop":0},{"id":2413094,"name":"Kankuran","lon":-15.91667,"lat":13.18333,"pop":0},{"id":2413093,"name":"Kansala","lon":-16.1,"lat":13.25,"pop":0},{"id":2413092,"name":"Kansambou","alt":["Kabomb"],"lon":-15.8,"lat":13.16667,"pop":295},{"id":2413091,"name":"Kantale Kunda","lon":-13.88333,"lat":13.4,"pop":0},{"id":2413090,"name":"Kantimba","lon":-16.02528,"lat":13.16472,"pop":0},{"id":2413089,"name":"Kantong Kunda","alt":["Kanton Kunda"],"lon":-15.95,"lat":13.33333,"pop":456},{"id":2413087,"name":"Kantora","lon":-16.15,"lat":13.21667,"pop":0},{"id":2413086,"name":"Kanube","lon":-14.3,"lat":13.31667,"pop":0},{"id":2413085,"name":"Kanube Tenda","lon":-14.3,"lat":13.33333,"pop":0},{"id":2413081,"name":"Kanuma","lon":-16.50556,"lat":13.50194,"pop":0},{"id":2413082,"name":"Kanuma","lon":-15.4,"lat":13.41667,"pop":0},{"id":2413083,"name":"Kanuma","lon":-16.77528,"lat":13.22417,"pop":0},{"id":2413084,"name":"Kanuma","lon":-16.27333,"lat":13.23056,"pop":0},{"id":2593767,"name":"Kanuma","lon":-16.50889,"lat":13.49917,"pop":0},{"id":2413080,"name":"Kaolang","lon":-15.06667,"lat":13.56667,"pop":0},{"id":2413078,"name":"Kapongah","lon":-16.41639,"lat":13.17194,"pop":0},{"id":2413077,"name":"Kara","alt":["Kora"],"lon":-14.75,"lat":13.58333,"pop":0},{"id":2413076,"name":"Karanai","lon":-16.15389,"lat":13.21778,"pop":0},{"id":2413070,"name":"Karantaba","alt":["Gunjur"],"lon":-15.03333,"lat":13.66667,"pop":1753},{"id":2413071,"name":"Karantaba","lon":-15.93333,"lat":13.53333,"pop":0},{"id":2413072,"name":"Karantaba","lon":-16.14861,"lat":13.50389,"pop":0},{"id":2413073,"name":"Karantaba","lon":-15.51667,"lat":13.43333,"pop":1372},{"id":2413074,"name":"Karantaba","lon":-16.15444,"lat":13.3525,"pop":0},{"id":2413075,"name":"Karantaba","alt":["Mandingko"],"lon":-14.01667,"lat":13.35,"pop":0},{"id":2413069,"name":"Karantaba Dutu Koto","alt":["Kerewan Duto Koto"],"lon":-14.56667,"lat":13.58333,"pop":0},{"id":2413068,"name":"Karantaba Tabokoto","alt":["Karantaba"],"lon":-14.56667,"lat":13.56667,"pop":0},{"id":2413067,"name":"Karantaba Tenda","alt":["Karantaba"],"lon":-14.56667,"lat":13.55,"pop":0},{"id":2413066,"name":"Karantaba Tukulor","lon":-14.56667,"lat":13.55,"pop":0},{"id":2413065,"name":"Karantaba Woloff","alt":["Karantaba Wolloff"],"lon":-14.56667,"lat":13.56667,"pop":0},{"id":2413064,"name":"Karmanka","lon":-15.85,"lat":13.25,"pop":0},{"id":2413063,"name":"Karrol","lon":-16.07972,"lat":13.17278,"pop":0},{"id":2413062,"name":"Karsi Kunda","lon":-13.85,"lat":13.38333,"pop":0},{"id":2413061,"name":"Kartung","lon":-16.76222,"lat":13.09472,"pop":0},{"id":2413057,"name":"Kas N’Jaibal","alt":["Kas N'Jaibal","Kass N'Jaibal","Kass N’Jaibal"],"lon":-14.93333,"lat":13.76667,"pop":0},{"id":2413059,"name":"Kasa Kunda","lon":-16.69972,"lat":13.25667,"pop":0},{"id":2413060,"name":"Kasa Kunda","lon":-16.68333,"lat":13.25,"pop":0},{"id":2413058,"name":"Kasila","lon":-16.27528,"lat":13.22694,"pop":0},{"id":2413053,"name":"Kass Perom","alt":["Kas Malal Bah","Kass Malal Bah"],"lon":-14.93333,"lat":13.78333,"pop":0},{"id":2413052,"name":"Kass Wollof","alt":["Kass","Samba N'Yang","Samba N’Yang"],"lon":-14.93333,"lat":13.78333,"pop":1109},{"id":2413051,"name":"Kass Yallal","alt":["Kas Yallal"],"lon":-14.9,"lat":13.78333,"pop":229},{"id":2413056,"name":"Kassagne","alt":["Kassang"],"lon":-16.22972,"lat":13.23194,"pop":0},{"id":2413050,"name":"Kataba","lon":-15.51667,"lat":13.55,"pop":0},{"id":2413049,"name":"Kataba Mandinka","lon":-15.53333,"lat":13.55,"pop":0},{"id":2413048,"name":"Kataba Mbap","lon":-15.51667,"lat":13.55,"pop":0},{"id":2413047,"name":"Kataba Omar Ndow","alt":["Kataba","Kattaba"],"lon":-14.81667,"lat":13.68333,"pop":147},{"id":2413045,"name":"Kataba Sering Kah","lon":-14.81667,"lat":13.68333,"pop":0},{"id":2413046,"name":"Kataba Sering Kah","lon":-14.8,"lat":13.66667,"pop":0},{"id":2413044,"name":"Katabatata","lon":-15.51667,"lat":13.55,"pop":0},{"id":2413042,"name":"Katamina","lon":-15.28333,"lat":13.55,"pop":573},{"id":2413041,"name":"Katchang","alt":["Kashan"],"lon":-15.75,"lat":13.5,"pop":1741},{"id":2413038,"name":"Katchang Tenda","lon":-15.76667,"lat":13.48333,"pop":0},{"id":2413037,"name":"Katimina","lon":-15.08333,"lat":13.75,"pop":0},{"id":2413036,"name":"Katokorr","lon":-16.22472,"lat":13.23944,"pop":0},{"id":2413033,"name":"Kau-ur","lon":-15.33333,"lat":13.7,"pop":0},{"id":2413035,"name":"Kaur","lon":-16.34611,"lat":13.17806,"pop":0},{"id":2413032,"name":"Kayabor","alt":["Kaiyabor"],"lon":-15.95,"lat":13.25,"pop":0},{"id":2413031,"name":"Kayainding","lon":-14.85,"lat":13.6,"pop":0},{"id":2413030,"name":"Kayimu","lon":-16.2,"lat":13.16667,"pop":0},{"id":2413029,"name":"Kayimu Bintang","alt":["Bajagar"],"lon":-16.18139,"lat":13.19333,"pop":0},{"id":2413028,"name":"Kayrang","lon":-16.06056,"lat":13.18806,"pop":0},{"id":2413027,"name":"Kebbe Kunda","alt":["Kebbe"],"lon":-13.96667,"lat":13.43333,"pop":0},{"id":2413026,"name":"Kekuta Kunda","lon":-15.85,"lat":13.56667,"pop":370},{"id":2413025,"name":"Kemoto","lon":-16.14619,"lat":13.43197,"pop":453},{"id":2413024,"name":"Kendalu","alt":["Kuonko"],"lon":-14.2,"lat":13.46667,"pop":0},{"id":2413023,"name":"Keneba","alt":["Kenniba"],"lon":-16.015,"lat":13.32889,"pop":1775},{"id":2413022,"name":"Keninding Saibali","lon":-16.78056,"lat":13.28861,"pop":0},{"id":2413020,"name":"Kenniba","lon":-13.86667,"lat":13.43333,"pop":0},{"id":2413021,"name":"Kenniba","lon":-14.1,"lat":13.3,"pop":0},{"id":2413019,"name":"Keno Koto","lon":-16.08222,"lat":13.28917,"pop":9},{"id":2413018,"name":"Ker Abdou Fady","lon":-16.29667,"lat":13.55306,"pop":0},{"id":2413017,"name":"Ker Abdu","alt":["Medina"],"lon":-14.7,"lat":13.48333,"pop":0},{"id":2413016,"name":"Ker Alpha","lon":-15.16667,"lat":13.71667,"pop":0},{"id":2413015,"name":"Ker Alpha Sana","lon":-15.31667,"lat":13.7,"pop":0},{"id":2413014,"name":"Ker Bakary","lon":-16.73333,"lat":13.4,"pop":0},{"id":2413013,"name":"Ker Bakary Salla","lon":-15,"lat":13.8,"pop":0},{"id":2413012,"name":"Ker Bamba","lon":-15.16667,"lat":13.61667,"pop":0},{"id":2413011,"name":"Ker Bamba Lowe","alt":["Ker Bambo Lowe"],"lon":-15.41667,"lat":13.55,"pop":0},{"id":2413010,"name":"Ker Banno","lon":-16.04,"lat":13.57667,"pop":0},{"id":2413009,"name":"Ker Batch","lon":-15.06667,"lat":13.75,"pop":0},{"id":2413008,"name":"Ker Bessenti","lon":-16.715,"lat":13.27583,"pop":0},{"id":2413007,"name":"Ker Biggie","lon":-16.32556,"lat":13.51306,"pop":0},{"id":2413006,"name":"Ker Biram Kardo","lon":-15.9,"lat":13.58333,"pop":0},{"id":2413005,"name":"Ker Biram Yassin","alt":["Ker Batram Yasin","Ker Biram Yasin"],"lon":-16,"lat":13.58333,"pop":0},{"id":2413004,"name":"Ker Biran Kani","lon":-16.31806,"lat":13.495,"pop":0},{"id":2413003,"name":"Ker Biran Yassin","alt":["Biram Yacin","Ker Biram Yassin"],"lon":-15.43333,"lat":13.65,"pop":0},{"id":2413002,"name":"Ker Chaindu","alt":["Ker Tiendu"],"lon":-15.33333,"lat":13.76667,"pop":0},{"id":2413001,"name":"Ker Chandeh","alt":["Ker Chende"],"lon":-16.44,"lat":13.57861,"pop":0},{"id":2413000,"name":"Ker Dekordeh","lon":-16.31667,"lat":13.46667,"pop":0},{"id":2412999,"name":"Ker Demba","lon":-15.23333,"lat":13.7,"pop":0},{"id":2412998,"name":"Ker Demba Gabu","lon":-15.3,"lat":13.7,"pop":0},{"id":2412997,"name":"Ker Dobaly","alt":["Ker-Dobally"],"lon":-16.67778,"lat":13.38861,"pop":0},{"id":2412985,"name":"Ker Famara","lon":-16.01667,"lat":13.56667,"pop":0},{"id":2412984,"name":"Ker Ganyado","lon":-16.28972,"lat":13.59278,"pop":0},{"id":2412983,"name":"Ker Geryado","lon":-16.18333,"lat":13.58333,"pop":0},{"id":2412982,"name":"Ker Gido","lon":-16.2725,"lat":13.54861,"pop":0},{"id":2412981,"name":"Ker Goolgor","lon":-16.71889,"lat":13.27,"pop":0},{"id":2412980,"name":"Ker Gumalo","lon":-15.86667,"lat":13.58333,"pop":0},{"id":2412979,"name":"Ker Halli","alt":["Ker Ali"],"lon":-15.61667,"lat":13.58333,"pop":0},{"id":2412978,"name":"Ker Hardo","alt":["Ker Ardo"],"lon":-16.04639,"lat":13.57889,"pop":0},{"id":2412977,"name":"Ker Ibra","alt":["Hibra"],"lon":-15.38333,"lat":13.73333,"pop":0},{"id":2412976,"name":"Ker Illo Buya","lon":-15.9,"lat":13.58333,"pop":0},{"id":2412974,"name":"Ker Jabel","alt":["Ker Sering Jabel"],"lon":-15.05,"lat":13.76667,"pop":0},{"id":2412975,"name":"Ker Jabel","lon":-15.28333,"lat":13.71667,"pop":0},{"id":2412972,"name":"Ker Jah","lon":-15.4,"lat":13.75,"pop":0},{"id":2412973,"name":"Ker Jah","lon":-15.38333,"lat":13.75,"pop":0},{"id":2412971,"name":"Ker Jaho","lon":-15.4,"lat":13.75,"pop":0},{"id":2412970,"name":"Ker Janko","lon":-15.1,"lat":13.75,"pop":0},{"id":2412968,"name":"Ker Jarga","lon":-15.41667,"lat":13.66667,"pop":0},{"id":2412969,"name":"Ker Jarga","lon":-16.20444,"lat":13.53889,"pop":0},{"id":2412967,"name":"Ker Jatta","lon":-16.44278,"lat":13.55333,"pop":0},{"id":2412966,"name":"Ker Jawbe","lon":-15.91667,"lat":13.58333,"pop":0},{"id":2412965,"name":"Ker Jibby","lon":-15.28333,"lat":13.71667,"pop":0},{"id":2412964,"name":"Ker Jibel","lon":-15.41667,"lat":13.66667,"pop":0},{"id":2412963,"name":"Ker Juma","lon":-16.31667,"lat":13.5,"pop":0},{"id":2412961,"name":"Ker Katim","lon":-15.88333,"lat":13.6,"pop":0},{"id":2412960,"name":"Ker Kossa","lon":-15.3,"lat":13.71667,"pop":0},{"id":2412959,"name":"Ker Lien","lon":-15.28333,"lat":13.61667,"pop":0},{"id":2412945,"name":"Ker M’Bouguma","lon":-16.40583,"lat":13.51917,"pop":0},{"id":2412958,"name":"Ker Mademba","alt":["Mademba"],"lon":-16.43,"lat":13.41833,"pop":0},{"id":2412957,"name":"Ker Madi","lon":-15.4,"lat":13.75,"pop":0},{"id":2412956,"name":"Ker Maila","lon":-15.33333,"lat":13.73333,"pop":0},{"id":2412955,"name":"Ker Majara","lon":-15.4,"lat":13.66667,"pop":0},{"id":2412954,"name":"Ker Maka Tukulor","alt":["Ker Maka"],"lon":-15.06667,"lat":13.81667,"pop":0},{"id":2412953,"name":"Ker Malick","lon":-15.23333,"lat":13.68333,"pop":0},{"id":2412952,"name":"Ker Malick Abdou Njie","lon":-15.38333,"lat":13.75,"pop":0},{"id":2412951,"name":"Ker Malick Sarr","lon":-16.36111,"lat":13.58694,"pop":0},{"id":2412950,"name":"Ker Mama Hugo","lon":-16.4,"lat":13.43333,"pop":0},{"id":2412949,"name":"Ker Mamour Fatim","lon":-15.26667,"lat":13.71667,"pop":0},{"id":2412948,"name":"Ker Mari","lon":-15.9,"lat":13.58333,"pop":0},{"id":2412947,"name":"Ker Marjow","alt":["Ker Majojo"],"lon":-16.16,"lat":13.57944,"pop":0},{"id":2412946,"name":"Ker Mata Jeme","lon":-16,"lat":13.58333,"pop":0},{"id":2412944,"name":"Ker Modi Hali","alt":["Ker Mod","Ker Mod Hali"],"lon":-15.23333,"lat":13.75,"pop":0},{"id":2412943,"name":"Ker Modi Teddy","lon":-15.96667,"lat":13.58333,"pop":0},{"id":2412942,"name":"Ker Momodou Fana","lon":-15.23333,"lat":13.68333,"pop":0},{"id":2412941,"name":"Ker Musa","lon":-15.38333,"lat":13.73333,"pop":0},{"id":2412940,"name":"Ker N’Gaien","lon":-14.91667,"lat":13.63333,"pop":0},{"id":2412938,"name":"Ker N’Gatta","lon":-16.38333,"lat":13.55,"pop":0},{"id":2412937,"name":"Ker N’Gissay","lon":-16.26667,"lat":13.6,"pop":0},{"id":2412935,"name":"Ker N’Gor","lon":-16.24222,"lat":13.55556,"pop":0},{"id":2412931,"name":"Ker N’Jugari","lon":-16.28333,"lat":13.58333,"pop":0},{"id":2412939,"name":"Ker Ngaien","lon":-14.91667,"lat":13.71667,"pop":0},{"id":2412936,"name":"Ker Ngonyan","lon":-16.28472,"lat":13.53639,"pop":0},{"id":2412934,"name":"Ker Ngor","lon":-16.26333,"lat":13.5675,"pop":0},{"id":2412933,"name":"Ker Ngumbo","lon":-16.35222,"lat":13.42944,"pop":0},{"id":2412932,"name":"Ker Niada","lon":-14.81667,"lat":13.73333,"pop":0},{"id":2412930,"name":"Ker Njugar Ndure","lon":-15.33333,"lat":13.53333,"pop":0},{"id":2412929,"name":"Ker Omar Mane","lon":-16.26667,"lat":13.58333,"pop":0},{"id":2412928,"name":"Ker Omar Saine","lon":-16.22389,"lat":13.57889,"pop":0},{"id":2412927,"name":"Ker Ousman Buso","lon":-16.26667,"lat":13.49944,"pop":0},{"id":2412926,"name":"Ker Pate Kore","lon":-15.96667,"lat":13.58333,"pop":0},{"id":2412925,"name":"Ker Patteh","lon":-16.31556,"lat":13.57917,"pop":0},{"id":2412923,"name":"Ker Saderr Jobe","lon":-16.3,"lat":13.55,"pop":0},{"id":2412922,"name":"Ker Sain Musa","lon":-15.4,"lat":13.66667,"pop":0},{"id":2412921,"name":"Ker Sait Cham","lon":-16.355,"lat":13.48556,"pop":0},{"id":2412919,"name":"Ker Sait Maram","lon":-15.03333,"lat":13.8,"pop":0},{"id":2412920,"name":"Ker Sait Maram","lon":-14.83333,"lat":13.61667,"pop":0},{"id":2412912,"name":"Ker Sam Boye","lon":-15.38333,"lat":13.71667,"pop":0},{"id":2412918,"name":"Ker Samba","alt":["Samba Tako"],"lon":-15.05,"lat":13.75,"pop":0},{"id":2412917,"name":"Ker Samba Kalla","lon":-16.35861,"lat":13.52444,"pop":0},{"id":2412916,"name":"Ker Samba Kumda","lon":-15.9,"lat":13.58333,"pop":0},{"id":2412915,"name":"Ker Samba N’Jabeh","alt":["Ker Samba N'Jabeh","Ker Samba N'Jobbeh","Ker Samba N’Jobbeh"],"lon":-16.34528,"lat":13.50472,"pop":0},{"id":2412914,"name":"Ker Samba Sow","lon":-15.9,"lat":13.58333,"pop":0},{"id":2412913,"name":"Ker Samba Yassin","lon":-16.35361,"lat":13.59111,"pop":0},{"id":2412911,"name":"Ker Saniang","lon":-16.46139,"lat":13.57444,"pop":0},{"id":2412910,"name":"Ker Selleh","alt":["Ker N'Gojan","Ker N’Gojan"],"lon":-16.28056,"lat":13.53333,"pop":0},{"id":2412909,"name":"Ker Shikh Taal","lon":-15.98333,"lat":13.56667,"pop":0},{"id":2412908,"name":"Ker Sidy","lon":-15.1,"lat":13.75,"pop":0},{"id":2412907,"name":"Ker Sidyke","lon":-16.26667,"lat":13.51528,"pop":0},{"id":2412906,"name":"Ker Silla","lon":-15.98333,"lat":13.53333,"pop":0},{"id":2412905,"name":"Ker Singarteh","lon":-14.06667,"lat":13.36667,"pop":0},{"id":2412904,"name":"Ker Sirrai","alt":["Willingara"],"lon":-16.35,"lat":13.5,"pop":0},{"id":2412902,"name":"Ker Tamsir","lon":-15.1,"lat":13.73333,"pop":0},{"id":2412903,"name":"Ker Tamsir","lon":-15.23333,"lat":13.68333,"pop":0},{"id":2412901,"name":"Ker Tiern","alt":["Ker Tierno"],"lon":-15.4,"lat":13.75,"pop":0},{"id":2412899,"name":"Ker Waka","lon":-15.23333,"lat":13.68333,"pop":0},{"id":2412900,"name":"Ker Waka","lon":-15.23333,"lat":13.66667,"pop":0},{"id":2412898,"name":"Ker Wally","lon":-16.4275,"lat":13.51861,"pop":0},{"id":2412897,"name":"Ker Werrigo","lon":-16.3,"lat":13.51667,"pop":0},{"id":2412896,"name":"Ker Yoro Bah","lon":-16.32917,"lat":13.52111,"pop":0},{"id":2412895,"name":"Ker Yoro Jallow","lon":-15.08333,"lat":13.75,"pop":0},{"id":2412894,"name":"Ker Yoro Sowe","lon":-15.33333,"lat":13.55,"pop":0},{"id":2412989,"name":"Kerewan","lon":-15.16667,"lat":13.7,"pop":0},{"id":2412990,"name":"Kerewan","lon":-15.05,"lat":13.66667,"pop":0},{"id":2412991,"name":"Kerewan","alt":["Hai-Rewan"],"lon":-15.08333,"lat":13.65,"pop":297},{"id":2412992,"name":"Kerewan","alt":["Kerevane"],"lon":-16.08879,"lat":13.4898,"pop":2751},{"id":2412993,"name":"Kerewan","lon":-14.6,"lat":13.45,"pop":0},{"id":2412994,"name":"Kerewan","lon":-14.6,"lat":13.4,"pop":0},{"id":2412995,"name":"Kerewan","alt":["Karewan"],"lon":-16.62583,"lat":13.36833,"pop":0},{"id":2412996,"name":"Kerewan","lon":-14.21667,"lat":13.36667,"pop":585},{"id":2412986,"name":"Kerewan Samba Sira","alt":["Kerewan"],"lon":-14.9,"lat":13.51667,"pop":0},{"id":9172216,"name":"Kerr Madi","lon":-15.62483,"lat":13.5276,"pop":51},{"id":2412924,"name":"Kerr Sait Maram","lon":-14.85,"lat":13.66667,"pop":0},{"id":7282416,"name":"Kerr Serign","lon":-16.73132,"lat":13.41433,"pop":0},{"id":2412893,"name":"Kesereh","lon":-14.73333,"lat":13.51667,"pop":0},{"id":2412891,"name":"Ket Kuli","lon":-15.88333,"lat":13.58333,"pop":0},{"id":2412892,"name":"Ket Kuli","lon":-15.88333,"lat":13.56667,"pop":0},{"id":2412890,"name":"Kewel","alt":["Kewal"],"lon":-14.7,"lat":13.45,"pop":92},{"id":2412889,"name":"Khayell Bessell","lon":-14.46667,"lat":13.36667,"pop":0},{"id":2412888,"name":"Khewal","lon":-14.83333,"lat":13.51667,"pop":0},{"id":2412884,"name":"Kiberi","lon":-14.71667,"lat":13.61667,"pop":0},{"id":2412882,"name":"Kidi Kunda","lon":-15.85,"lat":13.58333,"pop":0},{"id":2412880,"name":"Killa","lon":-16.27028,"lat":13.46139,"pop":0},{"id":2412879,"name":"Killing","lon":-16.23333,"lat":13.21667,"pop":0},{"id":2412878,"name":"Killy","lon":-16.2325,"lat":13.2075,"pop":0},{"id":2412877,"name":"Kinteh Kunda","alt":["Kinti Kunda"],"lon":-16.06722,"lat":13.50722,"pop":592},{"id":2412876,"name":"Kinti Kunda","lon":-15.91667,"lat":13.53333,"pop":0},{"id":2412875,"name":"Kiskisi","lon":-14.15,"lat":13.3,"pop":0},{"id":2412874,"name":"Kissay","lon":-16.42472,"lat":13.52222,"pop":0},{"id":2412873,"name":"Kiti","lon":-16.66667,"lat":13.23111,"pop":0},{"id":2412872,"name":"Kiti Manjago","lon":-16.66556,"lat":13.24611,"pop":0},{"id":2412871,"name":"Kobotor","lon":-14.08333,"lat":13.38333,"pop":157},{"id":2412870,"name":"Kofa","lon":-15.2,"lat":13.75,"pop":84},{"id":2412869,"name":"Kohel","lon":-15.55,"lat":13.4,"pop":66},{"id":2412868,"name":"Koina","lon":-13.86667,"lat":13.48333,"pop":3870},{"id":2412866,"name":"Koina Tenda","lon":-13.9,"lat":13.48333,"pop":0},{"id":2412859,"name":"Koli Kunda","lon":-15.23333,"lat":13.6,"pop":0},{"id":2412860,"name":"Koli Kunda","lon":-14.76667,"lat":13.55,"pop":0},{"id":2412861,"name":"Koli Kunda","lon":-14,"lat":13.53333,"pop":0},{"id":2412862,"name":"Koli Kunda","lon":-13.9,"lat":13.4,"pop":0},{"id":2412863,"name":"Koli Kunda","lon":-14.08333,"lat":13.36667,"pop":0},{"id":2412865,"name":"Kolibantang","lon":-14.2,"lat":13.43333,"pop":0},{"id":2412858,"name":"Kolinto","lon":-14.11667,"lat":13.28333,"pop":0},{"id":2412856,"name":"Kolior","lon":-15.66667,"lat":13.43333,"pop":0},{"id":2412857,"name":"Kolior","lon":-15.66667,"lat":13.41667,"pop":0},{"id":2412855,"name":"Kololi","lon":-16.71667,"lat":13.45,"pop":0},{"id":2412853,"name":"Komansor","lon":-16.21667,"lat":13.18333,"pop":0},{"id":2412847,"name":"Konko Fulla","lon":-14.8,"lat":13.53333,"pop":0},{"id":2412845,"name":"Konko Koto","lon":-14.91667,"lat":13.71667,"pop":0},{"id":2412846,"name":"Konkohdoma","lon":-14.71667,"lat":13.55,"pop":0},{"id":2412842,"name":"Konteh","lon":-15.16667,"lat":13.71667,"pop":59},{"id":2412841,"name":"Konti Kunda Niji","alt":["Niji"],"lon":-15.78333,"lat":13.56667,"pop":0},{"id":2412840,"name":"Konti Kunda Sukoto","alt":["Konti Kunda"],"lon":-15.8,"lat":13.56667,"pop":0},{"id":2412838,"name":"Korro Jula Kunda","lon":-14.48333,"lat":13.35,"pop":323},{"id":2412836,"name":"Kossemar","alt":["Kossema"],"lon":-14.38333,"lat":13.33333,"pop":0},{"id":2412835,"name":"Kossemar Dembell","lon":-14.38333,"lat":13.31667,"pop":0},{"id":2412834,"name":"Kossemar Momadu Sutu","alt":["Kossemar Mamodu Sutu"],"lon":-14.38333,"lat":13.31667,"pop":281},{"id":2412833,"name":"Kotu","lon":-16.70528,"lat":13.45944,"pop":0},{"id":2412830,"name":"Kristi Kunda","lon":-13.86667,"lat":13.41667,"pop":0},{"id":2412828,"name":"Kuari","lon":-13.88333,"lat":13.33333,"pop":0},{"id":2412827,"name":"Kubariko","lon":-16.6325,"lat":13.33222,"pop":0},{"id":2412825,"name":"Kubendar","lon":-15.63333,"lat":13.53333,"pop":0},{"id":2412824,"name":"Kubuni","alt":["Kubune"],"lon":-16.60528,"lat":13.32417,"pop":0},{"id":2412823,"name":"Kucha","alt":["Kutcha"],"lon":-15.01667,"lat":13.76667,"pop":123},{"id":2412822,"name":"Kudang","lon":-15.06667,"lat":13.66667,"pop":0},{"id":2412821,"name":"Kudang Tenda","alt":["Kudang","Kudang Wharf"],"lon":-15.08333,"lat":13.68333,"pop":360},{"id":2412818,"name":"Kujew","lon":-14.7,"lat":13.55,"pop":206},{"id":2412817,"name":"Kukuyel","alt":["Kukuyal"],"lon":-13.9,"lat":13.4,"pop":152},{"id":2412816,"name":"Kular","lon":-14.21667,"lat":13.46667,"pop":0},{"id":2412815,"name":"Kulari","lon":-14.08333,"lat":13.4,"pop":0},{"id":2412814,"name":"Kuli Kunda","alt":["Kidi Kunda"],"lon":-15.91667,"lat":13.33333,"pop":556},{"id":2412812,"name":"Kulkulel","lon":-14.15,"lat":13.3,"pop":0},{"id":2412811,"name":"Kuloro","lon":-16.57806,"lat":13.28056,"pop":0},{"id":2412810,"name":"Kulukoch","lon":-16.76361,"lat":13.1675,"pop":0},{"id":2412808,"name":"Kumbaney","alt":["Kumbani"],"lon":-15.21667,"lat":13.6,"pop":0},{"id":2412806,"name":"Kumbija","lon":-15.23333,"lat":13.6,"pop":0},{"id":2412807,"name":"Kumbija","alt":["Kumbita"],"lon":-14.18333,"lat":13.26667,"pop":1760},{"id":2412804,"name":"Kumbijae","alt":["Kumbija"],"lon":-15.43333,"lat":13.53333,"pop":623},{"id":2412803,"name":"Kumbul","lon":-13.96667,"lat":13.38333,"pop":0},{"id":2412800,"name":"Kunda","alt":["Porli"],"lon":-15.11667,"lat":13.78333,"pop":0},{"id":2412801,"name":"Kunda","lon":-13.88333,"lat":13.55,"pop":0},{"id":2412798,"name":"Kundam","lon":-14.11667,"lat":13.33333,"pop":0},{"id":2412797,"name":"Kundam Demba","lon":-14.11667,"lat":13.33333,"pop":396},{"id":2412796,"name":"Kundam Fode","lon":-14.11667,"lat":13.33333,"pop":0},{"id":2412795,"name":"Kunjala","lon":-14.18333,"lat":13.25,"pop":0},{"id":2412794,"name":"Kunjenjen","lon":-16.025,"lat":13.1675,"pop":0},{"id":2412793,"name":"Kunjetta","lon":-15.4,"lat":13.5,"pop":0},{"id":2412786,"name":"Kunkujang","lon":-16.67278,"lat":13.38972,"pop":0},{"id":2412787,"name":"Kunkujang","lon":-16.7575,"lat":13.31306,"pop":0},{"id":2412788,"name":"Kunkujang","alt":["Kakudia","Kunkujan"],"lon":-16.74278,"lat":13.22528,"pop":0},{"id":2412789,"name":"Kunkujang","alt":["Kunkujan"],"lon":-16.62389,"lat":13.30472,"pop":0},{"id":2412783,"name":"Kunkujang Jattaya","alt":["Kunkujan Jataya"],"lon":-16.60056,"lat":13.34722,"pop":0},{"id":2412785,"name":"Kunkujang Manjago","lon":-16.73222,"lat":13.25667,"pop":0},{"id":2412784,"name":"Kunkujang NDing","lon":-16.76472,"lat":13.29167,"pop":0},{"id":2412782,"name":"Kunong Fula Kunda","lon":-15.73333,"lat":13.41667,"pop":0},{"id":2412781,"name":"Kunong Mansasansang","lon":-15.73333,"lat":13.41667,"pop":0},{"id":2412780,"name":"Kunong Numu Kunda","alt":["Numu Kunda"],"lon":-15.71667,"lat":13.41667,"pop":0},{"id":2412779,"name":"Kuntair","lon":-16.22444,"lat":13.53639,"pop":0},{"id":2412778,"name":"Kuntaur","alt":["kwntawr","kwntwr","كونتور","کونتاور"],"lon":-14.88977,"lat":13.67085,"pop":2534},{"id":2412777,"name":"Kuntaur Fula Kunda","alt":["Kuntaur"],"lon":-14.86667,"lat":13.65,"pop":0},{"id":2412775,"name":"Kunting","lon":-14.66667,"lat":13.53333,"pop":1204},{"id":2412773,"name":"Kununku","alt":["Kulibanta"],"lon":-15,"lat":13.66667,"pop":210},{"id":2412772,"name":"Kuoba Kunda","alt":["Kuoba"],"lon":-14.23333,"lat":13.31667,"pop":0},{"id":2412767,"name":"Kur Kur Yoro Mballow","alt":["Sare Yewtu"],"lon":-14.88333,"lat":13.48333,"pop":306},{"id":2412771,"name":"Kurang Kotor","alt":["Kurong Kortor"],"lon":-16.1,"lat":13.31667,"pop":0},{"id":2412770,"name":"Kurau Bakari","lon":-14.41667,"lat":13.4,"pop":0},{"id":2412769,"name":"Kurau Kemo Arfang","alt":["Kurau"],"lon":-14.41667,"lat":13.4,"pop":0},{"id":2412768,"name":"Kurinulain","lon":-16.08556,"lat":13.22667,"pop":0},{"id":2412766,"name":"Kurup","alt":["Kurop"],"lon":-14.71667,"lat":13.5,"pop":0},{"id":2412765,"name":"Kuryande","lon":-13.81667,"lat":13.46667,"pop":0},{"id":2412764,"name":"Kusa Burey","lon":-14.13333,"lat":13.35,"pop":0},{"id":2412763,"name":"Kusaie","lon":-13.9,"lat":13.55,"pop":0},{"id":2412762,"name":"Kusalang","alt":["Sinchu Kusalang"],"lon":-14.86667,"lat":13.45,"pop":251},{"id":2412837,"name":"Kusamai","alt":["Kossema","Kussamai"],"lon":-16.17556,"lat":13.17306,"pop":0},{"id":2412761,"name":"Kusassa","alt":["Kunjung"],"lon":-15.58333,"lat":13.56667,"pop":0},{"id":2412759,"name":"Kusi","lon":-14.11667,"lat":13.45,"pop":0},{"id":2412758,"name":"Kusun","lon":-13.93333,"lat":13.38333,"pop":0},{"id":2412755,"name":"Kuyang","lon":-16.1025,"lat":13.33361,"pop":17},{"id":9173185,"name":"Kuyang Bajonki","lon":-16.10467,"lat":13.34119,"pop":0},{"id":2412754,"name":"Kuyarang","alt":["Kuiran"],"lon":-14.83333,"lat":13.66667,"pop":0},{"id":2412753,"name":"Kwinella","lon":-15.8,"lat":13.4,"pop":0},{"id":2412752,"name":"Labba Korreh","lon":-16.72583,"lat":13.35278,"pop":0},{"id":2412751,"name":"Laliya","lon":-15.86667,"lat":13.58333,"pop":0},{"id":2412750,"name":"Lama","alt":["Sare Sambuldu"],"lon":-14.8,"lat":13.48333,"pop":182},{"id":2412748,"name":"Lamin","alt":["Lameng","Lamin Beretto"],"lon":-16.64472,"lat":13.38694,"pop":0},{"id":2412749,"name":"Lamin","lon":-16.43389,"lat":13.35222,"pop":24797},{"id":2412744,"name":"Lamin Koto","alt":["Lamin"],"lon":-14.76667,"lat":13.55,"pop":0},{"id":2412742,"name":"Lamoi","lon":-14.58333,"lat":13.43333,"pop":121},{"id":2412740,"name":"Lang Sarr","lon":-16.3625,"lat":13.57611,"pop":0},{"id":2412741,"name":"Lang Sarr","lon":-15.63333,"lat":13.58333,"pop":80},{"id":2412739,"name":"Larlagoi","lon":-14.58333,"lat":13.41667,"pop":0},{"id":2412738,"name":"Latri Kunda","alt":["Latra Kunda","Latri Kundal"],"lon":-16.68528,"lat":13.44861,"pop":0},{"id":2412737,"name":"Latri Sabiji","alt":["Latra Sabiji","Latra Sibige","Latri","Latrikunda Sabiji"],"lon":-16.67889,"lat":13.41333,"pop":0},{"id":2412735,"name":"Leba Biji","lon":-15.18333,"lat":13.75,"pop":0},{"id":2412734,"name":"Leba Mali Mbye","alt":["Leba"],"lon":-15.16667,"lat":13.75,"pop":0},{"id":2412733,"name":"Leba Pegail","lon":-15.18333,"lat":13.75,"pop":0},{"id":2412732,"name":"Leba Samba","lon":-15.18333,"lat":13.75,"pop":0},{"id":2412731,"name":"Leba Sasuna","lon":-15.18333,"lat":13.75,"pop":0},{"id":2412730,"name":"Leese Ya","lon":-16.66278,"lat":13.21667,"pop":0},{"id":2412729,"name":"Legi Kunda","lon":-14.51667,"lat":13.35,"pop":0},{"id":2412727,"name":"Lewna","lon":-16.47056,"lat":13.54389,"pop":0},{"id":2412728,"name":"Lewna","lon":-16.47333,"lat":13.53833,"pop":0},{"id":2412724,"name":"Limbambulu","alt":["Dramane"],"lon":-14.11667,"lat":13.43333,"pop":0},{"id":2412725,"name":"Limbambulu","alt":["Yamadu"],"lon":-14.13333,"lat":13.41667,"pop":0},{"id":2412726,"name":"Limbambulu","alt":["Jaha"],"lon":-14.11667,"lat":13.41667,"pop":0},{"id":2412723,"name":"Linjanya","lon":-16.75167,"lat":13.22972,"pop":0},{"id":2412721,"name":"Logo Moji","lon":-14.55,"lat":13.38333,"pop":0},{"id":2412720,"name":"Lohen","alt":["Dimbaga"],"lon":-16.36417,"lat":13.54389,"pop":0},{"id":2412714,"name":"Luluchore","lon":-16.10333,"lat":13.18444,"pop":0},{"id":2412713,"name":"Lumang","lon":-16.25,"lat":13.18333,"pop":0},{"id":2412712,"name":"Lumen","lon":-15.41667,"lat":13.56667,"pop":0},{"id":2412581,"name":"M’Baien Fulla","alt":["M'Baien Fulla","N'Baien","N’Baien"],"lon":-14.81667,"lat":13.71667,"pop":0},{"id":2412567,"name":"M’Bawarr","lon":-14.6,"lat":13.58333,"pop":0},{"id":2412562,"name":"M’Bollet N’Ding","alt":["M'Bollet N'Ding","Sharm"],"lon":-16.46639,"lat":13.52361,"pop":0},{"id":2412561,"name":"M’Bowen","lon":-16.26667,"lat":13.53333,"pop":0},{"id":2412558,"name":"M’Bulum","lon":-16.40556,"lat":13.54222,"pop":0},{"id":2412711,"name":"Mabali Kotor","alt":["Junku"],"lon":-14.66667,"lat":13.41667,"pop":0},{"id":2412710,"name":"Mabali Kuta","lon":-14.66667,"lat":13.4,"pop":0},{"id":2412709,"name":"Macca","alt":["Makka"],"lon":-16.13333,"lat":13.4,"pop":0},{"id":2412706,"name":"Madi","lon":-15.88333,"lat":13.58333,"pop":0},{"id":2412703,"name":"Madiana","lon":-14.53333,"lat":13.51667,"pop":0},{"id":2412704,"name":"Madiana","lon":-14.5,"lat":13.48333,"pop":0},{"id":2412705,"name":"Madiana","lon":-16.76306,"lat":13.35333,"pop":0},{"id":2412687,"name":"Madina","lon":-16.31667,"lat":13.25,"pop":0},{"id":2412688,"name":"Madina","lon":-14.88333,"lat":13.7,"pop":765},{"id":2412689,"name":"Madina","lon":-13.98333,"lat":13.53333,"pop":0},{"id":2412690,"name":"Madina","lon":-15.25,"lat":13.51667,"pop":0},{"id":2412691,"name":"Madina","lon":-14.83333,"lat":13.51667,"pop":0},{"id":2412692,"name":"Madina","lon":-15.25,"lat":13.5,"pop":589},{"id":2412693,"name":"Madina","alt":["Medina"],"lon":-14.48333,"lat":13.45,"pop":0},{"id":2412694,"name":"Madina","alt":["Bala Silla"],"lon":-14.13333,"lat":13.45,"pop":0},{"id":2412695,"name":"Madina","lon":-15.45,"lat":13.38333,"pop":0},{"id":2412696,"name":"Madina","alt":["Mandina"],"lon":-16.17167,"lat":13.35778,"pop":0},{"id":2412697,"name":"Madina","lon":-14.53333,"lat":13.36667,"pop":0},{"id":2412698,"name":"Madina","lon":-15.76667,"lat":13.35,"pop":0},{"id":2412699,"name":"Madina","lon":-14.18333,"lat":13.35,"pop":0},{"id":2412700,"name":"Madina","lon":-14.01667,"lat":13.3,"pop":0},{"id":2412701,"name":"Madina","alt":["Neman Kunda"],"lon":-15.9,"lat":13.26667,"pop":0},{"id":2412702,"name":"Madina","lon":-16.64778,"lat":13.2575,"pop":0},{"id":2412686,"name":"Madina Adam","lon":-15.28333,"lat":13.73333,"pop":0},{"id":2412685,"name":"Madina Bafuloto","alt":["Chermo Omar","Cherno Omar"],"lon":-16.33972,"lat":13.45583,"pop":0},{"id":2412684,"name":"Madina Bala","lon":-13.85,"lat":13.41667,"pop":185},{"id":2412682,"name":"Madina Dabo Kunda","lon":-16.71028,"lat":13.34139,"pop":0},{"id":2412680,"name":"Madina Fula Balde","lon":-14.63333,"lat":13.4,"pop":0},{"id":2412679,"name":"Madina Fula Kunda","lon":-13.83333,"lat":13.41667,"pop":242},{"id":2412678,"name":"Madina Jawbeh","lon":-14.86667,"lat":13.48333,"pop":0},{"id":2412677,"name":"Madina Kuru","lon":-14.5,"lat":13.35,"pop":0},{"id":2412676,"name":"Madina Kuta","lon":-13.86667,"lat":13.38333,"pop":102},{"id":2412675,"name":"Madina Madi","alt":["Ker Malima"],"lon":-15.18333,"lat":13.58333,"pop":259},{"id":2412674,"name":"Madina Mbaien","lon":-15.06667,"lat":13.75,"pop":0},{"id":2412670,"name":"Madina N’Yang-en","lon":-14.91667,"lat":13.75,"pop":0},{"id":2412673,"name":"Madina Njaien","lon":-15.41667,"lat":13.66667,"pop":0},{"id":2412672,"name":"Madina Njaine","alt":["Madina N'Jaien","Madina N’Jaien"],"lon":-14.88333,"lat":13.75,"pop":0},{"id":2412671,"name":"Madina Njugari","lon":-15.31667,"lat":13.65,"pop":400},{"id":9173077,"name":"Madina Pateh Guno","lon":-15.27894,"lat":13.63252,"pop":0},{"id":2412669,"name":"Madina Sadda","lon":-14.4,"lat":13.26667,"pop":0},{"id":2412668,"name":"Madina Sey Kunda","lon":-16.68444,"lat":13.37472,"pop":0},{"id":2412667,"name":"Madina Sinchu Yoro","alt":["Madina","Mankajang"],"lon":-14.86667,"lat":13.5,"pop":0},{"id":2412666,"name":"Madina Talakoto","lon":-16.58833,"lat":13.20778,"pop":0},{"id":2412665,"name":"Madina Tenda","lon":-14.2,"lat":13.38333,"pop":0},{"id":2412664,"name":"Madina Tunjang","alt":["Madina Demba","Madina Tujeng"],"lon":-14.75,"lat":13.43333,"pop":797},{"id":2412663,"name":"Madina Umfally","alt":["Madina","Manna"],"lon":-14.95,"lat":13.53333,"pop":0},{"id":2412662,"name":"Madina Yoro Sowe","lon":-15.01667,"lat":13.6,"pop":0},{"id":2412661,"name":"Maga Geyor","lon":-16.28333,"lat":13.58333,"pop":0},{"id":2412660,"name":"Mahmuda","lon":-16.415,"lat":13.44778,"pop":0},{"id":2412659,"name":"Mahnyinah","lon":-16.20806,"lat":13.20861,"pop":0},{"id":2412658,"name":"Maidi","lon":-15.95,"lat":13.58333,"pop":0},{"id":2412657,"name":"Maimeh","lon":-16.34583,"lat":13.19167,"pop":0},{"id":2412656,"name":"Majama Kunda","lon":-15.85,"lat":13.56667,"pop":0},{"id":2412651,"name":"Maka","lon":-15.05,"lat":13.8,"pop":0},{"id":2412652,"name":"Maka","lon":-15.28333,"lat":13.73333,"pop":0},{"id":2412653,"name":"Maka","lon":-14.88333,"lat":13.7,"pop":0},{"id":2412654,"name":"Maka","lon":-15.3,"lat":13.6,"pop":0},{"id":2412655,"name":"Maka","lon":-14.03333,"lat":13.41667,"pop":0},{"id":2412650,"name":"Maka Bala Mana","lon":-16.31056,"lat":13.57861,"pop":0},{"id":2412649,"name":"Maka Farafenni","alt":["Marka Farafenni"],"lon":-15.63333,"lat":13.58333,"pop":0},{"id":2412647,"name":"Maka Gui","lon":-15.15,"lat":13.78333,"pop":0},{"id":2412648,"name":"Maka Gui","lon":-14.9,"lat":13.75,"pop":0},{"id":2412643,"name":"Maka Njen Jam","lon":-16.28167,"lat":13.59139,"pop":0},{"id":2412642,"name":"Maka Omar Manneh","lon":-16.26972,"lat":13.57889,"pop":0},{"id":2412641,"name":"Maka Wollof","lon":-15.06667,"lat":13.81667,"pop":0},{"id":2412646,"name":"Makajan","lon":-13.91667,"lat":13.56667,"pop":0},{"id":2412645,"name":"Makajan Kunda","lon":-13.91667,"lat":13.56667,"pop":0},{"id":2412644,"name":"Makama","lon":-15.31667,"lat":13.6,"pop":0},{"id":2412640,"name":"Male Kunda","lon":-15.3,"lat":13.55,"pop":0},{"id":2412639,"name":"Maliky Mansong","lon":-14.5,"lat":13.33333,"pop":0},{"id":2412638,"name":"Malubaliya","lon":-14.08333,"lat":13.5,"pop":0},{"id":2412636,"name":"Mamadi Ceesay","lon":-14.45,"lat":13.5,"pop":0},{"id":2412635,"name":"Mamadi Sisi","lon":-14.43333,"lat":13.51667,"pop":0},{"id":2412633,"name":"Mampata Yeli","lon":-14.21667,"lat":13.23333,"pop":0},{"id":2412632,"name":"Mamu Fana","alt":["Baitit Mamu Fana"],"lon":-15.11667,"lat":13.6,"pop":0},{"id":2412631,"name":"Manar","lon":-16.15222,"lat":13.35861,"pop":0},{"id":2412629,"name":"Mandina","lon":-15.7,"lat":13.43333,"pop":170},{"id":2412630,"name":"Mandina","lon":-16.02028,"lat":13.18,"pop":0},{"id":2412628,"name":"Mandinaba","alt":["Maindina Ba","Mandina Ba","Mandina Bah"],"lon":-16.59361,"lat":13.28111,"pop":0},{"id":2412625,"name":"Mandinari","lon":-16.60278,"lat":13.37278,"pop":0},{"id":2412621,"name":"Mandori","lon":-15.93333,"lat":13.5,"pop":0},{"id":2412618,"name":"Manduar","alt":["Kenniang","Mandua"],"lon":-16.07,"lat":13.35389,"pop":0},{"id":2412619,"name":"Manduar","alt":["Manduari"],"lon":-16.63694,"lat":13.24556,"pop":0},{"id":2412617,"name":"Mane Kunda","alt":["Manneh Kunda"],"lon":-14.21667,"lat":13.3,"pop":161},{"id":2412615,"name":"Mangiumba","lon":-14.93333,"lat":13.71667,"pop":0},{"id":2412610,"name":"Manjaharr","lon":-15.36667,"lat":13.71667,"pop":0},{"id":2412609,"name":"Manjai Kunda","alt":["Manjal Kunda"],"lon":-16.70278,"lat":13.44528,"pop":0},{"id":2412608,"name":"Manna","lon":-14.8,"lat":13.58333,"pop":435},{"id":2412607,"name":"Mano Kotor","alt":["Manor Koto"],"lon":-14.11667,"lat":13.5,"pop":0},{"id":2412605,"name":"Mansa Konko","lon":-15.5357,"lat":13.44325,"pop":1978},{"id":2412604,"name":"Mansa Kunda","lon":-13.98333,"lat":13.4,"pop":0},{"id":2412606,"name":"Mansajang Kunda","lon":-14.21667,"lat":13.3,"pop":0},{"id":2412603,"name":"Mansal","lon":-16.66694,"lat":13.24917,"pop":0},{"id":2412600,"name":"Mara Magai","lon":-14.91667,"lat":13.51667,"pop":709},{"id":2412601,"name":"Marakissa","lon":-16.64972,"lat":13.21111,"pop":0},{"id":2412598,"name":"Mariama Kunda","alt":["Mansakunda"],"lon":-16.73,"lat":13.36444,"pop":0},{"id":2412597,"name":"Marige","lon":-15.91667,"lat":13.21667,"pop":0},{"id":2412595,"name":"Marrong Kunda","lon":-15.91667,"lat":13.53333,"pop":0},{"id":2412594,"name":"Marsai","lon":-15.36667,"lat":13.71667,"pop":0},{"id":2412593,"name":"Massembe","lon":-15.63333,"lat":13.41667,"pop":938},{"id":2412592,"name":"Massembe Chandere","lon":-14.76667,"lat":13.43333,"pop":0},{"id":2412591,"name":"Maundeh Kunda","lon":-15.03333,"lat":13.63333,"pop":0},{"id":2412590,"name":"Mayamba","alt":["Myamba"],"lon":-16.51694,"lat":13.49417,"pop":0},{"id":2412589,"name":"Mayork","lon":-15.96667,"lat":13.23333,"pop":528},{"id":2412584,"name":"Mbaien","lon":-15.03333,"lat":13.8,"pop":0},{"id":2412585,"name":"Mbaien","lon":-15.36667,"lat":13.71667,"pop":0},{"id":2412586,"name":"Mbaien","lon":-15.11667,"lat":13.6,"pop":0},{"id":2412587,"name":"Mbaien","lon":-16.39083,"lat":13.54556,"pop":0},{"id":2412588,"name":"Mbaien","lon":-15.61667,"lat":13.53333,"pop":0},{"id":2412583,"name":"Mbaien Burama","lon":-15.06667,"lat":13.75,"pop":0},{"id":2412582,"name":"Mbaien Chand Mbye","lon":-15.26667,"lat":13.71667,"pop":0},{"id":2412580,"name":"Mbaien Ker Nyang","lon":-15.26667,"lat":13.71667,"pop":0},{"id":2412579,"name":"Mbaien Maka","lon":-15.1,"lat":13.61667,"pop":0},{"id":2412578,"name":"Mbaien Sara Kumba Kah","lon":-14.8,"lat":13.73333,"pop":0},{"id":2412577,"name":"Mbaien Wollof","lon":-14.81667,"lat":13.73333,"pop":0},{"id":2412576,"name":"Mballo Kunda","lon":-14.5,"lat":13.31667,"pop":0},{"id":2412575,"name":"Mbamori Kunda","lon":-16.00361,"lat":13.58167,"pop":212},{"id":2412574,"name":"Mban","lon":-14.75,"lat":13.48333,"pop":0},{"id":2412573,"name":"Mbange Ndarra","lon":-15.55,"lat":13.58333,"pop":0},{"id":2412572,"name":"MBangkama","alt":["M'Bengkama","M’Bengkama"],"lon":-16.50556,"lat":13.54417,"pop":0},{"id":9172211,"name":"Mbanta Su","lon":-15.51394,"lat":13.5508,"pop":73},{"id":2412571,"name":"Mbap Ba","lon":-15.48333,"lat":13.58333,"pop":0},{"id":2412570,"name":"Mbap Marigay","lon":-15.48333,"lat":13.58333,"pop":0},{"id":2412569,"name":"Mbaro","lon":-15.01667,"lat":13.75,"pop":0},{"id":2412568,"name":"Mbarra Kunku","lon":-16.73333,"lat":13.40583,"pop":0},{"id":2412566,"name":"Mbogen","lon":-15.28333,"lat":13.71667,"pop":0},{"id":2412565,"name":"Mbol Bouk","lon":-14.8,"lat":13.61667,"pop":0},{"id":2412564,"name":"Mbolgoh","lon":-15.23333,"lat":13.75,"pop":0},{"id":2412563,"name":"Mbollet Bah","alt":["M'Bolett","M'Bollet","M’Bolett","M’Bollet"],"lon":-16.5,"lat":13.51667,"pop":0},{"id":2412559,"name":"Mbul Manda","lon":-14.8,"lat":13.45,"pop":0},{"id":2412560,"name":"Mbulgurk","alt":["Bulghurk","Bulgurk"],"lon":-15.28333,"lat":13.75,"pop":0},{"id":2412557,"name":"Mbulum","lon":-16.40667,"lat":13.53556,"pop":0},{"id":2412556,"name":"Mbye Kunda","alt":["M'Baia","M’Baia"],"lon":-14.28333,"lat":13.38333,"pop":271},{"id":2412555,"name":"Mbye Niake","lon":-15.41667,"lat":13.58333,"pop":0},{"id":2412551,"name":"Medina","lon":-14.3,"lat":13.4,"pop":0},{"id":2412552,"name":"Medina","lon":-14.95,"lat":13.66667,"pop":0},{"id":2412553,"name":"Medina","lon":-15.28333,"lat":13.6,"pop":0},{"id":2412554,"name":"Medina","lon":-16.10472,"lat":13.21528,"pop":0},{"id":2412550,"name":"Medina Dudu","lon":-16.3475,"lat":13.42833,"pop":0},{"id":2412548,"name":"Medina Jambol","lon":-14.31667,"lat":13.28333,"pop":0},{"id":2412547,"name":"Medina Kanuma","lon":-16.52333,"lat":13.49278,"pop":764},{"id":2412546,"name":"Medina Manneh","lon":-16.39444,"lat":13.55861,"pop":0},{"id":2412545,"name":"Medina Mannen","lon":-15.05,"lat":13.8,"pop":0},{"id":2412544,"name":"Medina Modum","lon":-16.28194,"lat":13.57667,"pop":0},{"id":2412543,"name":"Medina Njama","lon":-16.25889,"lat":13.53917,"pop":0},{"id":2412542,"name":"Medina Njammeh Sise","lon":-15.18333,"lat":13.73333,"pop":0},{"id":2412541,"name":"Medina Njien","lon":-15.05,"lat":13.78333,"pop":0},{"id":2412540,"name":"Medina Sacheboe","lon":-16.36833,"lat":13.40222,"pop":0},{"id":2412539,"name":"Medina Sedia","lon":-16.43333,"lat":13.42056,"pop":0},{"id":2412537,"name":"Medina Sering Njie","alt":["Ker Sering N'Jie","Ker Sering N’Jie"],"lon":-15.08333,"lat":13.78333,"pop":0},{"id":2412538,"name":"Medina Seringe Mass","alt":["Hamawda","Medina Sering Mas","Medina Sering Mass","Niana Farra"],"lon":-16.41083,"lat":13.48833,"pop":0},{"id":2412536,"name":"Medina Sotokoi","lon":-16.45694,"lat":13.55,"pop":0},{"id":2412535,"name":"Medina Suware Kunda","alt":["Farato"],"lon":-16.665,"lat":13.315,"pop":0},{"id":2412549,"name":"Medina-Duisi","alt":["Medina"],"lon":-15.28333,"lat":13.73333,"pop":0},{"id":2412534,"name":"Memmeh","alt":["Memme"],"lon":-16.23111,"lat":13.51972,"pop":493},{"id":2412532,"name":"Mendy Kunda","lon":-16.70556,"lat":13.26889,"pop":0},{"id":2412531,"name":"Mesaith Sayan","lon":-14.58333,"lat":13.45,"pop":0},{"id":2412528,"name":"Mina","lon":-15.48333,"lat":13.55,"pop":0},{"id":2412526,"name":"Minjang","lon":-15.9,"lat":13.38333,"pop":0},{"id":2412525,"name":"Minti Kunda","lon":-15.86667,"lat":13.56667,"pop":0},{"id":2412520,"name":"Misera","alt":["Misira"],"lon":-14.95,"lat":13.55,"pop":0},