[{"id":12047233,"name":"(fomer) Roman Catholic Diocese of Gortyn","lon":24.94695,"lat":35.06211,"pop":0},{"id":12047194,"name":"(fomer) Roman Catholic Diocese of Thessaloniki","lon":22.9384,"lat":40.63757,"pop":0},{"id":12088667,"name":"(former) Greek Orthodox Diocese of Kos","lon":27.14667,"lat":36.81205,"pop":0},{"id":12097117,"name":"(Megale) Arsenikeia","lon":23.81407,"lat":40.45545,"pop":0},{"id":265490,"name":"Achaïkó","alt":["Achaiko","Achaikon","Achaïkón","Akhaikon","Akhaïkón","Αχαϊκό","Αχαϊκόν"],"lon":21.59963,"lat":38.12309,"pop":0},{"id":6692637,"name":"Acharávi","alt":["Acharavi","Αχαράβη"],"lon":19.81736,"lat":39.7936,"pop":1013},{"id":265488,"name":"Acharnés","alt":["Acharnae","Acharnai","Acharne","Acharnes","Akharnai","Akharnaí","Menidhi","Menidhion","Menidi","Menidion","Menioi","Menídhi","Menídhion","Meníoi","Αχαρνές","Αχαρναί","Μενίδι","Μενίδιον"],"lon":23.73333,"lat":38.08333,"pop":99346},{"id":265485,"name":"Achatzikiá","alt":["Achatzikia","Akhatzikia","Akhatzikiá","Metokhi Arkhatzikioi","Metókhi Arkhatzíkioï","Αχατζηκιά"],"lon":24.16792,"lat":35.3503,"pop":0},{"id":265484,"name":"Achelináda","alt":["Achelinada","Akhelinadha","Akhelinádha","Αχελινάδα"],"lon":21.87549,"lat":39.82579,"pop":175},{"id":265478,"name":"Acherousía","alt":["Acherousia","Akherousia","Akherousía","Yannouzia","Yannouziá","Yiannouzia","Yiannouziá","Αχερουσία"],"lon":20.59792,"lat":39.25817,"pop":234},{"id":8129106,"name":"Acheroynes","lon":24.53655,"lat":38.85161,"pop":0},{"id":265472,"name":"Achílleio","alt":["Achilleio","Achilleion","Achílleion","Akhillion","Akhíllion","Burazan","Burazán","Αχίλλειο","Αχίλλειον"],"lon":22.67508,"lat":39.53464,"pop":0},{"id":265473,"name":"Achílleio","alt":["Achilleio","Achilleion","Achílleion","Akhillion","Akhíllion","Kaklendzion","Kaklendzíon","Αχίλλειο","Αχίλλειον"],"lon":22.42036,"lat":39.26675,"pop":0},{"id":265475,"name":"Achílleio","alt":["Achilleio","Akhillion","Akhíllion","Αχίλλειο"],"lon":22.48338,"lat":36.4371,"pop":0},{"id":2463802,"name":"Achílleion","alt":["Achilleio","Achilleion","Akhillion","Akhillion Palace","Akhíllion","Akhíllion Palace","Αχίλλειο","Αχίλλειον"],"lon":19.905,"lat":39.56444,"pop":0},{"id":12514398,"name":"Achilli","lon":24.57586,"lat":38.8647,"pop":0},{"id":736958,"name":"Achinós","alt":["Achinos","Akhinos","Akhinós","Takhino","Αχινός","Тахино"],"lon":23.6563,"lat":40.92054,"pop":507},{"id":265464,"name":"Achláda","alt":["Achlada","Αχλάδα"],"lon":24.99235,"lat":35.39493,"pop":57},{"id":736956,"name":"Achláda","alt":["Achlada","Akhlada","Akhladha","Akhládha","Krousorant","Krousorati","Krousourati","Krousouráti","Krushoradi","Αχλάδα","Κρουσοράντ","Κρουσοράτη","Κρουσουράτη","Ахлада","Крушоради"],"lon":21.61383,"lat":40.86198,"pop":271},{"id":265462,"name":"Achladáki","alt":["Achladaki","Akhladhaki","Akhladháki","Αχλαδάκι"],"lon":25.65311,"lat":35.32292,"pop":0},{"id":265454,"name":"Achládes","alt":["Achlades","Akhladhe","Akhladhes","Akhladhé","Akhladhés","Αχλάδες"],"lon":24.71932,"lat":35.39451,"pop":0},{"id":265463,"name":"Achládes","alt":["Achladai","Achlades","Achládai","Akhladhai","Akhládhai","Sinoikismos Akhladhas","Sinoikismós Akhladhás","Αχλάδαι","Αχλάδες"],"lon":24.02784,"lat":35.4415,"pop":0},{"id":265446,"name":"Achládi","alt":["Achladi","Achladion","Achládion","Akhladhi","Akhladhion","Akhládhi","Akhládhion","Αχλάδι","Αχλάδιον"],"lon":23.40032,"lat":38.8984,"pop":0},{"id":735518,"name":"Achladia","alt":["Krousa","Krousa Makhale","Kroúsa","Kroúsa Makhalé","Αχλαδιά"],"lon":24.91463,"lat":41.21107,"pop":0},{"id":11857033,"name":"Achladia","lon":20.39039,"lat":39.59437,"pop":0},{"id":265458,"name":"Achladiá","alt":["Achladea","Achladia","Achladéa","Akhladhea","Akhladhéa","Vourlokhori","Vourlokhorion","Vourlokhóri","Vourlokhórion","Αχλαδιά"],"lon":21.61884,"lat":39.83953,"pop":187},{"id":265461,"name":"Achladiá","alt":["Achladea","Achladia","Achladéa","Akhladhea","Akhladhia","Akhladhiá","Akhladhéa","Αχλαδέα","Αχλαδιά"],"lon":22.0765,"lat":38.20406,"pop":0},{"id":736954,"name":"Achladiá","alt":["Achladia","Akhladhea","Akhladhia","Akhladhias","Akhladhiá","Akhladhiás","Akhladhéa","Blatchen","Blatsen","Blátsen","Αχλαδιά","Блатчен"],"lon":24.01045,"lat":41.39755,"pop":0},{"id":736955,"name":"Achladiá","alt":["Achladia","Akhladhea","Akhladhi","Akhladhéa","Akhládhi","Αχλαδιά"],"lon":21.20085,"lat":40.27538,"pop":0},{"id":10987962,"name":"Achladiá","alt":["Achladia","Αχλαδιά"],"lon":23.98988,"lat":37.90353,"pop":0},{"id":265451,"name":"Achládia","alt":["Achladia","Akhladhia","Akhládhia","Αχλάδια"],"lon":26.05417,"lat":35.16597,"pop":0},{"id":7289315,"name":"Achladias","alt":["Achladies","Αχλαδιάς"],"lon":23.46336,"lat":39.14677,"pop":0},{"id":265457,"name":"Achladiés","alt":["Achladeai","Achladees","Achladies","Achladéai","Achladées","Akhladheai","Akhladhéai","Toskesi","Toskesion","Toskésion","Tóskesi","Αχλαδέαι","Αχλαδέες","Αχλαδιές"],"lon":20.7732,"lat":39.45473,"pop":23},{"id":265448,"name":"Achladiní","alt":["Achladini","Akhladhini","Akhladhiní","Dardhiza","Dardhíza","Dhardhiza","Αχλαδινή"],"lon":21.78297,"lat":37.72164,"pop":0},{"id":9257398,"name":"Achladítsa","alt":["Achladitsa","Αχλαδίτσα"],"lon":23.28237,"lat":37.40494,"pop":135},{"id":265441,"name":"Achladochóri","alt":["Achladochori","Achladochorion","Achladochórion","Akhladhokhorion","Akhladhokhórion","Varyianni","Voryiani","Voryianni","Váryianni","Vóryiani","Vóryianni","Αχλαδοχώρι","Αχλαδοχώριον"],"lon":22.0218,"lat":39.63694,"pop":0},{"id":736951,"name":"Achladochóri","alt":["Achladochori","Achladochorion","Achladochórion","Akhladhokhorion","Akhladhokhórion","Akhladokhori","Akhladokhóri","Krousovo","Krushevo","Krushovon","Krúshovon","Nkrantista","Αχλαδοχώρι","Αχλαδοχώριον","Γκράντιστα","Κρούσοβο","Крушево"],"lon":23.54026,"lat":41.31976,"pop":596},{"id":736952,"name":"Achladochóri","alt":["Achladochori","Achladochorio","Achladochorion","Achladochório","Achladochórion","Akhladhokhorion","Akhladhokhórion","K'shlar","Kissalar","Kissalár","Mandarai","Mandaraí","Mandharai","Mandharaí","Αχλαδοχώρι","Αχλαδοχώριον","К’шлар"],"lon":22.34227,"lat":40.83703,"pop":501},{"id":265444,"name":"Achladókampos","alt":["Achladokampos","Akhladhokambos","Akhladhókambos","Akhladokampo","Αχλαδόκαμπος"],"lon":22.58111,"lat":37.52259,"pop":497},{"id":265445,"name":"Achladókampos","alt":["Achladokampos","Akhladhokambos","Akhladhókambos","Αχλαδόκαμπος"],"lon":22.97919,"lat":36.87837,"pop":0},{"id":265443,"name":"Achladókastro","alt":["Achladokastro","Achladokastron","Achladókastron","Akhadhokastron","Akhadhókastron","Akhladhokastron","Akhladhókastron","Artotiva","Artotíva","Αχλαδόκαστρο","Αχλαδόκαστρον"],"lon":21.75011,"lat":38.58144,"pop":0},{"id":736950,"name":"Achladomiliá","alt":["Achladomilia","Akhladhomilea","Akhladhomilia","Akhladhomilies","Akhladhomiliá","Akhladhomiliés","Akhladhomiléa","Debrejik","Debrejík","Αχλαδομηλιά"],"lon":24.00269,"lat":41.41705,"pop":0},{"id":12493570,"name":"Achlia","alt":["Αχλιά"],"lon":26.52739,"lat":39.13667,"pop":0},{"id":8335478,"name":"Achliá","alt":["Achlia","Αχλιά"],"lon":25.88913,"lat":35.02762,"pop":133},{"id":12358634,"name":"Achlαdopotamo","alt":["Achladopotamo","Αχλαδοπόταμο"],"lon":23.42604,"lat":38.93787,"pop":0},{"id":265438,"name":"Achoumátou","alt":["Achoumatou","Akhoumatou","Akhoumátou","Αχουμάτου"],"lon":22.49018,"lat":36.79475,"pop":0},{"id":265437,"name":"Achoúri","alt":["Achouri","Akhouria","Akhoúria","Αχούρι"],"lon":22.32825,"lat":37.24963,"pop":0},{"id":12042159,"name":"Achouria Malouniou","alt":["Achouria","Αχούρια","Αχούρια Μαλουνίου"],"lon":20.43415,"lat":39.64189,"pop":0},{"id":265467,"name":"Achyrá","alt":["Achyra","Akhira","Akhirá","Αχυρά"],"lon":21.02728,"lat":38.78028,"pop":0},{"id":12493520,"name":"Acladeri","alt":["Achladeri","Αχλαδερή"],"lon":26.27689,"lat":39.15356,"pop":0},{"id":737004,"name":"Adám","alt":["Adam","Αδάμ"],"lon":23.30217,"lat":40.55568,"pop":481},{"id":265711,"name":"Adámas","alt":["Adamantas","Adamas","Adhamas","Adhámas","Αδάμαντας","Αδάμας","Адамас"],"lon":24.44685,"lat":36.72506,"pop":1347},{"id":9409659,"name":"Adámes","alt":["Adames","Αδάμες"],"lon":23.79059,"lat":38.09676,"pop":0},{"id":259380,"name":"Ádeiata","alt":["Adeiata","Konizopi","Konizopí","Άδειατα"],"lon":24.90179,"lat":37.39824,"pop":0},{"id":265709,"name":"Ádele","alt":["Adele","Adhele","Ádhele","Άδελε"],"lon":24.56032,"lat":35.35742,"pop":489},{"id":8260245,"name":"Adelianós Kámpos","alt":["Adelianos Kambos","Adelianos Kampos","Αδελιανός Κάμπος"],"lon":24.5414,"lat":35.3721,"pop":680},{"id":737002,"name":"Ádendro","alt":["Adendro","Adendron","Adhendhron","Adhendron","Kirjilar","Kirjilár","Kirtzilar","Ádendron","Ádhendhron","Ádhendron","Άδενδρο","Άδενδρον","Κιρτζιλάρ"],"lon":22.60466,"lat":40.67131,"pop":2079},{"id":265710,"name":"Adhámi","alt":["Adami","Adhami","Adhamioi","Adhamion","Adhámioi","Adhámion","Αδάμι"],"lon":23.0735,"lat":37.57275,"pop":302},{"id":737003,"name":"Adhelfikó","alt":["Adelfiko","Adhelfikon","Adhelfikón","Agova Makhala","Agova makhala","Ango Mahala","Anko Machala","Ángo Mahalá","Άγκω Μαχαλά","Αδελφικό","Агова Махала","Агова махала","Аделфико"],"lon":23.45761,"lat":41.01443,"pop":254},{"id":265700,"name":"Adhravástoi","lon":26.21698,"lat":35.12946,"pop":0},{"id":6621615,"name":"Adia","lon":27.11125,"lat":35.55045,"pop":0},{"id":265702,"name":"Adiákopos","alt":["Adhiakopos","Adhiákopos","Adiakopos","Αδιάκοπος"],"lon":23.05404,"lat":36.55793,"pop":0},{"id":265699,"name":"Adravástos","alt":["Adhravastos","Adhravástos","Adhrayastos","Adhrayástos","Adravastos","Andhravasisa","Andhravasísa","Αδραβάστος"],"lon":25.62415,"lat":35.31092,"pop":0},{"id":265698,"name":"Adrianí","alt":["Adhriani","Adhrianí","Adriani","Remoustafa","Remoústafa","Remustafa","Remústafa","Rumustafa","Rumústafa","Αδριανή"],"lon":21.87569,"lat":36.8741,"pop":0},{"id":736999,"name":"Adrianí","alt":["Adhriani","Adhrianí","Adriani","Edirnejik","Edirnejík","Αδριανή"],"lon":24.26653,"lat":41.13629,"pop":0},{"id":737000,"name":"Adrianí","alt":["Adhriani","Adhrianí","Adriani","Otmanli","Otmanlí","Αδριανή"],"lon":25.36909,"lat":41.01083,"pop":0},{"id":265697,"name":"Adrianós","alt":["Adhrianos","Adhrianou","Adhrianoú","Adhrianós","Adrianos","Αδριανός"],"lon":25.61423,"lat":35.20663,"pop":6},{"id":6941718,"name":"Aegiali","alt":["Aigiali","Αιγιάλη"],"lon":25.99809,"lat":36.90642,"pop":261},{"id":265502,"name":"Aegina","alt":["Aigina","Aiyina","Aígina","Aíyina","Egina","Αίγινα"],"lon":23.4275,"lat":37.74667,"pop":6867},{"id":9036066,"name":"Aérides","alt":["Aerides","Ehrides","Erides","Αέρηδες","Ерідес","Эридес"],"lon":23.72699,"lat":37.97432,"pop":0},{"id":265693,"name":"Aerinó","alt":["Aerino","Aerinon","Aerinón","Persefli","Perseflí","Persoufli","Pertsofli","Pirsufli","Pirsuflí","Αερινό","Αερινόν","Περσεφλή","Περσουφλί","Περτσοφλί"],"lon":22.76044,"lat":39.33385,"pop":500},{"id":265692,"name":"Aerinós","alt":["Aerinos","Aërinós","Αερινός"],"lon":23.60741,"lat":35.36744,"pop":6},{"id":12450749,"name":"Aerodromio","alt":["Αεροδρόμιο"],"lon":24.14726,"lat":35.52454,"pop":0},{"id":9257367,"name":"Aerodrómio","alt":["Aerodromio Koutsopodiou","Αεροδρόμιο Κουτσοποδίου"],"lon":22.70732,"lat":37.6594,"pop":111},{"id":12450745,"name":"Aerolimin","alt":["Aerolimenas","Αερολιμένας","Αερολιμήν"],"lon":28.11523,"lat":36.38076,"pop":0},{"id":12450746,"name":"Aerolimin","alt":["Aerolimenas","Αερολιμένας","Αερολιμήν"],"lon":25.24443,"lat":39.93201,"pop":0},{"id":8658966,"name":"Aetia","lon":21.18198,"lat":40.07932,"pop":0},{"id":257678,"name":"Aetochóri","alt":["Aetochori","Aetochorion","Aetochórion","Markelesi","Markelesion","Markelési","Markelésion","Αετοχώρι","Αετοχώριον"],"lon":21.46742,"lat":39.28569,"pop":23},{"id":265684,"name":"Aetochóri","alt":["Aetochori","Aetochorion","Aetochórion","Aetokhorion","Aëtokhórion","Galtena","Galtená","Αετοχώρι","Αετοχώριον"],"lon":22.59785,"lat":37.39656,"pop":0},{"id":736996,"name":"Aetochóri","alt":["Aetochori","Aetochorion","Aetochórion","Aetokhori","Aetokhorion","Aëtokhóri","Aëtokhórion","Tousiani","Tushin","Tusiani","Tusin","Túsiani","Túsin","Αετοχώρι","Αετοχώριον","Τούσιανη","Тушин"],"lon":22.17526,"lat":41.09507,"pop":25},{"id":736997,"name":"Aetochóri","alt":["Aetochori","Aetochorion","Aetochórion","Aetokhori","Aetokhorion","Aëtokhóri","Aëtokhórion","Αετοχώρι","Αετοχώριον"],"lon":25.99871,"lat":40.89879,"pop":0},{"id":265686,"name":"Aetofoliá","alt":["Aetofolia","Sabakalfa","Sabákalfa","Sambakalfa","Sambákalfa","Αετοφωλιά"],"lon":21.86646,"lat":37.08956,"pop":0},{"id":265691,"name":"Aetofoliá","alt":["Aetofolea","Aetofolia","Aetofoléa","Αετοφωλέα","Αετοφωλιά"],"lon":25.11843,"lat":37.61784,"pop":0},{"id":736995,"name":"Aetokoryfí","alt":["Aetokorifi","Aetokoryfi","Aëtokorifí","Αετοκορυφή"],"lon":25.61196,"lat":40.98054,"pop":0},{"id":265683,"name":"Aetólofos","alt":["Aetolfos","Aetolofos","Aëtólfos","Dhesiani","Dhésiani","Αετόλοφος"],"lon":22.72564,"lat":39.6875,"pop":0},{"id":736994,"name":"Aetólofos","alt":["Aetolofos","Kush Tepe","Kush Tepé","Αετόλοφος"],"lon":25.60272,"lat":41.01088,"pop":0},{"id":736993,"name":"Aetomilítsa","alt":["Aetomilitsa","Dencke","Denckë","Denicko","Densko","Dentsiko","Dentsikon","Déntsikon","Galataria","Galatarias","Galatariás","Ntenisko","Αετομηλίτσα","Γαλαταριά","Δέντσικο","Ντένισκο","Денско"],"lon":20.85569,"lat":40.31077,"pop":432},{"id":736992,"name":"Aetopétra","alt":["Aetopetra","Sanovon","Sánovon","Αετοπέτρα"],"lon":20.64568,"lat":40.04618,"pop":124},{"id":265681,"name":"Aetópetra","alt":["Aetopetra","Αετόπετρα"],"lon":20.54135,"lat":39.76913,"pop":42},{"id":265682,"name":"Aetópetra","alt":["Aetopetra","Sabotina","Αετόπετρα"],"lon":21.67653,"lat":38.61822,"pop":0},{"id":252350,"name":"Aetoráchi","alt":["Aetorachi","Valaka","Valáka","Αετοράχη"],"lon":21.46889,"lat":37.92719,"pop":0},{"id":265677,"name":"Aetoráchi","alt":["Aetorachi","Aetorrakhi","Aëtorrákhi","Velesnikon","Velesnios","Velesníos","Velésnikon","Αετοράχη"],"lon":22.19531,"lat":39.83247,"pop":0},{"id":265679,"name":"Aetoráchi","alt":["Aetorachi","Aetorrakhi","Aëtorrákhi","Zouliatika","Zouliátika","Αετοράχη"],"lon":21.92541,"lat":37.67175,"pop":0},{"id":265680,"name":"Aetorráchi","alt":["Aetorachi","Aetorrachi","Aetorrakhi","Aetoráchi","Aëtorráchi","Aëtorrákhi","Kotorosi","Kotortsi","Αετοράχη","Αετορράχη","Κοτορόσι","Κοτόρτσι"],"lon":20.94372,"lat":39.51961,"pop":49},{"id":255182,"name":"Aetós","alt":["Aetos","Pisaetos","Pisaetós","Αετός","Πισαετός"],"lon":20.68681,"lat":38.34853,"pop":0},{"id":265669,"name":"Aetós","alt":["Aetos","Pitsarion","Pitsárion","Αετός"],"lon":20.39672,"lat":39.57622,"pop":247},{"id":265670,"name":"Aetós","alt":["Aetos","Dhovroi","Dhovroion","Dhovróï","Dhovróïon","Αετός"],"lon":21.28394,"lat":39.46158,"pop":96},{"id":265671,"name":"Aetós","alt":["Aetos","Αετός"],"lon":21.08299,"lat":38.70685,"pop":0},{"id":265673,"name":"Aetós","alt":["Aetos","Αετός"],"lon":21.83264,"lat":37.24536,"pop":0},{"id":736989,"name":"Aetós","alt":["Aetos","Αετός"],"lon":21.55395,"lat":40.66121,"pop":759},{"id":265672,"name":"Aëtós","lon":24.45,"lat":38.01667,"pop":0},{"id":412715,"name":"Afálonas","alt":["Afalonas","Αφάλωνας"],"lon":26.51442,"lat":39.14804,"pop":0},{"id":408685,"name":"Afántou","alt":["Afandou","Afandou (Rhodos)","Afándou","Aphantou","Αφάντου"],"lon":28.16225,"lat":36.29354,"pop":5562},{"id":265659,"name":"Afétes","alt":["Afetai","Afetes","Afétai","Niaou","Niáou","Αφέται","Αφέτες"],"lon":23.18253,"lat":39.28317,"pop":0},{"id":265658,"name":"Afidnés","alt":["Afidhnai","Afidnai","Afidnes","Afidni","Afídhnai","Kiourka","Kioúrka","Αφίδναι","Αφίδνες","Αφίδνη","Αφιδνές","Κιούρκα"],"lon":23.83982,"lat":38.20332,"pop":1908},{"id":2463807,"name":"Afiónas","alt":["Afion","Afionas","Afión","Αφιών","Αφιώνας"],"lon":19.66039,"lat":39.72444,"pop":294},{"id":9165893,"name":"Afionítika","alt":["Afionitika","Αφιωνίτικα"],"lon":19.65561,"lat":39.7361,"pop":3},{"id":265656,"name":"Afisión","alt":["Afisio","Afision","Afissos","Afissós","Αφισιό"],"lon":22.44863,"lat":37.08949,"pop":0},{"id":2463806,"name":"Áfra","alt":["Afra","Aphra","Άφρα"],"lon":19.85837,"lat":39.62162,"pop":839},{"id":265648,"name":"Afragiá","alt":["Afragia","Afrayia","Afrayias","Afrayiá","Afrayiás","Αφραγιά"],"lon":20.74497,"lat":38.15094,"pop":0},{"id":265652,"name":"Afráta","alt":["Afrata","Αφράτα"],"lon":23.76757,"lat":35.5736,"pop":0},{"id":10942435,"name":"Afrathiás","alt":["Afrathias","Αφραθιάς"],"lon":24.75763,"lat":35.04899,"pop":35},{"id":8608658,"name":"Afratí","alt":["Afrati","Αφρατί"],"lon":25.40068,"lat":35.0138,"pop":0},{"id":265650,"name":"Afrátion","alt":["Afrati","Afration","Afráti","Αφράτι","Αφράτιον"],"lon":23.68775,"lat":38.45212,"pop":1405},{"id":265651,"name":"Afrátion","alt":["Afrati","Afration","Afratí","Afroti","Afrotí","Frati","Fratí"],"lon":25.3537,"lat":35.10545,"pop":0},{"id":265649,"name":"Afráton","alt":["Afrato","Afraton","Αφράτο","Αφράτον"],"lon":21.53539,"lat":38.62463,"pop":26},{"id":444909,"name":"Afrodísia","alt":["Afrodhisia","Afrodisia","Αφροδίσια"],"lon":25.92687,"lat":38.55489,"pop":19},{"id":265645,"name":"Afroxyliá","alt":["Afroxilia","Afroxiliá","Afroxylia","Αφροξυλιά"],"lon":21.30656,"lat":39.22528,"pop":78},{"id":734956,"name":"Afxentíou","alt":["Afxentiou","Neon Katramion","Néon Katrámion","Αυξεντίου"],"lon":24.92033,"lat":41.06868,"pop":0},{"id":265655,"name":"Áfyssos","alt":["Afissos","Afyssos","Άφυσσος"],"lon":23.16568,"lat":39.27219,"pop":272},{"id":736987,"name":"Áfytos","alt":["Afitos","Afytos","Athitos","Athytos","Áfitos","Áthitos","Άθυτος","Άφυτος"],"lon":23.4367,"lat":40.09915,"pop":1273},{"id":265643,"name":"Agadaíika","alt":["Agadaiika","Agadhaiika","Agadhaíika","Agadheika","Agadhéïka","Αγαδαίικα"],"lon":22.54395,"lat":36.72935,"pop":0},{"id":265642,"name":"Agakianá","lon":23.73333,"lat":35.33333,"pop":0},{"id":8520910,"name":"Agakou Metoxi","lon":25.09166,"lat":35.31435,"pop":0},{"id":736986,"name":"Agalaíoi","alt":["Agalai","Agalaioi","Agalaí","Αγαλαίοι"],"lon":21.62121,"lat":40.02779,"pop":0},{"id":265641,"name":"Agalás","alt":["Agalas","Αγαλάς"],"lon":20.77772,"lat":37.7081,"pop":323},{"id":8556384,"name":"Agali","lon":24.89425,"lat":36.63144,"pop":0},{"id":11495715,"name":"Agali","alt":["Ankali","Αγκάλη"],"lon":23.43607,"lat":38.87669,"pop":0},{"id":265640,"name":"Agalianí","alt":["Agaliani","Αγαλιανή"],"lon":21.72822,"lat":37.34935,"pop":0},{"id":8605595,"name":"Agalianó","alt":["Agaliano","Αγαλιανό"],"lon":25.68096,"lat":35.32431,"pop":0},{"id":265638,"name":"Agalianós","alt":["Agalianos","Agalinos","Golyianni","Golyiánni","Αγαληνός","Αγαλιανός"],"lon":21.6118,"lat":38.86429,"pop":33},{"id":265639,"name":"Agalianós","alt":["Agalianos","Agalianou","Agalianoú","Αγαλιανός"],"lon":24.5289,"lat":35.15619,"pop":0},{"id":265637,"name":"Agálo","alt":["Agallo","Agalo","Agállo","Aramouza","Aramoúza","Αγάλω"],"lon":21.95615,"lat":37.58829,"pop":0},{"id":265636,"name":"Aganotaíika","alt":["Aganotaiika","Αγανωταίικα"],"lon":23.39019,"lat":37.42801,"pop":0},{"id":265635,"name":"Agápi","alt":["Agapi","Αγάπη"],"lon":25.16406,"lat":37.60718,"pop":0},{"id":736984,"name":"Agápi","alt":["Agapi","Himitli","Himitlí","Khimitli","Αγάπη","Химитли"],"lon":24.30382,"lat":41.10334,"pop":0},{"id":736985,"name":"Agápi","alt":["Agapi","Αγάπη"],"lon":21.56155,"lat":40.06325,"pop":0},{"id":736983,"name":"Agáthi","alt":["Agathi","Ranislavci","Αγάθη","Αγαθή","Раниславци"],"lon":22.06347,"lat":41.00858,"pop":32},{"id":265634,"name":"Agathó","alt":["Agatho","Agathon","Agathos","Agathón","Agathós","Αγαθό","Αγαθόν"],"lon":24.49908,"lat":38.13433,"pop":0},{"id":265632,"name":"Agdínes","alt":["Agdhinai","Agdhines","Agdhínai","Agdhínes","Agdinai","Agdines","Agdínai","Αγδίναι","Αγδίνες"],"lon":23.29423,"lat":38.96,"pop":0},{"id":736660,"name":"Agéli","alt":["Ageli","Ayeli","Ayéli","Chelekli","Cheleklí","Αγέλη"],"lon":24.8063,"lat":41.10683,"pop":0},{"id":264289,"name":"Ageranós","alt":["Ageranos","Ayeranos","Ayeranós","Αγερανός"],"lon":22.52766,"lat":36.69617,"pop":0},{"id":6951028,"name":"Aggeliká","alt":["Aggelika","Angelika","Αγγελικά"],"lon":25.3334,"lat":37.42205,"pop":0},{"id":9377397,"name":"Aghía Markélla","alt":["Agia Markella","Αγία Μαρκέλλα"],"lon":26.94202,"lat":37.76061,"pop":7},{"id":9377494,"name":"Aghía Triádha","alt":["Agia Triada","Αγία Τριάδα"],"lon":27.00675,"lat":37.74652,"pop":46},{"id":9958222,"name":"Aghía Triádha","alt":["Agia Triada","Agia Trias","Αγία Τριάδα","Αγία Τριάς"],"lon":23.10528,"lat":39.32158,"pop":141},{"id":11995101,"name":"Aghioi Deka","lon":24.95882,"lat":35.05837,"pop":0},{"id":6942638,"name":"Aghios Dimitrios","alt":["Agios Dimitrios","Αγιος Δημητριος"],"lon":22.29725,"lat":36.81093,"pop":0},{"id":8349516,"name":"Aghios Ermolaos","lon":25.26529,"lat":39.96862,"pop":0},{"id":10172993,"name":"Aghios Konstantinos","lon":22.85618,"lat":38.758,"pop":0},{"id":6942637,"name":"Aghios Nikolaos","alt":["Agios Nikolaos","Άγιος Νικόλαος"],"lon":22.2806,"lat":36.82445,"pop":0},{"id":9317870,"name":"Ághios Nikólaos Paliouríou","alt":["Agios Nikolaos Paliouriou","Άγιος Νικόλαος Παλιουρίου"],"lon":23.73757,"lat":39.92988,"pop":6},{"id":8740257,"name":"Aghios Panteleímon","alt":["Agios Panteleimon Marathona","Agios Panteleimon Marathóna","Άγιος Παντελεήμων Μαραθώνα"],"lon":23.98182,"lat":38.11643,"pop":1591},{"id":8349512,"name":"Aghios Ypatios","lon":25.30689,"lat":39.9354,"pop":0},{"id":264283,"name":"Agiá","alt":["Agia","Agyia","Ayia","Ayiá","Αγιά"],"lon":22.75869,"lat":39.71901,"pop":2827},{"id":264284,"name":"Agiá","alt":["Agia","Ayia","Ayiá","Daseia","Daseía","Αγιά"],"lon":20.35856,"lat":39.31294,"pop":918},{"id":264287,"name":"Agiá","alt":["Agia","Ayia","Ayiá","Αγιά"],"lon":23.93093,"lat":35.47216,"pop":0},{"id":264288,"name":"Agiá","alt":["Agia","Ayia","Ayiá","Αγιά"],"lon":24.76614,"lat":35.36789,"pop":0},{"id":10794120,"name":"Agiá","alt":["Agia","Αγιά"],"lon":25.51502,"lat":37.1826,"pop":31},{"id":264285,"name":"Agía","alt":["Agia","Ayia","Ayía","Αγία"],"lon":21.74422,"lat":38.27272,"pop":0},{"id":264286,"name":"Agía","alt":["Agia","Ayia","Ayía","Αγία"],"lon":22.50092,"lat":36.66297,"pop":0},{"id":264281,"name":"Agía Agáthi","alt":["Agia Agathi","Ayia Agathi","Ayía Agáthi","Αγία Αγάθη"],"lon":21.7657,"lat":39.18502,"pop":0},{"id":2463772,"name":"Agía Aikateríni","alt":["Agia Aikaterini","Ayia Aikaterini","Ayía Aikateríni","Αγία Αικατερίνη"],"lon":19.845,"lat":39.81722,"pop":0},{"id":9036804,"name":"Agía Aikateríni","alt":["Agia Aikaterini","Αγία Αικατερίνη"],"lon":23.72674,"lat":38.32334,"pop":57},{"id":9257366,"name":"Agía Aikateríni Koutsopodíou","alt":["Agia Aikaterini Koutsopodiou","Αγία Αικατερίνη Κουτσοποδίου"],"lon":22.70683,"lat":37.6674,"pop":49},{"id":9257403,"name":"Agía Aikateríni Thermisías","alt":["Agia Aikaterini Thermisias","Αγία Αικατερίνη Θερμησίας"],"lon":23.36327,"lat":37.41694,"pop":15},{"id":264278,"name":"Agía Anastasía","alt":["Agia Anastasia","Ayia Anastasia","Ayía Anastasía","Plaisia","Plaísia","Plessa","Pléssa","Αγία Αναστασία"],"lon":20.73628,"lat":39.56242,"pop":73},{"id":9348549,"name":"Agía Anastasía","alt":["Agia Anastasia","Αγία Αναστασία"],"lon":23.18656,"lat":40.47581,"pop":118},{"id":9165961,"name":"Agía Anna","alt":["Agia Anna","Αγία Άννα"],"lon":19.73282,"lat":39.69761,"pop":79},{"id":259136,"name":"Agía Ánna","alt":["Agia Anna","Koukoura","Koúkoura","Αγία Άννα"],"lon":22.90394,"lat":38.31698,"pop":0},{"id":264274,"name":"Agía Ánna","alt":["Agia Anna","Ayia Anna","Ayía Ánna","Hagia Anna","Αγία Άννα"],"lon":23.39979,"lat":38.85919,"pop":823},{"id":264276,"name":"Agía Ánna","alt":["Agia Anna","Ayia Anna","Ayía Ánna","Αγία Άννα"],"lon":21.63636,"lat":37.77661,"pop":0},{"id":736659,"name":"Agía Ánna","alt":["Agia Anna","Agija Ana","Ayia Anna","Ayía Ánna","Radigozhe","Radinkosdi","Αγία Άννα","Ραδιγκόσδη","Агия Ана","Агија Ана","Радигоже"],"lon":21.0833,"lat":40.43641,"pop":59},{"id":10172981,"name":"Agía Ánna","alt":["Agia Anna","Αγία Άννα"],"lon":25.35614,"lat":37.06854,"pop":176},{"id":10627179,"name":"Agía Ánna","alt":["Agia Anna","Αγία Άννα"],"lon":25.33008,"lat":37.44894,"pop":0},{"id":264265,"name":"Agía Effimía","alt":["Agia Effimia","Ayia Evfimia","Ayía Evfimía","Αγία Ευφημία"],"lon":20.59642,"lat":38.3025,"pop":0},{"id":6692668,"name":"Agia Efimia","alt":["Aghia Efimia","Agia Effimia","Αγία Ευφημία"],"lon":20.60529,"lat":38.30717,"pop":0},{"id":264263,"name":"Agía Efthymía","alt":["Agia Efthymia","Ayia Evthimia","Ayía Evthimía","Αγία Ευθυμία"],"lon":22.35773,"lat":38.4806,"pop":0},{"id":261628,"name":"Agía Eiríni","alt":["Agia Eirini","Kakovalon","Kakovolon","Kakóvolon","Αγία Ειρήνη"],"lon":24.43374,"lat":37.43819,"pop":0},{"id":264252,"name":"Agía Eiríni","alt":["Agia Eirini","Ayia Irini","Ayía Iríni","Αγία Ειρήνη"],"lon":20.75117,"lat":38.12175,"pop":0},{"id":264255,"name":"Agía Eiríni","alt":["Agia Eirini","Ayia Irini","Ayía Iríni","Αγία Ειρήνη"],"lon":24.48991,"lat":35.34038,"pop":75},{"id":8612375,"name":"Agía Eiríni","alt":["Agia Eirini","Αγία Ειρήνη"],"lon":26.19053,"lat":35.0245,"pop":0},{"id":10247569,"name":"Agía Eiríni","alt":["Agia Eirini","Αγία Ειρήνη"],"lon":24.48834,"lat":36.7461,"pop":0},{"id":10400367,"name":"Agía Eiríni","alt":["Agia Eirini","Αγία Ειρήνη"],"lon":25.34338,"lat":36.45425,"pop":39},{"id":264270,"name":"Agía Eléni","alt":["Agia Eleni","Ayia Eleni","Ayía Eléni","Mesorougiotika","Mesorrouyiotika","Mesorrouyiótika","Αγία Ελένη","Μεσορουγιώτικα"],"lon":22.04888,"lat":38.26,"pop":0},{"id":8593836,"name":"Agia Eleousa","lon":24.82112,"lat":37.82138,"pop":0},{"id":11524707,"name":"Agia Eleoúsa","alt":["Agia Eleousa","Αγία Ελεούσα"],"lon":28.03707,"lat":36.27401,"pop":0},{"id":264267,"name":"Agía Eleoúsa","alt":["Agia Eleousa","Ayia Eleousa","Ayía Eleoúsa","Αγία Ελεούσα"],"lon":20.83803,"lat":39.24506,"pop":0},{"id":2463771,"name":"Agía Eleoúsa","alt":["Agia Eleousa","Ayia Eleousa","Ayía Eleoúsa","Kanali Romaiko","Kanali Romaikon","Kanáli Romaïkon","Αγία Ελεούσα","Κανάλι Ρωμαϊκό"],"lon":19.9,"lat":39.6,"pop":0},{"id":8740106,"name":"Agía Eleoúsa","alt":["Agia Eleousa","Αγία Ελεούσα","Αγια Ελεουσα"],"lon":23.69324,"lat":37.95283,"pop":0},{"id":444582,"name":"Agía Ermióni","alt":["Aghia Ermioni","Agia Ermioni","Αγία Ερμιόνη"],"lon":26.1487,"lat":38.30243,"pop":478},{"id":445329,"name":"Agía Faneroméni","alt":["Agia Faneromeni","Αγία Φανερωμένη"],"lon":20.86233,"lat":39.31789,"pop":66},{"id":10792441,"name":"Agía Filothéi","alt":["Agia Filothei","Αγία Φιλοθέη"],"lon":23.78504,"lat":38.03121,"pop":0},{"id":736657,"name":"Agía Foteiní","alt":["Agia Foteini","Ayia Fotini","Ayía Fotiní","Osliani","Ósliani","Αγία Φωτεινή"],"lon":22.00022,"lat":40.714,"pop":302},{"id":8262246,"name":"Agía Foteiní","alt":["Agia Foteini","Αγία Φωτεινή"],"lon":24.63495,"lat":35.25459,"pop":0},{"id":8528217,"name":"Agía Foteiní","alt":["Agia Foteini","Αγία Φωτεινή"],"lon":24.51386,"lat":35.14514,"pop":0},{"id":264262,"name":"Agía Fotiá Ierápetras","alt":["Agia Fotia Ierapetras","Ayia Fotia","Αγία Φωτιά Ιεράπετρας"],"lon":25.87613,"lat":35.02371,"pop":25},{"id":8572483,"name":"Agía Fotiá Siteías","alt":["Agia Fotia","Agia Fotia Siteias","Agía Fotiá","Αγία Φωτιά Σητείας"],"lon":25.10764,"lat":35.01574,"pop":267},{"id":6692687,"name":"Agia Galini","lon":24.68825,"lat":35.09751,"pop":0},{"id":264260,"name":"Agía Galíni","alt":["Agia Galini","Ayia Galini","Ayía Galíni","Αγία Γαλήνη"],"lon":24.68818,"lat":35.09707,"pop":1369},{"id":10173831,"name":"Agia Irini","lon":25.11018,"lat":37.05557,"pop":0},{"id":264256,"name":"Agía Iríni","alt":["Agia Eirini"],"lon":23.83244,"lat":35.33739,"pop":0},{"id":12036186,"name":"Agia Kiriaki","alt":["Agia Kyriaki","Ayia Kyriaki","Αγία Κυριακή"],"lon":21.76924,"lat":40.29393,"pop":0},{"id":8644202,"name":"Agía Kiriakí","alt":["Agia Kyriaki","Αγία Κυριακή"],"lon":24.49842,"lat":36.67091,"pop":31},{"id":6941722,"name":"Agia Kyriaki","lon":23.06786,"lat":39.0925,"pop":0},{"id":264235,"name":"Agía Kyriakí","alt":["Agia Kyriaki","Ayia Kiriaki","Ayía Kiriakí","Αγία Κυριακή"],"lon":21.80405,"lat":39.51603,"pop":427},{"id":264236,"name":"Agía Kyriakí","alt":["Agia Kyriaki","Ayia Kiriaki","Ayía Kiriakí","Popovan","Popovon","Pópovan","Pópovon","Αγία Κυριακή"],"lon":20.56903,"lat":39.48864,"pop":86},{"id":264237,"name":"Agía Kyriakí","alt":["Agia Kyriaki","Ayia Kiriaki","Ayía Kiriakí","Αγία Κυριακή"],"lon":20.44769,"lat":39.28467,"pop":172},{"id":264238,"name":"Agía Kyriakí","alt":["Agia Kyriaki","Ayia Kiriaki","Ayía Kiriakí","Αγία Κυριακή"],"lon":23.06928,"lat":39.09289,"pop":0},{"id":264240,"name":"Agía Kyriakí","alt":["Agia Kyriaki","Ayia Kiriaki","Ayía Kiriakí","Kertiza","Kertíza","Αγία Κυριακή"],"lon":21.76244,"lat":37.85058,"pop":0},{"id":264241,"name":"Agía Kyriakí","alt":["Agia Kyriaki","Ayia Kiriaki","Ayía Kiriakí","Αγία Κυριακή"],"lon":21.57751,"lat":37.12033,"pop":0},{"id":264243,"name":"Agía Kyriakí","alt":["Agia Kyriaki","Ayia Kiriaki","Ayía Kiriakí","Αγία Κυριακή"],"lon":23.02984,"lat":36.70263,"pop":100},{"id":443522,"name":"Agía Kyriakí","alt":["Agia Kyriaki","Ayia Kiriaki","Ayía Kiriakí","Αγία Κυριακή"],"lon":26.61747,"lat":37.69908,"pop":43},{"id":734215,"name":"Agía Kyriakí","alt":["Agia Kyriaki","Skouliari","Skoúliari","Αγία Κυριακή"],"lon":22.11505,"lat":40.28129,"pop":46},{"id":735155,"name":"Agía Kyriakí","alt":["Agia Kyriaki","Metokhion Ayias Kiriakis","Metokhion Simenitiko","Metókhion Ayías Kiriakís","Metókhion Simenítiko","Simenitiko","Simenítiko","Αγία Κυριακή"],"lon":23.81346,"lat":40.04353,"pop":11},{"id":736655,"name":"Agía Kyriakí","alt":["Agia Kyriaki","Ayia Kiriaki","Ayía Kiriakí","Dokousli","Mochali","Potares","Tsalikli","Tsalisli","Tzevakli","Tzevapli","Αγία Κυριακή","Δοκουσλή","Μοχαλή","Ποταρές","Τζεβακλή","Τζεβαπλή","Τσαλικλή","Τσαλισλή"],"lon":22.83131,"lat":41.1206,"pop":108},{"id":736656,"name":"Agía Kyriakí","alt":["Agia Kyriaki","Ayia Kiriaki","Ayía Kiriakí","Shenedjelli","Shënedjelli","Sveta Nedela","Sveta Nedelja","Αγία Κυριακή","Света Недела","Света Неделя"],"lon":21.12032,"lat":40.52485,"pop":263},{"id":8261760,"name":"Agía Kyriakí","alt":["Agia Kyriaki","Αγία Κυριακή"],"lon":20.88358,"lat":39.52264,"pop":83},{"id":10942343,"name":"Agía Kyriakí","alt":["Agia Kyriaki","Αγία Κυριακή"],"lon":23.18171,"lat":39.39473,"pop":0},{"id":264244,"name":"Agía Kyriakí Koúnou","alt":["Agia Kyriaki Kounou","Αγία Κυριακή Κούνου"],"lon":22.37281,"lat":36.52976,"pop":0},{"id":9036778,"name":"Agia Kyriakií Spáton","alt":["Agia Kyriaki Spaton","Αγία Κυριακή Σπάτων"],"lon":23.97796,"lat":37.99336,"pop":886},{"id":12450702,"name":"Agia Marina","alt":["Agia Marina Miamous","Αγία Μαρίνα","Αγία Μαρίνα Μιαμούς"],"lon":24.94662,"lat":34.99276,"pop":0},{"id":255102,"name":"Agía Marína","alt":["Agia Marina","Plakota","Plakoto","Plakoton","Plakotó","Plakotón","Αγία Μαρίνα","Πλακωτά","Πλακωτό","Πλακωτόν"],"lon":21.71207,"lat":39.26243,"pop":44},{"id":258340,"name":"Agía Marína","alt":["Agia Marina","Likotrikhi","Likotrikhion","Likotríkhi","Likotríkhion","Lykotrichi","Lykotrichion","Lykotríchi","Lykotríchion","Αγία Μαρίνα"],"lon":20.81703,"lat":39.72606,"pop":388},{"id":260697,"name":"Agía Marína","alt":["Agia Marina","Katakolon","Katákolon","Αγία Μαρίνα"],"lon":21.68883,"lat":38.52694,"pop":0},{"id":262449,"name":"Agía Marína","alt":["Agia Marina","Fagias","Fayia","Fayias","Fayiás","Fayía","Αγία Μαρίνα","Φαγιάς"],"lon":20.77465,"lat":37.79047,"pop":164},{"id":264212,"name":"Agía Marína","alt":["Agia Marina","Ayia Marina","Ayía Marína","Αγία Μαρίνα"],"lon":20.31428,"lat":39.47069,"pop":164},{"id":264213,"name":"Agía Marína","alt":["Agia Marina","Ayia Marina","Ayía Marína","Αγία Μαρίνα","Αγια Μαρινα"],"lon":26.57636,"lat":39.06345,"pop":0},{"id":264217,"name":"Agía Marína","alt":["Agia Marina","Ayia Itini","Ayia Marina","Ayía Itíni","Ayía Marína","Αγία Μαρίνα"],"lon":24.31353,"lat":38.03497,"pop":0},{"id":264218,"name":"Agía Marína","alt":["Agia Marina","Ano Ayia Marina","Ayia Marina","Ayía Marína","Áno Ayía Marína","Αγία Μαρίνα"],"lon":21.71097,"lat":37.95033,"pop":0},{"id":264219,"name":"Agía Marína","alt":["Agia Marina","Ayia Marina","Ayía Marína","Kasnesi","Kasnési","Marina","Marína","Αγία Μαρίνα"],"lon":21.45114,"lat":37.95453,"pop":0},{"id":264221,"name":"Agía Marína","alt":["Agia Marina","Ayia Marina","Ayía Marína","Lero","Αγία Μαρίνα"],"lon":26.85162,"lat":37.1543,"pop":2743},{"id":264222,"name":"Agía Marína","alt":["Agia Marina","Ayia Marina","Ayía Marína","Tseria","Tséria","Αγία Μαρίνα"],"lon":22.44608,"lat":36.8509,"pop":0},{"id":264223,"name":"Agía Marína","alt":["Agia Marina","Ayia Marina","Ayía Marína","Αγία Μαρίνα"],"lon":23.92675,"lat":35.51778,"pop":2005},{"id":264224,"name":"Agía Marína","alt":["Agia Marina","Ayia Marina","Ayía Marína","Saint Marina","Αγία Μαρίνα"],"lon":26.91103,"lat":35.41196,"pop":444},{"id":736653,"name":"Agía Marína","alt":["Agia Marina","Ayia Marina","Ayía Marína","Αγία Μαρίνα"],"lon":22.21533,"lat":40.59722,"pop":732},{"id":9036676,"name":"Agía Marína","alt":["Agia Marina","Ayia Marina","Αγία Μαρίνα"],"lon":23.84424,"lat":37.82036,"pop":3765},{"id":9397991,"name":"Agía Marína","alt":["Agia Marina","Αγία Μαρίνα"],"lon":24.28249,"lat":40.80996,"pop":5},{"id":10979128,"name":"Agía Marína","alt":["Agia Marina","Αγία Μαρίνα"],"lon":23.97392,"lat":38.06353,"pop":0},{"id":10988212,"name":"Agía Marína","alt":["Agia Marina","Αγία Μαρίνα"],"lon":24.01195,"lat":37.8784,"pop":0},{"id":11078855,"name":"Agía Marína","alt":["Agia Marina","Αγία Μαρίνα"],"lon":23.10651,"lat":37.94115,"pop":0},{"id":264211,"name":"Agía Marína Delvinakíou","alt":["Agia Marina","Agia Marina Delvinakiou","Agía Marína","Ayia Marina","Ayía Marína","Kalivia Kosovitsis","Kalívia Kosovítsis","Kousovitsa","Vatsounia","Vatsouniá","Αγία Μαρίνα Δελβινακίου","Βατσουνιά","Κουσοβίτσα"],"lon":20.43414,"lat":39.80108,"pop":79},{"id":9036764,"name":"Agía Marína Grammatikoú","alt":["Agia Marina Grammatikou","Αγία Μαρίνα Γραμματικού"],"lon":24.06281,"lat":38.19173,"pop":217},{"id":9036679,"name":"Agía Marína Mikrolímanou","alt":["Agia Marina Mikrolimanou","Αγία Μαρίνα Μικρολίμανου"],"lon":24.0765,"lat":37.76498,"pop":476},{"id":7506789,"name":"Agía Marína Sífnou","alt":["Agia Marina","Agia Marina Sifnou","Αγία Μαρίνα","Αγία Μαρίνα Σίφνου"],"lon":24.68216,"lat":36.99296,"pop":70},{"id":264208,"name":"Agía Mávra","alt":["Agia Mavra","Ayia Mavra","Ayía Mávra","Seliani","Séliani","Αγία Μαύρα"],"lon":20.49658,"lat":39.50403,"pop":0},{"id":9034633,"name":"Agía Paraskefí Agías Marínis","alt":["Agia Paraskevi","Agia Paraskevi Agias Marinis","Αγία Παρασκευή","Αγία Παρασκευή Αγίας Μαρίνης"],"lon":26.59556,"lat":39.05498,"pop":137},{"id":6692232,"name":"Agia Paraskevi","alt":["Aghia Paraskevi","Αγία Παρασκευή"],"lon":23.42508,"lat":39.14231,"pop":0},{"id":8426373,"name":"Agia Paraskevi","lon":25.48431,"lat":36.39996,"pop":0},{"id":9165918,"name":"Agia Paraskeví","alt":["Agia Paraskevi","Αγία Παρασκευή"],"lon":19.74797,"lat":39.76273,"pop":94},{"id":252505,"name":"Agía Paraskeví","alt":["Agia Paraskevi","Tsello","Tselon","Tsélon","Αγία Παρασκευή","Τσέλλο"],"lon":22.8574,"lat":37.5491,"pop":206},{"id":264171,"name":"Agía Paraskeví","alt":["Agia Paraskevi","Ayia Paraskevi","Ayía Paraskeví","Αγία Παρασκευή"],"lon":23.60771,"lat":39.95337,"pop":294},{"id":264173,"name":"Agía Paraskeví","alt":["Agia Paraskevi","Ayia Paraskevi","Ayía Paraskeví","Tsourtza","Tsoúrtza","Tzourtza","Tzourtzia","Tzoúrtza","Tzoúrtzia","Αγία Παρασκευή"],"lon":21.25906,"lat":39.56733,"pop":228},{"id":264174,"name":"Agía Paraskeví","alt":["Ayia Paraskevi","Ayía Paraskeví"],"lon":20.56667,"lat":39.51667,"pop":0},{"id":264175,"name":"Agía Paraskeví","alt":["Agia Paraskevi","Ayia Paraskevi","Ayía Paraskeví","Karajoli","Karajóli","Tripa","Trípa","Αγία Παρασκευή"],"lon":22.334,"lat":39.43275,"pop":0},{"id":264176,"name":"Agía Paraskeví","alt":["Agia Paraskevi","Ayia Paraskevi","Ayía Paraskeví","Αγία Παρασκευή"],"lon":22.15,"lat":39.33333,"pop":0},{"id":264177,"name":"Agía Paraskeví","alt":["Agia Paraskevi","Ayia Paraskevi","Ayía Paraskeví","Karnesi","Karnési","Kaznesion Magoulas","Kaznésion Magoúlas","Αγία Παρασκευή"],"lon":22.04302,"lat":39.30571,"pop":0},{"id":264178,"name":"Agía Paraskeví","alt":["Agia Paraskevi","Ayia Paraskevi","Ayía Paraskeví","Biliarion","Biliárion","Miliana","Milianá","Αγία Παρασκευή"],"lon":20.88878,"lat":39.29967,"pop":59},{"id":264179,"name":"Agía Paraskeví","alt":["Ayia Paraskevi","Ayía Paraskeví"],"lon":20.7,"lat":39.28333,"pop":0},{"id":264181,"name":"Agía Paraskeví","alt":["Agia Paraskevi","Ayia Paraskevi","Ayía Paraskeví","Αγία Παρασκευή"],"lon":26.27178,"lat":39.24792,"pop":2195},{"id":264182,"name":"Agía Paraskeví","alt":["Agia Paraskevi","Ayia Paraskevi","Ayía Paraskeví","Αγία Παρασκευή"],"lon":21.27373,"lat":39.15744,"pop":80},{"id":264184,"name":"Agía Paraskeví","alt":["Agia Paraskevi","Ayia Paraskevi","Ayía Paraskeví","Αγία Παρασκευή"],"lon":20.99108,"lat":39.09903,"pop":685},{"id":264185,"name":"Agía Paraskeví","alt":["Agia Paraskevi","Ayia Paraskevi","Ayía Paraskeví","Αγία Παρασκευή"],"lon":21.79731,"lat":39.00631,"pop":43},{"id":264192,"name":"Agía Paraskeví","alt":["Agia Paraskevi","Agoriani","Agóriani","Ayia Paraskevi","Ayía Paraskeví","Αγία Παρασκευή"],"lon":22.98336,"lat":38.39467,"pop":0},{"id":264193,"name":"Agía Paraskeví","alt":["Agia Paraskevi","Ayia Paraskevi","Ayía Paraskeví","Topolova","Topolovo","Topolowa","Topólova","Topólovo","Αγία Παρασκευή"],"lon":21.83147,"lat":38.13517,"pop":0},{"id":264194,"name":"Agía Paraskeví","alt":["Agia Paraskeue","Agia Paraskevi","Ayia Paraskevi","Ayía Paraskeví","Αγία Παρασκευή"],"lon":23.83333,"lat":38.01667,"pop":59704},{"id":264202,"name":"Agía Paraskeví","alt":["Agia Paraskevi","Ayia Paraskevi","Ayía Paraskeví","Αγία Παρασκευή"],"lon":24.71644,"lat":35.15543,"pop":0},{"id":443732,"name":"Agía Paraskeví","alt":["Agia Paraskevi","Αγία Παρασκευή"],"lon":26.99075,"lat":37.78045,"pop":26},{"id":445251,"name":"Agía Paraskeví","alt":["Agia Paraskevi","Paraskevi","Paraskeví","Αγία Παρασκευή"],"lon":21.61833,"lat":39.65831,"pop":145},{"id":445325,"name":"Agía Paraskeví","alt":["Agia Paraskevi","Αγία Παρασκευή"],"lon":20.87094,"lat":39.49894,"pop":0},{"id":736646,"name":"Agía Paraskeví","alt":["Agia Paraskevi","Ajios Paraskevis","Ano Ayia Paraskevi","Ayia Paraskeni","Ayia Paraskevi","Ayía Paraskení","Ayía Paraskeví","Áno Ayía Paraskeví","Αγία Παρασκευή"],"lon":22.85685,"lat":41.27015,"pop":180},{"id":736647,"name":"Agía Paraskeví","alt":["Agia Paraskevi","Ayia Paraskevi","Ayía Paraskeví","Valtokhori","Valtokhorion","Valtokhóri","Valtokhórion","Vodovista","Vodovísta","Αγία Παρασκευή"],"lon":24.1597,"lat":41.02092,"pop":0},{"id":736648,"name":"Agía Paraskeví","alt":["Agia Paraskevi","Ajja Paraskevi","Ayia Paraskevi","Ayía Paraskeví","Xilotron","Xilotros","Xilótron","Xilótros","Αγία Παρασκευή","Айя Параскеви"],"lon":23.45706,"lat":40.94935,"pop":557},{"id":736649,"name":"Agía Paraskeví","alt":["Agia Paraskevi","Ayia Paraskevi","Ayía Paraskeví","Αγία Παρασκευή"],"lon":21.37976,"lat":40.87917,"pop":136},{"id":736650,"name":"Agía Paraskeví","alt":["Agia Paraskevi","Ayia Paraskevi","Ayía Paraskeví","Genikioi","Yenikoy","Yenikoÿ","Αγία Παρασκευή","Γενήκιοϊ"],"lon":23.04863,"lat":40.4815,"pop":2244},{"id":736651,"name":"Agía Paraskeví","alt":["Agia Paraskevi","Ayia Paraskevi","Ayía Paraskeví","Αγία Παρασκευή"],"lon":21.77371,"lat":40.22075,"pop":0},{"id":736652,"name":"Agía Paraskeví","alt":["Agia Paraskevi","Ayia Paraskevi","Ayía Paraskeví","Kerasovo","Kerasovon","Kerásovon","Αγία Παρασκευή","Κεράσοβο"],"lon":20.89431,"lat":40.14519,"pop":220},{"id":8528316,"name":"Agía Paraskeví","alt":["Agia Paraskevi","Αγία Παρασκευή"],"lon":24.54333,"lat":35.13344,"pop":0},{"id":9353674,"name":"Agía Paraskeví","alt":["Agia Paraskevi","Αγία Παρασκευή"],"lon":26.0796,"lat":38.375,"pop":13},{"id":9960625,"name":"Agía Paraskeví","alt":["Agia Paraskevi","Αγία Παρασκευή"],"lon":22.12259,"lat":37.04478,"pop":0},{"id":10175068,"name":"Agía Paraskeví","alt":["Agia Paraskevi","Agia Paraskevi Petras","Αγία Παρασκευή","Αγία Παρασκευή Πέτρας"],"lon":21.01907,"lat":39.7542,"pop":13},{"id":10176767,"name":"Agía Paraskeví","alt":["Agia Paraskevi","Αγία Παρασκευή"],"lon":21.41673,"lat":40.54365,"pop":31},{"id":10792350,"name":"Agía Paraskeví","alt":["Agia Paraskevi","Αγία Παρασκευή"],"lon":22.9599,"lat":39.3812,"pop":0},{"id":10792419,"name":"Agía Paraskeví","alt":["Agia Paraskevi","Αγία Παρασκευή"],"lon":25.72337,"lat":35.28148,"pop":23},{"id":10942346,"name":"Agía Paraskeví","alt":["Agia Paraskevi","Αγία Παρασκευή"],"lon":23.17303,"lat":39.38737,"pop":0},{"id":12036108,"name":"Agía Paraskeví","alt":["Agia Paraskevi","Αγία Παρασκευή"],"lon":22.07874,"lat":40.43734,"pop":0},{"id":10227054,"name":"Agía Paraskeví Karítsis","alt":["Agia Paraskevi Karitsis","Αγία Παρασκευή Καρίτσης"],"lon":21.70984,"lat":39.26649,"pop":6},{"id":9535130,"name":"Agía Paraskeví Lamiéon","alt":["Agia Paraskevi Lamieon","Αγία Παρασκευή Λαμιέων"],"lon":22.49024,"lat":38.90105,"pop":922},{"id":445327,"name":"Agía Paraskeví Meliás","alt":["Agia Paraskevi Melias","Stratigeion","Stratigeíon","Αγία Παρασκευή Μελιάς"],"lon":20.85889,"lat":39.45389,"pop":12},{"id":264198,"name":"Agía Paraskeví Rethýmnis","alt":["Aghia Paraskevi Rethymnis","Agia Paraskevi Rethymnis","Αγία Παρασκευή Ρεθύμνης"],"lon":24.5605,"lat":35.35287,"pop":246},{"id":9036756,"name":"Agía Paraskevi Varnava","alt":["Agia Paraskevi Varnava","Αγία Παρασκευή Βαρνάβα"],"lon":23.93869,"lat":38.23161,"pop":244},{"id":9036810,"name":"Agía Paraskeví Vilíon","alt":["Agia Paraskevi Vilion","Αγία Παρασκευή Βιλίων"],"lon":23.27376,"lat":38.14374,"pop":1},{"id":7626557,"name":"Agia Pelagia","lon":20.51407,"lat":38.10461,"pop":0},{"id":264166,"name":"Agía Pelagía","alt":["AGIA PELAGIA","Agia Pelagia","Agija-Pelagija","Ayia Pelayia","Ayía Pelayía","ΑΓΙΑ ΠΕΛΑΓΙΑ","Αγία Πελαγία","Агия-Пелагия"],"lon":22.98185,"lat":36.32391,"pop":419},{"id":264167,"name":"Agía Pelagía","alt":["Agia Pelagia","Ayia Pelayia","Ayía Pelayía","Αγία Πελαγία"],"lon":25.68115,"lat":35.24072,"pop":9},{"id":6942392,"name":"Agía Pelagía","alt":["AGIA PELAGIA","Aghia Pelagia","Agia Pelagia","ΑΓΙΑ ΠΕΛΑΓΙΑ","Αγία Πελαγία"],"lon":25.01754,"lat":35.40766,"pop":480},{"id":9165888,"name":"Agía Pelagía","alt":["Agia Pelagia","Αγία Πελαγία"],"lon":19.65634,"lat":39.76525,"pop":113},{"id":10859316,"name":"Agía Pelagía","alt":["Agia Pelagia","Αγία Πελαγία"],"lon":25.32452,"lat":35.33197,"pop":108},{"id":264164,"name":"Agía Rouméli","alt":["Agia Roumeli","Agija Rumeli","Roumeli","Roúmeli","Αγία Ρουμέλη","Агия Румели"],"lon":23.95985,"lat":35.23027,"pop":125},{"id":264160,"name":"Agía Semní","alt":["Agia Semni","Ayia Semni","Ayía Semní","Αγία Σεμνή"],"lon":25.24185,"lat":35.12638,"pop":0},{"id":8658809,"name":"Agiá Sofiá","alt":["Agia Sofia","Αγία Σοφία","Αγιά Σοφιά"],"lon":23.64296,"lat":37.95569,"pop":0},{"id":264148,"name":"Agía Sofía","alt":["Agia Sofia","Ayia Sofia","Ayía Sofía","Oxilar","Oxilár","Αγία Σοφία"],"lon":22.31719,"lat":39.68975,"pop":0},{"id":264150,"name":"Agía Sofía","alt":["Agia Sofia","Ayia Sofia","Ayía Sofía","Mokista","Mókista","Αγία Σοφία"],"lon":21.64617,"lat":38.58239,"pop":0},{"id":264151,"name":"Agía Sofía","alt":["Agia Sofia","Ayia Sofia","Ayía Sofía","Αγία Σοφία"],"lon":24.08236,"lat":38.39178,"pop":0},{"id":264152,"name":"Agía Sofía","alt":["Agia Sofia","Ayia Sofia","Ayía Sofía","Αγία Σοφία"],"lon":22.5469,"lat":37.43174,"pop":0},{"id":264153,"name":"Agía Sofía","alt":["Agia Sofia","Ayia Sofia","Ayía Sofía","Gournitsa","Goúrnitsa","Αγία Σοφία"],"lon":22.24584,"lat":36.89535,"pop":0},{"id":12157144,"name":"Agia Sotira","alt":["Αγία Σωτήρα"],"lon":21.88571,"lat":36.97198,"pop":0},{"id":736641,"name":"Agía Sotíra","alt":["Agia Sotira","Ayia Sotira","Ayía Sotíra","Svoliani","Svóliani","Αγία Σωτήρα"],"lon":21.18717,"lat":40.20329,"pop":0},{"id":9408764,"name":"Agía Sotíra","alt":["Agia Sotira","Ayia Sotira","Αγία Σωτήρα"],"lon":23.03318,"lat":38.05421,"pop":215},{"id":10719358,"name":"Agía Sotíra","alt":["Agia Sotira","Αγία Σωτήρα"],"lon":22.61299,"lat":38.36296,"pop":0},{"id":11035332,"name":"Agía Sotíra","alt":["Agia Sotira","Αγία Σωτήρα"],"lon":23.42203,"lat":38.11558,"pop":0},{"id":264138,"name":"Agía Thékli","alt":["Agia Thekla","Agia Thekli","Agía Thékla","Ayia Thekla","Ayia Thekli","Ayía Thékla","Ayía Thékli","Αγία Θέκλη"],"lon":20.38414,"lat":38.24586,"pop":0},{"id":9166420,"name":"Agía Thékli","alt":["Agia Thekli","Αγία Θέκλη"],"lon":20.70498,"lat":37.87148,"pop":36},{"id":8335477,"name":"Agia Theodoti","lon":25.32735,"lat":36.74934,"pop":0},{"id":10172788,"name":"Agia Triada","lon":21.93532,"lat":36.81131,"pop":0},{"id":12207095,"name":"Agia Triada","alt":["Αγία Τριάδα"],"lon":21.60142,"lat":38.98446,"pop":0},{"id":9165966,"name":"Agia Triáda","alt":["Agia Triada","Αγία Τριάδα"],"lon":19.84406,"lat":39.60744,"pop":192},{"id":252733,"name":"Agía Triáda","alt":["Agia Triada","Agia Trias","Agía Triás","Trachaniotis","Trachaniótis","Trakhanioti","Trakhaniotis","Trakhanióti","Trakhaniótis","Trakhoniti","Trakhoníti","Αγία Τριάδα","Αγία Τριάς"],"lon":21.72839,"lat":39.81928,"pop":43},{"id":257258,"name":"Agía Triáda","alt":["Agia Triada","Agia Trias","Agía Triás","Merichovon","Merikhovon","Meríchovon","Meríkhovon","Mirikhovon","Miríkhovon","Αγία Τριάδα","Αγία Τριάς"],"lon":21.89848,"lat":39.46361,"pop":1030},{"id":264118,"name":"Agía Triáda","alt":["Agia Triada","Agia Trias","Agía Triás","Ayia Trias","Ayía Triás","Bouratsa","Bourátsa","Αγία Τριάδα","Αγία Τριάς"],"lon":20.88878,"lat":39.43772,"pop":95},{"id":264119,"name":"Agía Triáda","alt":["Agia Triada","Agia Trias","Agía Triás","Ayia Trias","Ayía Triás","Supli","Suplí","Αγία Τριάδα","Αγία Τριάς"],"lon":22.56115,"lat":39.38711,"pop":0},{"id":264121,"name":"Agía Triáda","alt":["Agia Triada","Agia Trias","Agía Triás","Ayia Trias","Ayía Triás","Αγία Τριάδα","Αγία Τριάς"],"lon":20.98253,"lat":39.13776,"pop":136},{"id":264123,"name":"Agía Triáda","alt":["Agia Triada","Agia Trias","Agía Triás","Ayia Trias","Ayía Triás","Αγία Τριάδα","Αγία Τριάς"],"lon":21.19453,"lat":39.01764,"pop":82},{"id":264125,"name":"Agía Triáda","alt":["Agia Triada","Agia Trias","Agía Triás","Ayia Trias","Ayía Triás","Αγία Τριάδα","Αγία Τριάς"],"lon":20.79058,"lat":38.98489,"pop":0},{"id":264127,"name":"Agía Triáda","alt":["Agia Triada","Agia Trias","Agía Triás","Ayia Trias","Ayía Triás","Αγία Τριάδα","Αγία Τριάς"],"lon":21.82956,"lat":38.58892,"pop":0},{"id":264128,"name":"Agía Triáda","alt":["Agia Triada","Agia Trias","Agía Triás","Ayia Stevenikon","Ayia Trias","Ayía Steveníkon","Ayía Triás","Stevenikon","Steveníkon","Αγία Τριάδα","Αγία Τριάς"],"lon":22.90881,"lat":38.35505,"pop":1098},{"id":264130,"name":"Agía Triáda","alt":["Agia Triada","Agia Trias","Agía Triás","Ayia Trias","Ayía Triás","Boukovina","Boukovína","Αγία Τριάδα","Αγία Τριάς"],"lon":21.64744,"lat":37.86172,"pop":0},{"id":264134,"name":"Agía Triáda","alt":["Agia Triada","Agia Trias","Ayia Trias","Ayía Triás","Αγία Τριάδα","Αγία Τριάς"],"lon":24.5723,"lat":35.34306,"pop":62},{"id":264135,"name":"Agía Triáda","alt":["Agia Triada","Agia Trias","Agía Triás","Ayia Trias","Ayía Triás","Αγία Τριάδα","Αγία Τριάς"],"lon":26.13467,"lat":35.03914,"pop":0},{"id":736637,"name":"Agía Triáda","alt":["Agia Triada","Agia Trias","Agía Triás","Ayia Trias","Ayía Triás","Kirkasioi","Kirkásioi","Sinoikismos Kirkasion","Sinoikismós Kirkasíon","Αγία Τριάδα","Αγία Τριάς"],"lon":22.42152,"lat":40.5486,"pop":387},{"id":736638,"name":"Agía Triáda","alt":["Agia Triada","Agia Trias","Agía Triás","Ayia Trias","Ayía Triás","Skala Agias Triados","Skala Ayias Triadhos","Skála Agías Triádos","Skála Ayías Triádhos","Αγία Τριάδα","Αγία Τριάς"],"lon":22.87351,"lat":40.50003,"pop":3096},{"id":8427113,"name":"Agía Triáda","alt":["Agia Triada","Αγία Τριάδα"],"lon":23.79576,"lat":35.48971,"pop":0},{"id":8529728,"name":"Agía Triáda","alt":["Agia Triada","Αγία Τριάδα"],"lon":24.59174,"lat":35.12316,"pop":0},{"id":9036787,"name":"Agía Triáda","alt":["Aghia Triada Afidnon","Agia Triada Afidnon","Ayia Triada Afidnon","Diethnis Ippokrateios Politeia SYN.P.E.","Ippokrateios Politeia","Αγία Τριάδα Αφιδνών","Διεθνής Ιπποκράτειος Πολιτεία ΣΥΝ.Π.Ε.","Ιπποκράτειος Πολιτεία"],"lon":23.80308,"lat":38.20345,"pop":959},{"id":9074490,"name":"Agía Triáda","alt":["Agia Triada","Αγία Τριάδα"],"lon":21.3826,"lat":40.16025,"pop":0},{"id":9194271,"name":"Agía Triáda","alt":["Agia Triada","Αγία Τριάδα"],"lon":20.72928,"lat":39.34767,"pop":0},{"id":9960576,"name":"Agía Triáda","alt":["Agia Triada","Αγία Τριάδα"],"lon":22.09857,"lat":37.04226,"pop":0},{"id":264132,"name":"Agía Tríada","alt":["Agia Triada","Agia Trias","Agía Trías","Ano Lendekadha","Ayia Trias","Ayía Triás","Lente Kadha","Lente Kádha","Áno Lendekádha","Αγία Τρίαδα","Αγία Τρίας"],"lon":21.71071,"lat":37.20909,"pop":0},{"id":9036768,"name":"Agía Triáda Markopoulou","alt":["Agia Triada Markopoulou","Αγία Τριάδα Μαρκοπούλου"],"lon":23.96131,"lat":37.89428,"pop":218},{"id":9036827,"name":"Agía Triáda Megáron","alt":["Aghia Triada Megaron","Agia Triada Megaron","Αγία Τριάδα Μεγάρων"],"lon":23.39921,"lat":37.97502,"pop":252},{"id":9973047,"name":"Agía Triáda Melingón","alt":["Agia Triada Melingon","Αγία Τριάδα Μελιγγών"],"lon":20.80261,"lat":39.53393,"pop":50},{"id":11856971,"name":"Agia Varvara","alt":["Αγία Βαρβάρα"],"lon":20.48318,"lat":39.69338,"pop":0},{"id":260556,"name":"Agía Varvára","alt":["Agia Varvara","Kato Kollinai","Káto Kollínai","Αγία Βαρβάρα"],"lon":22.35057,"lat":37.28211,"pop":0},{"id":264110,"name":"Agía Varvára","alt":["Agia Varvara","Ayia Varvara","Ayía Varvára","Varvara","Varvára","Αγία Βαρβάρα"],"lon":22.27444,"lat":38.00711,"pop":0},{"id":264111,"name":"Agía Varvára","alt":["Agia Barbara","Agia Varvara","Ayia Varvara","Ayía Varvára","Αγία Βαρβάρα"],"lon":23.66011,"lat":37.98938,"pop":26550},{"id":264112,"name":"Agía Varvára","alt":["Agia Varvara","Ayia Varvara","Ayía Varvára","Krasetsa","Krasétsa","Varvara","Varvára","Αγία Βαρβάρα"],"lon":21.63067,"lat":37.93161,"pop":0},{"id":264113,"name":"Agía Varvára","alt":["Agia Varvara","Ayia Varvara","Ayía Varvára","Αγία Βαρβάρα"],"lon":22.39398,"lat":36.58689,"pop":9},{"id":264114,"name":"Agía Varvára","alt":["Agia Varvara","Ayia Varvara","Ayía Varvára","Αγία Βαρβάρα"],"lon":25.00131,"lat":35.13715,"pop":2167},{"id":736635,"name":"Agía Varvára","alt":["Agia Varvara","Ayia Varvara","Ayía Varvára","Varvarai","Varvares","Varvárai","Varváres","Αγία Βαρβάρα"],"lon":22.24439,"lat":40.49588,"pop":896},{"id":736636,"name":"Agía Varvára","alt":["Agia Varvara","Ayia Varvara","Ayía Varvára","Plavali","Plávali","Αγία Βαρβάρα","Πλάβαλη"],"lon":20.73273,"lat":40.14927,"pop":17},{"id":8139140,"name":"Agía Varvára","alt":["Agia Varvara","Αγία Βαρβάρα"],"lon":25.19814,"lat":37.54163,"pop":0},{"id":8605396,"name":"Agía Varvára","alt":["Agia Varvara","Αγία Βαρβάρα"],"lon":25.5045,"lat":35.29821,"pop":102},{"id":9034641,"name":"Agía Varvára","alt":["Agia Varvara","Αγία Βαρβάρα"],"lon":26.40976,"lat":38.96518,"pop":67},{"id":445235,"name":"Agía Varvára Dematíou","alt":["Agia Varvara","Agia Varvara Dematiou","Agía Varvára","Αγία Βαρβάρα Δεματίου"],"lon":21.03184,"lat":39.73629,"pop":26},{"id":443735,"name":"Agía Zóni","alt":["Agia Zoni","Αγία Ζώνη"],"lon":27.00669,"lat":37.75075,"pop":128},{"id":264207,"name":"Agiannákis","alt":["Agiannakis","Ayiannaki","Ayiannakis","Ayiannáki","Ayiannákis","Αγιαννάκης"],"lon":21.69777,"lat":37.34941,"pop":0},{"id":264206,"name":"Agiannákos","alt":["Agiannakos","Ayiannakos","Ayiannákos","Ayinnakos","Ayinnákos","Αγιαννάκος"],"lon":23.258,"lat":38.82719,"pop":0},{"id":11548645,"name":"Agiannis","alt":["Ajani","Αγιάννης","Ајани"],"lon":22.60424,"lat":40.42576,"pop":0},{"id":8986646,"name":"Agiánnis","alt":["Agiannis","Agios Ioannis","Aigiannis","Άγιος Ιωάννης","Αγιάννης","Αϊγιάννης"],"lon":23.82488,"lat":38.00773,"pop":0},{"id":11498836,"name":"Agiánnis","alt":["Agiannis","Αγιάννης"],"lon":25.87472,"lat":38.55846,"pop":0},{"id":736642,"name":"Agíasma","alt":["Agiasma","Ayiasma","Ayíasma","Αγίασμα"],"lon":25.37025,"lat":41.16559,"pop":0},{"id":736643,"name":"Agíasma","alt":["Agiasma","Ayiasma","Ayíasma","Kuri","Kurí","Αγίασμα"],"lon":24.65636,"lat":40.90795,"pop":843},{"id":736644,"name":"Agíasma","alt":["Agiasma","Ayiasma","Ayíasma","Latorista","Latórista","Αγίασμα"],"lon":21.23927,"lat":40.27941,"pop":0},{"id":9036680,"name":"Agíasma","alt":["Agiasma","Agiasmothi","Ayiasma","Άγιασμα","Αγίασμα","Αγιασμόθι"],"lon":23.97552,"lat":37.73787,"pop":161},{"id":444470,"name":"Agiásmata","alt":["Aghiamata","Agiasmata","Agiasmata Keramou","Agiasmata Leptopodon","Oikismos Agiasmata","Oikismós Agiásmata","Αγιάσματα","Αγιάσματα Κεράμου","Αγιάσματα Λεπτοπόδων"],"lon":25.93703,"lat":38.5868,"pop":6},{"id":10792530,"name":"Agiasménos","alt":["Agiasmenos","Αγιασμένος"],"lon":25.7389,"lat":35.02284,"pop":20},{"id":264146,"name":"Agiásos","alt":["Agiasos","Ayiasissios","Ayiasos","Ayiassios","Ayiassos","Ayiásissios","Ayiásos","Ayiássios","Ayiássos","Αγιάσος"],"lon":26.37218,"lat":39.08295,"pop":2320},{"id":7667410,"name":"Agiassós","alt":["Agiasos","Agiassos","Ayiassos","Ayiassós","Αγιάσος","Αγιασσός"],"lon":25.42355,"lat":36.96924,"pop":83},{"id":10175190,"name":"Agii Apostoli","alt":["΄Agioi Apostoloi","΄Αγιοι Απόστολοι"],"lon":23.94547,"lat":38.62566,"pop":0},{"id":264050,"name":"Ágio Gála","alt":["Aghio Ghalas","Agio Gala","Agion Gala","Ayion Gala","Ágion Gála","Áyion Gála","Άγιο Γάλα"],"lon":25.86021,"lat":38.56369,"pop":38},{"id":12402243,"name":"Agio Pnevma","alt":["Άγιο Πνεύμα"],"lon":25.90452,"lat":35.17759,"pop":0},{"id":736628,"name":"Ágio Pnévma","alt":["Agio Pnevma","Agion Pnevma","Ayion Pnevma","Monikon","Monoikon","Monospito","Monospiton","Mónoikon","Veznik","Veznikioi","Veznikon","Vezníkon","Ágion Pnévma","Áyion Pnévma","Άγιο Πνεύμα","Άγιον Πνεύμα","Βεζνίκιοϊ","Βεζνίκον","Μονόσπιτο","Μονόσπιτον","Μόνοικον","Агио Пневма","Везник","Моникон"],"lon":23.67992,"lat":41.10142,"pop":1353},{"id":11837974,"name":"Ágio Pnévma","alt":["Agio Pnevma","Άγιο Πνεύμα"],"lon":21.97878,"lat":40.44658,"pop":0},{"id":736630,"name":"Agiochóri","alt":["Agiochori","Agiochorion","Agiochórion","Ayiokhori","Ayiokhorion","Ayiokhóri","Ayiokhórion","Hacikoey","Hacıköy","Αγιοχώρι","Αγιοχώριον"],"lon":25.77706,"lat":41.08694,"pop":226},{"id":736631,"name":"Agiochóri","alt":["Agiochori","Agiochorion","Agiochórion","Agiokhori","Ayiokhorion","Ayiokhórion","Gratsiani","Grátsiani","Αγιοχώρι","Αγιοχώριον","Γράτσιανη","Агиохори"],"lon":23.95432,"lat":41.08233,"pop":276},{"id":264105,"name":"Agiófyllo","alt":["Agiofyllo","Agiofyllon","Agiófyllon","Ayiofillon","Ayiofillos","Ayiófillon","Ayiófillos","Velemisti","Velemísti","Αγιόφυλλο","Αγιόφυλλον"],"lon":21.56185,"lat":39.86324,"pop":621},{"id":264104,"name":"Ágioi","alt":["Agioi","Ayioi","Áyioi","Άγιοι"],"lon":23.50917,"lat":37.76944,"pop":0},{"id":9257399,"name":"Agioi Anárgyroi","alt":["Agioi Anargyroi","Άγιοι Ανάργυροι"],"lon":23.20866,"lat":37.34355,"pop":193},{"id":255986,"name":"Ágioi Anárgyroi","alt":["Agioi Anargyroi","Goritsa","Gorítsa","Paliour-Goritsa","Paliouri","Paliouri Goritsa","Palioúr-Góritsa","Palioúri","Palioúri Gorítsa","Άγιοι Ανάργυροι"],"lon":21.83446,"lat":39.43471,"pop":170},{"id":264100,"name":"Ágioi Anárgyroi","alt":["Agioi Anargyroi","Ayioi Anaryiroi","Churmakli","Churmaklí","Áyioi Anáryiroi","Άγιοι Ανάργυροι"],"lon":22.36644,"lat":39.52456,"pop":0},{"id":445070,"name":"Ágioi Anárgyroi","alt":["Agioi Anargyroi","Άγιοι Ανάργυροι"],"lon":21.02613,"lat":39.13969,"pop":756},{"id":736634,"name":"Ágioi Anárgyroi","alt":["Agioi Anargyroi","Ayioi Anaryiroi","Vroshtani","Vrostiani","Vróstiani","Áyioi Anáryiroi","Άγιοι Ανάργυροι","Вроштани"],"lon":21.17122,"lat":40.27782,"pop":0},{"id":8358563,"name":"Ágioi Anárgyroi","alt":["Agioi Anargyroi","Άγιοι Ανάργυροι"],"lon":23.72379,"lat":38.03013,"pop":34168},{"id":8740244,"name":"Ágioi Anárgyroi","alt":["Agioi Anargyroi","Άγιοι Ανάργυροι"],"lon":24.49386,"lat":36.73475,"pop":4},{"id":11498307,"name":"Ágioi Anárgyroi","alt":["Agioi Anargyroi","Άγιοι Ανάργυροι"],"lon":23.11817,"lat":37.25541,"pop":0},{"id":9036792,"name":"Agioi Anárgyroi Kapandritíou","alt":["Agioi Anargyroi Kapandritiou","Άγιοι Ανάργυροι Καπανδριτίου"],"lon":23.89719,"lat":38.255,"pop":276},{"id":6942425,"name":"Agioi Apostoloi","alt":["Agii Apostoli","Agii Apostoloi","Ἅγιοι Ἀπόστολοι"],"lon":23.97594,"lat":35.51001,"pop":0},{"id":12402239,"name":"Agioi Apostoloi","alt":["Agioi Apostoloi Lafkou","Άγιοι Απόστολοι","Άγιοι Απόστολοι Λαύκου"],"lon":23.18789,"lat":39.15555,"pop":0},{"id":264086,"name":"Ágioi Apóstoloi","alt":["Agioi Apostoloi","Ayioi Apostoloi","Varvea","Varvesi","Várvea","Várvesi","Áyioi Apóstoloi","Άγιοι Απόστολοι"],"lon":20.79292,"lat":39.74917,"pop":139},{"id":264087,"name":"Ágioi Apóstoloi","alt":["Agioi Apostoloi","Ayioi Apostoloi","Sinoikismos Ayioi Apostoloi","Sinoikismós Áyioi Apóstoloi","Áyioi Apóstoloi","Άγιοι Απόστολοι"],"lon":21.47042,"lat":39.352,"pop":0},{"id":264088,"name":"Ágioi Apóstoloi","alt":["Agioi Apostoloi","Ayioi Apostoloi","Providhia","Providia","Provídhia","Provídia","Áyioi Apóstoloi","Άγιοι Απόστολοι"],"lon":20.80192,"lat":39.30503,"pop":140},{"id":264089,"name":"Ágioi Apóstoloi","alt":["Agioi Apostoloi","Ayioi Apostoloi","Áyioi Apóstoloi","Άγιοι Απόστολοι"],"lon":21.44125,"lat":39.22386,"pop":0},{"id":264090,"name":"Ágioi Apóstoloi","alt":["Agioi Apostoloi","Ayioi Apostoloi","Áyioi Apóstoloi","Άγιοι Απόστολοι"],"lon":21.85327,"lat":39.0917,"pop":0},{"id":264091,"name":"Ágioi Apóstoloi","alt":["Agioi Apostoloi","Ayioi Apostoloi","Karabousa","Karamousa","Karamouza","Karábousa","Karámousa","Karámouza","Áyioi Apóstoloi","Άγιοι Απόστολοι"],"lon":22.85058,"lat":38.527,"pop":0},{"id":264093,"name":"Ágioi Apóstoloi","alt":["Agioi Apostoloi","Ayioi Apostoloi","Paralia Petrion","Paralía Petrión","Áyioi Apóstoloi","Άγιοι Απόστολοι"],"lon":24.19517,"lat":38.41225,"pop":0},{"id":264096,"name":"Ágioi Apóstoloi","alt":["Agioi Apostoloi","Ayioi Apostoloi","Sfendhami","Áyioi Apóstoloi","Άγιοι Απόστολοι"],"lon":22.80653,"lat":37.08061,"pop":0},{"id":264097,"name":"Ágioi Apóstoloi","alt":["Agioi Apostoloi","Ayioi Apostoloi","Áyioi Apóstoloi","Άγιοι Απόστολοι"],"lon":23.0274,"lat":36.55217,"pop":0},{"id":8522642,"name":"Ágioi Apóstoloi","alt":["Agioi Apostoloi","Άγιοι Απόστολοι"],"lon":23.74827,"lat":35.32371,"pop":0},{"id":12402241,"name":"Ágioi Apóstoloi","alt":["Agioi Apostoloi","Άγιοι Απόστολοι"],"lon":20.59182,"lat":38.17482,"pop":0},{"id":264484,"name":"Ágioi Asómatoi","alt":["Agioi Asomatoi","Asomatos","Asómatos","Άγιοι Ασώματοι"],"lon":22.69399,"lat":37.32798,"pop":0},{"id":264083,"name":"Ágioi Déka","alt":["Agioi Deka","Ayioi Dheka","Hagios Deka","Áyioi Dhéka","Άγιοι Δέκα"],"lon":24.96667,"lat":35.06667,"pop":0},{"id":2463769,"name":"Ágioi Déka","alt":["Agioi Deka","Ayioi Dheka","Áyioi Dhéka","Άγιοι Δέκα"],"lon":19.88628,"lat":39.55525,"pop":370},{"id":9036761,"name":"Agioi Dimítrios kai Panteleímon","alt":["Agioi Dimitrios kai Panteleimon","Άγιοι Δημήτριος και Παντελεήμων"],"lon":23.97406,"lat":38.26349,"pop":189},{"id":2463768,"name":"Ágioi Doúloi","alt":["Agioi Douloi","Ayioi Dhouli","Ayioi Dhouloi","Áyioi Dhoúli","Áyioi Dhoúloi","Άγιοι Δούλοι"],"lon":19.756,"lat":39.74735,"pop":185},{"id":257030,"name":"Agioi Pántes","alt":["Agioi Pantes","Agioi Pantes Zakynthou","Ayioi Pantes","Galaron","Galaros","Galarón","Galarós","Mikro Galaro","Mikro Galaron","Mikron Galaron","Mikrón Galáron","Άγιοι Πάντες","Άγιοι Πάντες Ζακύνθου","Μικρό Γαλαρό","Μικρό Γαλαρόν"],"lon":20.78609,"lat":37.78123,"pop":339},{"id":264079,"name":"Ágioi Pántes","alt":["Agioi Pantes","Ayioi Pandes","Áyioi Pándes","Άγιοι Πάντες"],"lon":20.35092,"lat":39.71675,"pop":0},{"id":264080,"name":"Ágioi Pántes","alt":["Agioi Pantes","Ayioi Pandes","Áyioi Pándes","Άγιοι Πάντες"],"lon":21.05167,"lat":39.56667,"pop":0},{"id":264081,"name":"Ágioi Pántes","alt":["Agioi Pantes","Ayioi Pandes","Vidhavi","Vídhavi","Áyioi Pándes","Άγιοι Πάντες"],"lon":22.29484,"lat":38.36813,"pop":0},{"id":264082,"name":"Ágioi Pántes","alt":["Agioi Pantes","Ayioi Pandes","Áyioi Pándes","Άγιοι Πάντες"],"lon":23.59571,"lat":35.47212,"pop":0},{"id":8469344,"name":"Ágioi Pántes","alt":["Agioi Pantes","Άγιοι Πάντες"],"lon":24.15216,"lat":35.4001,"pop":0},{"id":9960517,"name":"Ágioi Pántes","alt":["Agioi Pantes","Άγιοι Πάντες"],"lon":22.13706,"lat":37.04312,"pop":21},{"id":10794139,"name":"Ágioi Pántes","alt":["Agioi Pantes","Άγιοι Πάντες"],"lon":25.37187,"lat":37.06265,"pop":103},{"id":12402262,"name":"Agioi Saranta","alt":["Άγιοι Σαράντα"],"lon":23.13298,"lat":39.44345,"pop":0},{"id":264077,"name":"Ágioi Saránta","alt":["Agioi Saranta","Ayioi Saranda","Áyioi Saránda","Άγιοι Σαράντα"],"lon":20.64719,"lat":38.46456,"pop":0},{"id":264075,"name":"Ágioi Taxiárches","alt":["Agioi Taxiarches","Ayioi Taxiarkhai","Seidali","Seïdalí","Áyioi Taxiárkhai","Άγιοι Ταξιάρχες"],"lon":22.68207,"lat":36.8377,"pop":0},{"id":10942345,"name":"Ágioi Taxiárches","alt":["Agioi Taxiarches","Άγιοι Ταξιάρχες"],"lon":23.17851,"lat":39.37649,"pop":0},{"id":443594,"name":"Ágioi Theódori","alt":["Agioi Theodoroi","Άγιοι Θεόδωροι"],"lon":26.73188,"lat":37.745,"pop":123},{"id":263488,"name":"Ágioi Theódoroi","alt":["Agioi Theodoroi","Bastas","Bástas","Άγιοι Θεόδωροι"],"lon":21.323,"lat":37.94447,"pop":0},{"id":263721,"name":"Ágioi Theódoroi","alt":["Agioi Theodoroi","Ayios Theodhoroi","Ayios Theodhoros","Ayios Theodoros","Ayios Theódoros","Lopesi","Lópesi","Áyios Theódhoroi","Áyios Theódhoros","Άγιοι Θεόδωροι"],"lon":21.92583,"lat":37.87353,"pop":0},{"id":264061,"name":"Ágioi Theódoroi","alt":["Agioi Theodoroi","Ayioi Theodhoroi","Áyioi Theódhoroi","Άγιοι Θεόδωροι"],"lon":21.69133,"lat":39.65925,"pop":82},{"id":264064,"name":"Ágioi Theódoroi","alt":["Agioi Theodoroi","Ayioi Theodhoroi","Áyioi Theódhoroi","Άγιοι Θεόδωροι"],"lon":21.31392,"lat":38.96333,"pop":0},{"id":264066,"name":"Ágioi Theódoroi","alt":["Agioi Theodoroi","Ayioi Theodhoroi","Áyioi Theódhoroi","Άγιοι Θεόδωροι"],"lon":23.33153,"lat":38.32553,"pop":0},{"id":264068,"name":"Ágioi Theódoroi","alt":["Agii Theodori","Agioi Theodoroi","Ayioi Theodhoroi","Ayioi Theodoroi","Áyioi Theódhoroi","Άγιοι Θεόδωροι"],"lon":23.14221,"lat":37.92736,"pop":4643},{"id":264070,"name":"Ágioi Theódoroi","alt":["Agioi Theodoroi","Ayioi Theodhoroi","Paliokhori","Paliokhóri","Áyioi Theódhoroi","Άγιοι Θεόδωροι"],"lon":21.96005,"lat":37.31464,"pop":0},{"id":264071,"name":"Ágioi Theódoroi","alt":["Agioi Theodoroi","Ayioi Theodhoroi","Áyioi Theódhoroi","Άγιοι Θεόδωροι"],"lon":22.9363,"lat":36.75016,"pop":0},{"id":264072,"name":"Ágioi Theódoroi","alt":["Agioi Theodoroi","Ayioi Theodhoroi","Áyioi Theódhoroi","Άγιοι Θεόδωροι"],"lon":23.7,"lat":35.3,"pop":0},{"id":264073,"name":"Ágioi Theódoroi","alt":["Agioi Theodoroi","Ayioi Theodhoroi","Ayios Theodhoros","Áyioi Theódhoroi","Áyios Theódhoros","Άγιοι Θεόδωροι"],"lon":23.61973,"lat":35.27625,"pop":0},{"id":445125,"name":"Ágioi Theódoroi","alt":["Agioi Theodoroi","Άγιοι Θεόδωροι"],"lon":21.61458,"lat":39.15011,"pop":0},{"id":445288,"name":"Ágioi Theódoroi","alt":["Agioi Theodoroi","Άγιοι Θεόδωροι"],"lon":21.50394,"lat":39.98392,"pop":362},{"id":736633,"name":"Ágioi Theódoroi","alt":["Agioi Theodoroi","Ayioi Theodhoroi","Áyioi Theódhoroi","Άγιοι Θεόδωροι"],"lon":25.40417,"lat":41.04295,"pop":0},{"id":865348,"name":"Ágioi Theódoroi","alt":["Agioi Theodoroi","Άγιοι Θεόδωροι"],"lon":22.02376,"lat":40.3742,"pop":34},{"id":8224670,"name":"Ágioi Theódoroi","alt":["Agioi Theodoroi","Άγιοι Θεόδωροι"],"lon":25.09307,"lat":35.31915,"pop":789},{"id":9353135,"name":"Ágioi Theódoroi","alt":["Agioi Theodoroi","Άγιοι Θεόδωροι"],"lon":23.70459,"lat":40.3311,"pop":3},{"id":11523664,"name":"Ágioi Theódoroi","lon":22.0878,"lat":37.85805,"pop":0},{"id":12076835,"name":"Ágioi Theódoroi","alt":["Agioi Theodoroi","Άγιοι Θεόδωροι"],"lon":21.22779,"lat":38.84452,"pop":0},{"id":8261471,"name":"Agiokampos","lon":22.87783,"lat":39.69589,"pop":0},{"id":11549398,"name":"Agiokampos","lon":22.5218,"lat":39.41431,"pop":0},{"id":10227036,"name":"Agiókampos","alt":["Agiokampos","Αγιόκαμπος"],"lon":23.03709,"lat":38.92977,"pop":94},{"id":264051,"name":"Agionéri","alt":["Agioneri","Agionerion","Agionérion","Ayioneri","Ayionerion","Ayionéri","Ayionérion","Crnilo","Αγιονέρι","Αγιονέριον","Црнило"],"lon":22.12056,"lat":39.86322,"pop":0},{"id":445321,"name":"Agionéri","lon":20.79167,"lat":39.3225,"pop":0},{"id":264043,"name":"Agiopigí","alt":["Agiopigi","Ayiopiyi","Ayiopiyí","Dhelimbraim","Dhelimbraím","Αγιοπηγή"],"lon":21.91999,"lat":39.31874,"pop":420},{"id":264042,"name":"Agiorgítika","alt":["Agiorgitika","Anioryitika","Anioryítika","Ayioryitika","Ayioryítika","Αγιωργίτικα"],"lon":22.48231,"lat":37.49701,"pop":0},{"id":736627,"name":"Ágios Achílleios","alt":["Agios Achilleios","Agios Achillios","Agios Ahileos","Agios Akhilios","Ahil","Ahill","Ail","Ajios Ahilios","Akhil","Akhíl","Ayios Akhillios","Chailli","Sveti Ail","Sveti Akhil","Áyios Akhíllios","Άγιος Αχίλλειος","Χαΐλλι","Агиос Ахилиос","Аил","Ахил","Свети Аил","Свети Ахил"],"lon":21.07885,"lat":40.78841,"pop":21},{"id":444579,"name":"Ágios Aimilianós","alt":["Aghios Emilianos","Agios Aimilianos","Chorio Agios Aimilianos","Chorió Ágios Aimilianós","Άγιος Αιμιλιανός"],"lon":26.11194,"lat":38.27926,"pop":52},{"id":9257414,"name":"Ágios Aimilianós","alt":["Agios Aimilianos","Άγιος Αιμιλιανός"],"lon":23.1924,"lat":37.29809,"pop":42},{"id":264039,"name":"Ágios Akákios","alt":["Agios Akakios","Ayios Akakios","Golitsa","Gólitsa","Áyios Akákios","Άγιος Ακάκιος"],"lon":21.77217,"lat":39.38208,"pop":291},{"id":8030379,"name":"Agios Andreas","lon":21.31112,"lat":37.66419,"pop":0},{"id":12420798,"name":"Ágios Andreas","alt":["Agios Andreas","Άγιος Ανδρέας"],"lon":23.21328,"lat":39.14667,"pop":0},{"id":12420800,"name":"Ágios Andreas","alt":["Agios Andreas","Άγιος Ανδρέας"],"lon":25.21523,"lat":37.10719,"pop":0},{"id":258176,"name":"Ágios Andréas","alt":["Agios Andreas","Liviachovo","Liviachovon","Liviakhovon","Liviáchovon","Liviákhovon","Άγιος Ανδρέας","Λιβιάχοβο"],"lon":20.70892,"lat":39.47175,"pop":73},{"id":264016,"name":"Ágios Andréas","alt":["Agios Andreas","Ayios Andhreas","Ayios Andreas","Áyios Andhréas","Áyios Andréas","Άγιος Ανδρέας"],"lon":22.95457,"lat":38.47108,"pop":0},{"id":264017,"name":"Ágios Andréas","alt":["Agios Andreas","Ayios Andhreas","Ayios Andreas","Áyios Andhréas","Áyios Andréas","Άγιος Ανδρέας"],"lon":22.58847,"lat":38.30544,"pop":0},{"id":264018,"name":"Ágios Andréas","alt":["Agios Andreas","Ayios Andhreas","Ayios Andreas","Áyios Andhréas","Áyios Andréas","Άγιος Ανδρέας"],"lon":22.12364,"lat":38.16581,"pop":0},{"id":264022,"name":"Ágios Andréas","alt":["Agios Andreas","Anthini","Ayios Andhreas","Ayios Andreas","Áyios Andhréas","Áyios Andréas","Άγιος Ανδρέας","Ανθηνη"],"lon":22.76466,"lat":37.34519,"pop":1033},{"id":264023,"name":"Ágios Andréas","alt":["Agios Andreas","Ayios Andreas","Áyios Andréas","Άγιος Ανδρέας"],"lon":21.92083,"lat":36.86311,"pop":0},{"id":264024,"name":"Ágios Andréas","alt":["Agios Andreas","Ayios Andhreas","Ayios Andreas","Áyios Andhreas","Áyios Andréas","Άγιος Ανδρέας"],"lon":24.41386,"lat":35.31789,"pop":203},{"id":264036,"name":"Ágios Andréas","alt":["Agios Andreas","Ayios Andhreas","Áyios Andhréas","Άγιος Ανδρέας"],"lon":22.71058,"lat":36.90598,"pop":0},{"id":736622,"name":"Ágios Andréas","alt":["Agios Andreas","Ayios Andhreas","Ayios Andreas","Áyios Andhréas","Áyios Andréas","Άγιος Ανδρέας"],"lon":24.28323,"lat":40.86993,"pop":411},{"id":8608983,"name":"Ágios Andréas","alt":["Agios Andreas","Άγιος Ανδρέας"],"lon":25.9194,"lat":35.17771,"pop":0},{"id":11524208,"name":"Ágios Andréas Korakochríou","alt":["Agios Andreas Korakochoriou","Άγιος Ανδρέας Κορακοχωρίου"],"lon":21.30824,"lat":37.66888,"pop":0},{"id":264027,"name":"Ágios Antónios","alt":["Agios Antonios","Ayios Andonios","Kocheli","Kochelí","Kuchelir","Kuchelír","Áyios Andónios","Άγιος Αντώνιος"],"lon":22.47889,"lat":39.20339,"pop":0},{"id":264029,"name":"Ágios Antónios","alt":["Agios Antonios","Ayios Andonios","Ayios Antonios","Porto San Antonio","Skala","Áyios Andónios","Áyios Antónios","Άγιος Αντώνιος"],"lon":27.33385,"lat":36.45732,"pop":0},{"id":264030,"name":"Ágios Antónios","alt":["Agios Antonios","Ayios Andonios","Áyios Andónios","Άγιος Αντώνιος"],"lon":23.75877,"lat":35.47768,"pop":0},{"id":264033,"name":"Ágios Antónios","alt":["Agios Antonios","Ayios Andonios","Áyios Andónios","Άγιος Αντώνιος"],"lon":25.6066,"lat":35.31569,"pop":8},{"id":735113,"name":"Ágios Antónios","alt":["Agios Antonios","Dogantzi","Kioutsoukli","Kuecueklue","Kücüklü","Mikro Plagiari","Mikron Playiarion","Mikron Playiaron","Mikrón Playiárion","Mikrón Playiáron","Άγιος Αντώνιος","Δογαντζή","Κιουτσουκλή","Μικρό Πλαγιάρι"],"lon":23.09303,"lat":40.43678,"pop":647},{"id":736624,"name":"Ágios Antónios","alt":["Agios Antonios","Ayios Andonios","Lelovo","Áyios Andónios","Άγιος Αντώνιος","Λέλοβο"],"lon":23.05884,"lat":41.11113,"pop":101},{"id":736625,"name":"Ágios Antónios","alt":["Agios Antonios","Ayios Andonios","Zervaini","Zerveni","Zherveni","Zérvaini","Áyios Andónios","Άγιος Αντώνιος","Ζέρβενι","Жервени"],"lon":21.27512,"lat":40.63535,"pop":50},{"id":11129636,"name":"Ágios Antónios","alt":["Agios Antonios","Άγιος Αντώνιος"],"lon":22.94701,"lat":37.55396,"pop":0},{"id":10792541,"name":"Ágios Antónios Kallergianón","alt":["Agios Antonios Kallergianon","Άγιος Αντώνιος Καλλεργιανών"],"lon":23.6667,"lat":35.49092,"pop":284},{"id":253598,"name":"Ágios Arsénios","alt":["Agios Arsenios","Ayios Arsenios","Skliavi","Skliávi","Áyios Arsénios","Άγιος Αρσένιος"],"lon":20.39492,"lat":39.53531,"pop":79},{"id":10794140,"name":"Ágios Arsénios","alt":["Agersani","Agios Arsenios","Άγιος Αρσένιος","Αγερσανί"],"lon":25.39145,"lat":37.06134,"pop":717},{"id":8986684,"name":"Ágios Artémios","alt":["Agios Artemios","Agios Artemios Pankratiou","Ajos-Artemios","Άγιος Αρτέμιος","Άγιος Αρτέμιος Παγκρατίου","Айос-Артемиос","Айос-Артеміос"],"lon":23.74179,"lat":37.96069,"pop":0},{"id":263996,"name":"Ágios Athanásios","alt":["Agios Athanasios","Agios Athanasios Lamperou","Ayios Athanasios","Áyios Athanásios","Άγιος Αθανάσιος","Άγιος Αθανάσιος Λαμπερού"],"lon":21.77835,"lat":39.28291,"pop":324},{"id":263999,"name":"Ágios Athanásios","alt":["Agios Athanasios","Ayios Athanasios","Karahusein","Karahuseḯn","Karakhouseini","Karakhouseḯni","Áyios Athanásios","Άγιος Αθανάσιος"],"lon":22.99989,"lat":38.41944,"pop":0},{"id":264000,"name":"Ágios Athanásios","alt":["Agios Athanasios","Ayios Athanasios","Áyios Athanásios","Άγιος Αθανάσιος"],"lon":22.09703,"lat":38.23594,"pop":0},{"id":264002,"name":"Ágios Athanásios","alt":["Agios Athanasios","Ayios Athanasios","Áyios Athanásios","Άγιος Αθανάσιος"],"lon":21.85919,"lat":37.31334,"pop":0},{"id":264003,"name":"Ágios Athanásios","alt":["Agios Athanasios","Άγιος Αθανάσιος"],"lon":22.36148,"lat":36.51553,"pop":0},{"id":445065,"name":"Ágios Athanásios","alt":["Agios Athanasios","Άγιος Αθανάσιος"],"lon":21.13906,"lat":39.24278,"pop":53},{"id":736618,"name":"Ágios Athanásios","alt":["Agios Athanasios","Ayios Athanasios","Boriani","Bóriani","Áyios Athanásios","Άγιος Αθανάσιος"],"lon":24.24545,"lat":41.07463,"pop":3419},{"id":736619,"name":"Ágios Athanásios","alt":["Agios Athanasios","Ayios Athanasios","Áyios Athanásios","Άγιος Αθανάσιος"],"lon":24.78384,"lat":41.04098,"pop":0},{"id":736620,"name":"Ágios Athanásios","alt":["Agios Athanasios","Ayios Athanasios","Chegani","Chegáni","Tsegani","Áyios Athanásios","Άγιος Αθανάσιος","Τσεγάνη"],"lon":21.7694,"lat":40.84075,"pop":0},{"id":736621,"name":"Ágios Athanásios","alt":["Agios Athanasios","Ayios Athanasios","Kavakli","Kavaklievo","Kavaklí","Áyios Athanásios","Άγιος Αθανάσιος","Καβακλί","Каваклиево"],"lon":22.72841,"lat":40.71598,"pop":4967},{"id":2463767,"name":"Ágios Athanásios","alt":["Agios Athanasios","Ajios Athanasios","Ayios Athanasios","Áyios Athanásios","Άγιος Αθανάσιος"],"lon":19.71999,"lat":39.72511,"pop":192},{"id":8716528,"name":"Ágios Athanásios","alt":["Agios Athanasios","Άγιος Αθανάσιος"],"lon":21.52809,"lat":40.81547,"pop":33},{"id":9398034,"name":"Ágios Athanásios","alt":["Agios Athanasios","Άγιος Αθανάσιος"],"lon":24.29929,"lat":40.8167,"pop":13},{"id":9958227,"name":"Ágios Athanásios","alt":["Agios Athanasios","Άγιος Αθανάσιος"],"lon":23.12586,"lat":39.31544,"pop":111},{"id":12182044,"name":"Ágios Athanásios","alt":["Agios Athanasios","Άγιος Αθανάσιος"],"lon":21.41749,"lat":37.96793,"pop":0},{"id":12214068,"name":"Ágios Athanásios","alt":["Agios Athanasios","Άγιος Αθανάσιος"],"lon":21.60108,"lat":39.2245,"pop":0},{"id":9036805,"name":"Agios Athanásios Oropoú","alt":["Agios Athanasios Oropou","Άγιος Αθανάσιος Ωρωπού"],"lon":23.72845,"lat":38.31819,"pop":99},{"id":12165964,"name":"Agios Avgoustinos","alt":["Άγιος Αυγουστίνος"],"lon":21.95047,"lat":37.00651,"pop":0},{"id":12440427,"name":"Ágios Charalabos","alt":["Agios Charalampos","Άγιος Χαράλαμπος"],"lon":25.16869,"lat":37.09922,"pop":0},{"id":7646351,"name":"Agios Charalampos","alt":["Άγιος Χαράλαμπος"],"lon":23.23085,"lat":40.57889,"pop":87},{"id":251380,"name":"Ágios Charálampos","alt":["Agios Charalampos","Yerondomouri","Yerondomourion","Yerondomourí","Yerondomouríon","Άγιος Χαράλαμπος"],"lon":25.43896,"lat":35.17634,"pop":0},{"id":263874,"name":"Ágios Charálampos","alt":["Agios Charalampos","Ayios Kharalambos","Áyios Kharálambos","Άγιος Χαράλαμπος"],"lon":21.12656,"lat":39.28983,"pop":128},{"id":736607,"name":"Ágios Charálampos","alt":["Agios Charalampos","Agios Kharalambos","Ayios Kharalambos","Dimoutsa","Dimuca","Áyios Kharálambos","Άγιος Χαράλαμπος","Δημούτσα","Агиос Хараламбос","Димуца"],"lon":22.81516,"lat":41.2055,"pop":97},{"id":736608,"name":"Ágios Charálampos","alt":["Agios Charalampos","Ayios Kharalambos","Áyios Kharálambos","Άγιος Χαράλαμπος"],"lon":25.51093,"lat":40.87394,"pop":0},{"id":736609,"name":"Ágios Charálampos","alt":["Agios Charalampos","Ayios Kharalambos","Isaklar","Isaklár","Áyios Kharálambos","Άγιος Χαράλαμπος"],"lon":21.99028,"lat":40.37763,"pop":0},{"id":8522704,"name":"Ágios Charálampos","alt":["Agios Charalampos","Άγιος Χαράλαμπος"],"lon":23.75819,"lat":35.26444,"pop":0},{"id":9989406,"name":"Ágios Charálampos","alt":["Agios Charalampos","Άγιος Χαράλαμπος"],"lon":22.61054,"lat":39.28831,"pop":0},{"id":10627180,"name":"Ágios Charálampos","alt":["Agios Charalampos","Άγιος Χαράλαμπος"],"lon":25.32563,"lat":37.44372,"pop":0},{"id":11078862,"name":"Ágios Charálampos","alt":["Agios Charalampos","Άγιος Χαράλαμπος"],"lon":23.02988,"lat":37.92276,"pop":0},{"id":11129625,"name":"Ágios Charálampos","alt":["Agios Charalampos","Άγιος Χαράλαμπος"],"lon":23.41548,"lat":37.4083,"pop":0},{"id":9036821,"name":"Agios Charálampos Mándras","alt":["Aghios Charalabos Mandras","Aghios Charalampos Mandras","Aghios Haralabos Mandras","Agios Charalampos Mandras","Άγιος Χαράλαμπος Μάνδρας"],"lon":23.451,"lat":38.09828,"pop":6},{"id":251307,"name":"Ágios Christóforos","alt":["Agios Christoforos","Giourganista","Giourgánista","Yiourganista","Yiourgánista","Άγιος Χριστόφορος","Γιουργάνιστα"],"lon":20.62794,"lat":39.63683,"pop":49},{"id":256136,"name":"Ágios Christóforos","alt":["Agios Christoforos","Palaiokatouna","Palaiokatoúna","Άγιος Χριστόφορος","Παλαιοκατούνα"],"lon":20.68919,"lat":38.70062,"pop":138},{"id":736606,"name":"Ágios Christóforos","alt":["Agios Christoforos","Ayios Khristoforos","Trepista","Trépista","Áyios Khristóforos","Άγιος Χριστόφορος"],"lon":21.75678,"lat":40.51489,"pop":0},{"id":445335,"name":"Ágios Christóforos Sklívanis","alt":["Agios Christoforos Sklivanis","Agios Christofos","Ágios Christófos","Άγιος Χριστόφορος Σκλίβανης"],"lon":20.9211,"lat":39.41156,"pop":48},{"id":263986,"name":"Agios Dimitrios","alt":["Ayios Dhimitrios","Brakhami","Brakhámi","Áyios Dhimítrios","Άγιος Δημήτριος"],"lon":23.73333,"lat":37.93333,"pop":71294},{"id":11429091,"name":"Agios Dimitrios","alt":["Άγιος Δημήτριος"],"lon":20.43006,"lat":38.23144,"pop":0},{"id":12489748,"name":"Agios Dimitrios","alt":["Agios Dimitrios Poron","Άγιος Δημήτριος","Άγιος Δημήτριος Πόρων"],"lon":22.62313,"lat":39.97967,"pop":0},{"id":252407,"name":"Ágios Dimítrios","alt":["Agios Dimitrios","Tsioungouron","Tsioúngouron","Tsougkouro","Tsougkouron","Tsoungouron","Tsoúgkouro","Tsoúgkouron","Tsoúngouron","Άγιος Δημήτριος"],"lon":21.549,"lat":39.77622,"pop":207},{"id":263267,"name":"Ágios Dimítrios","alt":["Agios Dimitrios","Dhamiza","Dhámiza","Άγιος Δημήτριος"],"lon":21.45519,"lat":37.87411,"pop":0},{"id":263974,"name":"Ágios Dimítrios","alt":["Ayios Dhimitrios","Áyios Dhimítrios"],"lon":20.55,"lat":39.53333,"pop":0},{"id":263975,"name":"Ágios Dimítrios","alt":["Agios Dimitrios","Ayios Dhimitrios","Áyios Dhimítrios","Άγιος Δημήτριος"],"lon":22.11357,"lat":39.51544,"pop":0},{"id":263976,"name":"Ágios Dimítrios","alt":["Agios Dimitrios","Ayios Dhimitrios","Áyios Dhimítrios","Άγιος Δημήτριος"],"lon":20.67706,"lat":39.52096,"pop":0},{"id":263977,"name":"Ágios Dimítrios","alt":["Agios Dimitios","Agios Dimitrios","Ayios Dhimitrios","Áyios Dhimítrios","Άγιος Δημήτιος"],"lon":23.14853,"lat":39.41458,"pop":0},{"id":263980,"name":"Ágios Dimítrios","alt":["Agios Dimitrios","Ayios Dhimitrios","Áyios Dhimítrios","Άγιος Δημήτριος"],"lon":21.67969,"lat":39.05828,"pop":35},{"id":263981,"name":"Ágios Dimítrios","alt":["Agios Dimitrios","Ayios Dhimitrios","Áyios Dhimítrios","Άγιος Δημήτριος"],"lon":21.841,"lat":38.6585,"pop":0},{"id":263982,"name":"Ágios Dimítrios","alt":["Agios Dimitrios","Ayios Dhimitrios","Áyios Dhimítrios","Άγιος Δημήτριος"],"lon":22.99729,"lat":38.45016,"pop":0},{"id":263983,"name":"Ágios Dimítrios","alt":["Agios Dimitrios","Ayios Dhimitrio","Ayios Dhimitrios","Áyios Dhimitrió","Áyios Dhimítrios","Άγιος Δημήτριος"],"lon":24.13972,"lat":38.28186,"pop":0},{"id":263984,"name":"Ágios Dimítrios","alt":["Agios Dimitrios","Ayios Dhimitrios","Áyios Dhimítrios","Άγιος Δημήτριος"],"lon":24.44106,"lat":38.10792,"pop":0},{"id":263985,"name":"Ágios Dimítrios","alt":["Agios Dimitrios","Ayios Dhimitrios","Áyios Dhimítrios","Άγιος Δημήτριος"],"lon":21.76075,"lat":37.99961,"pop":0},{"id":263989,"name":"Ágios Dimítrios","alt":["Agios Dimitrios","Ayios Dhimitrios","Áyios Dhimítrios","Άγιος Δημήτριος"],"lon":22.82079,"lat":36.93519,"pop":0},{"id":263991,"name":"Ágios Dimítrios","alt":["Agios Dimitrios","Ayios Dhimitrios","Áyios Dhimítrios","Άγιος Δημήτριος"],"lon":24.57539,"lat":35.35323,"pop":177},{"id":263992,"name":"Ágios Dimítrios","alt":["Agios Dimitrios","Ayios Dhimitrios","Áyios Dhimítrios","Άγιος Δημήτριος"],"lon":24.07542,"lat":35.22263,"pop":0},{"id":443622,"name":"Ágios Dimítrios","alt":["Agios Dimitrios","Άγιος Δημήτριος"],"lon":26.73666,"lat":37.80804,"pop":240},{"id":444306,"name":"Ágios Dimítrios","alt":["Agios Dimitrios","Άγιος Δημήτριος"],"lon":27.2301,"lat":36.85276,"pop":0},{"id":445069,"name":"Ágios Dimítrios","alt":["Agios Dimitrios","Άγιος Δημήτριος"],"lon":21.01677,"lat":39.15879,"pop":0},{"id":735845,"name":"Ágios Dimítrios","alt":["Agios Dimitrios","Kedhrona","Kedhronas","Kedhróna","Kedhrónas","Kedronas","Kedrónas","Άγιος Δημήτριος","Κεδρώνας"],"lon":21.90657,"lat":40.76102,"pop":0},{"id":736614,"name":"Ágios Dimítrios","alt":["Agios Dimitrios","Ayios Dhimitrios","Paliostros","Paliotro","Paliotros","Paliotrous","Palióstros","Paliótros","Paliótrous","Stara banja","Áyios Dhimítrios","Άγιος Δημήτριος","Παληότρο","Стара баня"],"lon":23.70557,"lat":40.88435,"pop":292},{"id":736616,"name":"Ágios Dimítrios","alt":["Agios Dimitrios","Ayios Dhimitrios","Topchilar","Topchilár","Áyios Dhimítrios","Άγιος Δημήτριος"],"lon":21.92697,"lat":40.41346,"pop":0},{"id":736617,"name":"Ágios Dimítrios","alt":["Agios Dimitrios","Ayios Dhimitrios","Áyios Dhimítrios","Άγιος Δημήτριος"],"lon":22.23048,"lat":40.15559,"pop":883},{"id":2463766,"name":"Ágios Dimítrios","alt":["Agios Dimitrios","Ayios Dhimitrios","Áyios Dhimítrios","Άγιος Δημήτριος"],"lon":19.94997,"lat":39.45989,"pop":88},{"id":9353765,"name":"Ágios Dimítrios","alt":["Agios Dimitrios","Άγιος Δημήτριος"],"lon":26.11051,"lat":38.38143,"pop":37},{"id":11265879,"name":"Ágios Dimítrios","alt":["Agios Dimitrios","Άγιος Δημήτριος"],"lon":26.0825,"lat":37.60803,"pop":0},{"id":11498156,"name":"Ágios Dimítrios","alt":["Agios Dimitrios","Άγιος Δημήτριος"],"lon":23.94322,"lat":39.21957,"pop":0},{"id":11612515,"name":"Ágios Dimítrios","alt":["Agios Dimitrios","Άγιος Δημήτριος"],"lon":21.81644,"lat":37.28017,"pop":0},{"id":12060236,"name":"Ágios Dimítrios","alt":["Agios Dimitrios","Άγιος Δημήτριος"],"lon":24.37295,"lat":37.31433,"pop":0},{"id":9036677,"name":"Agios Dimítrios Kropiás","alt":["Agios Dimitrios Kropias","Άγιος Δημήτριος Κρωπίας"],"lon":23.85793,"lat":37.80612,"pop":1011},{"id":10630514,"name":"Ágios Dimítrios Neochoríou","alt":["Agios Dimitrios Neochoriou","Άγιος Δημήτριος Νεοχώριου"],"lon":23.27203,"lat":39.30345,"pop":8},{"id":263979,"name":"Ágios Dimítrios Perivléptou","alt":["Agios Dimitrios","Agios Dimitrios Perivleptou","Ayios Dhimitrios","Uzlar","Uzlár","Ágios Dimítrios","Áyios Dhimítrios","Άγιος Δημήτριος","Άγιος Δημήτριος Περιβλέπτου"],"lon":22.72194,"lat":39.31278,"pop":144},{"id":10630426,"name":"Ágios Dimítrios Rodiás","alt":["Agios Dimitrios Rodias","Άγιος Δημήτριος Ροδιάς"],"lon":25.02952,"lat":35.35591,"pop":53},{"id":8714897,"name":"Ágios Dionýsios","alt":["Agios Dionysios","Άγιος Διονύσιος"],"lon":23.63739,"lat":37.95032,"pop":0},{"id":263968,"name":"Ágios Donátos","alt":["Agios Donatos","Ayios Dhonatos","Áyios Dhonátos","Άγιος Δονάτος"],"lon":20.50783,"lat":39.47531,"pop":262},{"id":263960,"name":"Ágios Efstrátios","alt":["Agios Efstratios","Ayios Evstratios","Ayios Stratis","Áyios Evstrátios","Áyios Stratis","Άγιος Ευστράτιος"],"lon":24.99167,"lat":39.53889,"pop":0},{"id":263962,"name":"Ágios Efstrátios","alt":["Agios Efstratios","Ayios Evstratios","Áyios Evstrátios","Άγιος Ευστράτιος"],"lon":22.52035,"lat":36.7498,"pop":0},{"id":263963,"name":"Ágios Efstrátios","alt":["Agios Efstratios","Ayios Evstratios","Áyios Evstrátios","Άγιος Ευστράτιος"],"lon":23.7286,"lat":35.38096,"pop":0},{"id":263964,"name":"Ágios Efstrátios","alt":["Agios Efstratios","Ayios Evstratios","Áyios Evstrátios","Άγιος Ευστράτιος"],"lon":23.71093,"lat":35.34283,"pop":0},{"id":9036056,"name":"Agios Elefthérios","alt":["Agios Eleftherios","Ajos-Ehlefterios","Ajos-Elefterios","Άγιος Ελευθέριος","Айос-Елефтеріос","Айос-Элефтериос"],"lon":23.7289,"lat":38.02138,"pop":0},{"id":12440426,"name":"Ágios Eleftherios","alt":["Agios Eleftherios","Άγιος Ελευθέριος"],"lon":20.61934,"lat":38.16971,"pop":0},{"id":251193,"name":"Ágios Eleoúsa","alt":["Agios Eleousa","Zoga","Zogas","Zóga","Zógas","Άγιος Ελεούσα"],"lon":21.77056,"lat":38.07672,"pop":0},{"id":263966,"name":"Ágios Elissaíos","alt":["Agios Elissaios","Ayios Elisaios","Ayios Elissaios","Áyios Elisaíos","Áyios Elissaíos","Άγιος Ελισσαίος"],"lon":22.96249,"lat":36.57364,"pop":0},{"id":8739799,"name":"Agios Fanoúrios","alt":["Agios Fanourios","Άγιος Φανούριος"],"lon":23.63035,"lat":37.94748,"pop":0},{"id":9960508,"name":"Ágios Fanoúrios","alt":["Agios Fanourios","Άγιος Φανούριος"],"lon":22.12054,"lat":37.05651,"pop":62},{"id":11078579,"name":"Ágios Fílippos","alt":["Agios Filippos","Άγιος Φίλιππος"],"lon":23.121,"lat":37.94548,"pop":0},{"id":263956,"name":"Ágios Flóros","alt":["Agios Floros","Ayios Floros","Áyios Flóros","Άγιος Φλώρος"],"lon":22.02664,"lat":37.16792,"pop":0},{"id":444274,"name":"Ágios Fokás","alt":["Agios Fokas","Άγιος Φωκάς"],"lon":27.34691,"lat":36.85673,"pop":0},{"id":12440422,"name":"Ágios Fokás","alt":["Agios Fokas","Άγιος Φωκάς"],"lon":25.18315,"lat":37.53259,"pop":0},{"id":9034650,"name":"Àgios Fokás","alt":["Agios Fokas","Άγιος Φωκάς"],"lon":26.16961,"lat":39.00801,"pop":16},{"id":263683,"name":"Ágios Gedeón","alt":["Agios Gedeon","Ayios Yedheon","Ntarmpegli","Áyios Yedheón","Άγιος Γεδεών","Νταρμπεγλί"],"lon":22.73333,"lat":39.4,"pop":0},{"id":8030018,"name":"Agios Georgios","alt":["Άγιος Γεώργιος"],"lon":25.45373,"lat":36.34248,"pop":0},{"id":11776986,"name":"Agios Georgios","alt":["Άγιος Γεώργιος"],"lon":21.70272,"lat":37.98311,"pop":0},{"id":9036682,"name":"Agios Geórgios","alt":["Agios Georgios","Agios Georgios Kerateas","Άγιος Γεώργιος","Άγιος Γεώργιος Κερατέας"],"lon":23.97861,"lat":37.76827,"pop":33},{"id":12402390,"name":"Ágios Georgios","alt":["Agios Georgios","Agios Georgios Zakrou","Άγιος Γεώργιος","Άγιος Γεώργιος Ζάκρου"],"lon":26.21817,"lat":35.082,"pop":0},{"id":12402391,"name":"Ágios Georgios","alt":["Agios Georgios","Agios Georgios Pargas","Άγιος Γεώργιος","Άγιος Γεώργιος Πάργας"],"lon":20.39061,"lat":39.29142,"pop":0},{"id":12402437,"name":"Ágios Georgios","alt":["Agios Georgios","Άγιος Γεώργιος"],"lon":24.85997,"lat":36.66412,"pop":0},{"id":12420793,"name":"Ágios Georgios","alt":["Agios Georgios","Agios Georgios Thermis","Άγιος Γεώργιος","Άγιος Γεώργιος Θερμής"],"lon":26.49173,"lat":39.19041,"pop":0},{"id":251683,"name":"Ágios Geórgios","alt":["Agios Georgios","Basta","Básta","Vrakhnaiika","Vrakhnaíika","Vrakhneika","Vrakhnéïka","Άγιος Γεώργιος"],"lon":21.33425,"lat":37.93081,"pop":0},{"id":252047,"name":"Ágios Geórgios","alt":["Agios Georgios","Agios Georgios Megalocharis","Beltsista","Beltsísta","Botsi","Bótsi","Veltisti","Veltísti","Άγιος Γεώργιος","Άγιος Γεώργιος Μεγαλόχαρης"],"lon":21.3275,"lat":39.23431,"pop":0},{"id":255855,"name":"Ágios Geórgios","alt":["Agios Georgios","Alaimbei","Alaḯmbeï","Paniyiristra","Paniyirístra","Άγιος Γεώργιος"],"lon":22.6772,"lat":36.85517,"pop":0},{"id":261481,"name":"Ágios Geórgios","alt":["Agios Georgios","Ayios Yeoryios","Kalivia","Kalívia","Áyios Yeóryios","Άγιος Γεώργιος"],"lon":21.93935,"lat":37.85406,"pop":0},{"id":263624,"name":"Ágios Geórgios","alt":["Agios Georgios","Ayios Yeoryios","Áyios Yeóryios","Άγιος Γεώργιος"],"lon":21.76562,"lat":39.87196,"pop":3},{"id":263625,"name":"Ágios Geórgios","alt":["Agios Georgios","Ayios Yeoryios","Riziani","Ríziani","Áyios Yeóryios","Άγιος Γεώργιος"],"lon":20.34925,"lat":39.52822,"pop":162},{"id":263626,"name":"Ágios Geórgios","alt":["Agios Georgios","Ayios Yeoryios","Skoupitsa","Skoupítsa","Áyios Yeóryios","Άγιος Γεώργιος"],"lon":20.44154,"lat":39.49954,"pop":34},{"id":263627,"name":"Ágios Geórgios","alt":["Agios Georgios","Ayios Yeoryios","Boukhlar","Boukhlár","Buhlar","Buhlár","Áyios Yeóryios","Άγιος Γεώργιος"],"lon":22.33933,"lat":39.45489,"pop":0},{"id":263629,"name":"Ágios Geórgios","alt":["Agios Georgios","Ayios Yeoryios","Áyios Yeóryios","Άγιος Γεώργιος"],"lon":21.12656,"lat":39.3849,"pop":78},{"id":263631,"name":"Ágios Geórgios","alt":["Ayios Yeoryios","Stavros","Stavrós","Áyios Yeóryios"],"lon":21.21667,"lat":39.36667,"pop":0},{"id":263633,"name":"Ágios Geórgios","alt":["Agios Georgios","Ayios Yeoryios","Mavromandila","Mavromandíla","Áyios Yeóryios","Άγιος Γεώργιος"],"lon":21.8357,"lat":39.29633,"pop":598},{"id":263635,"name":"Ágios Geórgios","alt":["Agios Georgios","Ayios Yeoryios","Sandokaliva","Sandokáliva","Áyios Yeóryios","Άγιος Γεώργιος"],"lon":21.10147,"lat":39.28968,"pop":0},{"id":263636,"name":"Ágios Geórgios","alt":["Agios Georgios","Agiou Georgiou","Agíou Georgíou","Ayios Yeoryios","Áyios Yeóryios","Άγιος Γεώργιος"],"lon":20.85428,"lat":39.26703,"pop":745},{"id":263638,"name":"Ágios Geórgios","alt":["Agios Georgios","Ayios Yeoryios","Áyios Yeóryios","Άγιος Γεώργιος"],"lon":21.1495,"lat":39.04917,"pop":0},{"id":263641,"name":"Ágios Geórgios","alt":["Agios Georgios","Ayios Yeoryios","Áyios Yeóryios","Άγιος Γεώργιος"],"lon":23.15735,"lat":38.94016,"pop":0},{"id":263642,"name":"Ágios Geórgios","alt":["Agios Georgios","Ayios Yeoryios","Áyios Yeóryios","Άγιος Γεώργιος"],"lon":21.59839,"lat":38.89958,"pop":0},{"id":263644,"name":"Ágios Geórgios","alt":["Agios Georgios","Ayios Yeoryios","Áyios Yeóryios","Άγιος Γεώργιος"],"lon":22.38508,"lat":38.50903,"pop":0},{"id":263645,"name":"Ágios Geórgios","alt":["Agios Georgios","Ayios Yeoryios","Áyios Yeóryios","Άγιος Γεώργιος"],"lon":24.07825,"lat":38.49458,"pop":0},{"id":263646,"name":"Ágios Geórgios","alt":["Agios Georgios","Ayios Yeoryios","Áyios Yeóryios","Άγιος Γεώργιος"],"lon":22.93189,"lat":38.39343,"pop":2045},{"id":263647,"name":"Ágios Geórgios","alt":["Agios Georgios","Ayios Yeoryios","Áyios Yeóryios","Άγιος Γεώργιος"],"lon":21.54217,"lat":38.39519,"pop":0},{"id":263653,"name":"Ágios Geórgios","alt":["Agios Georgios","Ayios Yeoryios","Áyios Yeóryios","Άγιος Γεώργιος"],"lon":21.51767,"lat":37.68817,"pop":0},{"id":263655,"name":"Ágios Geórgios","alt":["Agios Georgios","Ayios Yeoryios","Áyios Yeóryios","Άγιος Γεώργιος"],"lon":22.58695,"lat":37.41835,"pop":0},{"id":263656,"name":"Ágios Geórgios","alt":["Agios Georgios","Ayios Yeoryios","Áyios Yeóryios","Άγιος Γεώργιος"],"lon":21.84631,"lat":37.31179,"pop":0},{"id":263657,"name":"Ágios Geórgios","alt":["Agios Georgios","Agios Georgios (Naxos)","Ágios Geórgios (Naxos)","Άγιος Γεώργιος"],"lon":25.46757,"lat":36.86058,"pop":105},{"id":263661,"name":"Ágios Geórgios","alt":["Agios Georgios","Ayios Yeoryios","Áyios Yeóryios","Άγιος Γεώργιος"],"lon":23.00327,"lat":36.54107,"pop":0},{"id":263666,"name":"Ágios Geórgios","alt":["Agios Georgios","Ayios Yeoryios","Áyios Yeóryios","Άγιος Γεώργιος"],"lon":24.01811,"lat":35.45357,"pop":0},{"id":263670,"name":"Ágios Geórgios","alt":["Agios Georgios","Ayios Yeoryios","Áyios Yeóryios","Άγιος Γεώργιος"],"lon":23.73333,"lat":35.31667,"pop":0},{"id":263675,"name":"Ágios Geórgios","alt":["Agios Georgios","Ayios Yeoryios","Áyios Yeóryios","Άγιος Γεώργιος"],"lon":25.48448,"lat":35.16608,"pop":0},{"id":263676,"name":"Ágios Geórgios","alt":["Agios Georgios","Ayios Yeoryios","Tourtoula","Tourtouloi","Tourtoúla","Tourtoúloi","Áyios Yeóryios","Άγιος Γεώργιος"],"lon":26.0654,"lat":35.12361,"pop":0},{"id":444935,"name":"Ágios Geórgios","alt":["Agios Georgios","Άγιος Γεώργιος"],"lon":25.98822,"lat":38.49921,"pop":0},{"id":445159,"name":"Ágios Geórgios","alt":["Agios Georgios","Άγιος Γεώργιος"],"lon":21.54694,"lat":39.48694,"pop":0},{"id":445315,"name":"Ágios Geórgios","alt":["Agios Georgios","Άγιος Γεώργιος"],"lon":20.87275,"lat":39.22722,"pop":0},{"id":445350,"name":"Ágios Geórgios","alt":["Agios Georgios","Agios Georgios Paramythias","Georgiki Scholi","Georgíki Scholí","Άγιος Γεώργιος","Άγιος Γεώργιος Παραμυθιάς"],"lon":20.50967,"lat":39.45886,"pop":149},{"id":736579,"name":"Ágios Geórgios","alt":["Agios Georgios","Ayios Yeoryios","Áyios Yeóryios","Άγιος Γεώργιος"],"lon":24.63683,"lat":40.76263,"pop":0},{"id":736580,"name":"Ágios Geórgios","alt":["Agios Georgios","Ayios Yeoryios","Sveti GJorgi","Áyios Yeóryios","Άγιος Γεώργιος","Свети Ѓорѓи"],"lon":22.25323,"lat":40.76413,"pop":321},{"id":736581,"name":"Ágios Geórgios","alt":["Agios Georgios","Ayios Yeoryios","Yiannissa","Yiánnissa","Áyios Yeóryios","Άγιος Γεώργιος"],"lon":22.1943,"lat":40.60215,"pop":1767},{"id":736582,"name":"Ágios Geórgios","alt":["Agios Georgios","Ayios Yeoryios","Tsourkhlion","Áyios Yeóryios","Άγιος Γεώργιος"],"lon":21.40837,"lat":40.19726,"pop":0},{"id":736583,"name":"Ágios Geórgios","alt":["Agios Georgios","Ayios Yeoryios","Áyios Yeóryios","Άγιος Γεώργιος"],"lon":20.75129,"lat":40.13167,"pop":0},{"id":8530037,"name":"Ágios Geórgios","alt":["Agios Georgios","Άγιος Γεώργιος"],"lon":24.65384,"lat":35.09756,"pop":0},{"id":10242878,"name":"Ágios Geórgios","alt":["Agios Georgios","Άγιος Γεώργιος"],"lon":22.06602,"lat":38.26718,"pop":0},{"id":10794158,"name":"Ágios Geórgios","lon":25.37556,"lat":37.09916,"pop":0},{"id":10861196,"name":"Ágios Geórgios","alt":["Agios Georgios","Άγιος Γεώργιος"],"lon":23.75752,"lat":35.44512,"pop":0},{"id":10975482,"name":"Ágios Geórgios","alt":["Agios Georgios","Άγιος Γεώργιος"],"lon":24.00645,"lat":38.16631,"pop":0},{"id":10999991,"name":"Ágios Geórgios","alt":["Agios Georgios","Άγιος Γεώργιος"],"lon":23.88101,"lat":37.8447,"pop":0},{"id":263672,"name":"Ágios Geórgios Agíou Konstantínou","alt":["Agios Georgios Agiou Konstantinou","Άγιος Γεώργιος Αγίου Κωνσταντίνου"],"lon":24.36257,"lat":35.29637,"pop":48},{"id":6690887,"name":"Agios Geórgios Argyrádon","alt":["Agios Georgios Argyradon","Άγιος Γεώργιος Αργυράδων"],"lon":19.94877,"lat":39.42711,"pop":503},{"id":9165885,"name":"Agios Geórgios Armenádon","alt":["Aghios Georgios Armenadon","Agios Georgios","Agios Georgios Armenades","Agios Georgios Armenadon","Άγιος Γεώργιος","Άγιος Γεώργιος Αρμενάδων"],"lon":19.67832,"lat":39.71868,"pop":60},{"id":263671,"name":"Ágios Geórgios Arménon","alt":["Agios Georgios Armenon","Άγιος Γεώργιος Αρμένων"],"lon":24.45681,"lat":35.29551,"pop":87},{"id":10175072,"name":"Ágios Geórgios Dematíou","alt":["Agios Georgios Dematiou","Άγιος Γεώργιος Δεματίου"],"lon":20.99685,"lat":39.73802,"pop":38},{"id":444197,"name":"Ágios Geórgios Dolianón","alt":["Agios Georgios","Agios Georgios Dolianon","Elaia","Elaía","Ágios Geórgios","Άγιος Γεώργιος Δολιανών"],"lon":20.61,"lat":39.88992,"pop":60},{"id":263630,"name":"Ágios Geórgios Ferón","alt":["Agios Georgios","Agios Georgios Feron","Ayios Yeoryios","Mikra Fera","Ágios Geórgios","Áyios Yeóryios","Άγιος Γεώργιος Φερών","Μικρά Φερά"],"lon":22.77716,"lat":39.36977,"pop":681},{"id":10227040,"name":"Ágios Geórgios Giáltron","alt":["Agios Georgios Gialtron","Άγιος Γεώργιος Γιάλτρων"],"lon":22.9766,"lat":38.87117,"pop":24},{"id":263637,"name":"Ágios Geórgios Glykoríizou","alt":["Agios Georgios","Agios Georgios Glykorrizou","Ayios Yeoryios","Ágios Geórgios","Ágios Geórgios Glykorrízou","Áyios Yeóryios","Άγιος Γεώργιος","Άγιος Γεώργιος Γλυκορρίζου"],"lon":21.02561,"lat":39.10214,"pop":53},{"id":263663,"name":"Ágios Geórgios Gramvousís","alt":["Agios Georgios","Agios Georgios Gramvousis","Ayios Yeoryios","Ágios Geórgios","Áyios Yeóryios","Άγιος Γεώργιος Γραμβουσής"],"lon":23.61219,"lat":35.497,"pop":104},{"id":10792523,"name":"Ágios Geórgios Ierápetras","alt":["Agios Georgios Ierapetras","Άγιος Γεώργιος Ιεράπετρας"],"lon":25.69556,"lat":35.05074,"pop":24},{"id":9257376,"name":"Agios Geórgios Karyás","alt":["Agios Georgios Karyas","Άγιος Γεώργιος Καρυάς"],"lon":22.57462,"lat":37.64431,"pop":14},{"id":9165936,"name":"Agios Geórgios Kassiópis","alt":["Agios Georgios Kassiopis","Άγιος Γεώργιος Κασσιόπης"],"lon":19.91229,"lat":39.77131,"pop":1},{"id":12420795,"name":"Ágios Georgios Keramion","alt":["Agios Georgios","Agios Georgios Kerameion","Άγιος Γεώργιος","Άγιος Γεώργιος Κεραμείων"],"lon":26.447,"lat":39.12293,"pop":0},{"id":263662,"name":"Ágios Geórgios Koítas","alt":["Agios Georgios Koitas","Ayios Yeoryios Koitas","Áyios Yeóryios Koítas","Άγιος Γεώργιος Κοίτας"],"lon":22.38581,"lat":36.52626,"pop":18},{"id":10859323,"name":"Ágios Geórgios Kóxaris","alt":["Agios Georgios Koxaris","Άγιος Γεώργιος Κόξαρης"],"lon":25.3208,"lat":35.29524,"pop":21},{"id":11524209,"name":"Agios Georgios Lazoiou","alt":["Agios Georgios Latzoiou","Άγιος Γεώργιος Λατζοΐου"],"lon":21.56917,"lat":37.72468,"pop":0},{"id":263643,"name":"Ágios Geórgios Lichádos","alt":["Agios Georgios Lichados","Άγιος Γεώργιος Λιχάδος"],"lon":22.88097,"lat":38.83793,"pop":868},{"id":9036818,"name":"Agios Geórgios Mándras","alt":["Agios Georgios Mandras","Άγιος Γεώργιος Μάνδρας"],"lon":23.332,"lat":38.1272,"pop":69},{"id":10630419,"name":"Ágios Geórgios Methystís","alt":["Agios Georgios Methystis","Agios Georgios o Methystis","Άγιος Γεώργιος Μεθυστής","Άγιος Γεώργιος ο Μεθυστής"],"lon":25.04479,"lat":35.30329,"pop":117},{"id":10242973,"name":"Ágios Geórgios Mínas","alt":["Agios Georgios Minas","Άγιος Γεώργιος Μίνας"],"lon":22.40696,"lat":36.54524,"pop":4},{"id":445343,"name":"Ágios Geórgios Monolithíou","alt":["Agios Georgios","Agios Georgios Monolithiou","Άγιος Γεώργιος","Άγιος Γεώργιος Μονολιθίου"],"lon":21.02363,"lat":39.45866,"pop":122},{"id":9165886,"name":"Agios Geórgios Págon","alt":["Agios Georgios Pagoi","Agios Georgios Pagon","Άγιος Γεώργιος Πάγων"],"lon":19.68248,"lat":39.71617,"pop":68},{"id":9036795,"name":"Agios Geórgios Polydendríou","alt":["Agios Georgios Polydendriou","Άγιος Γεώργιος Πολυδενδρίου"],"lon":23.83926,"lat":38.23397,"pop":39},{"id":260650,"name":"Ágios Geórgios Promyríou","alt":["Agios Georgios Promyriou","Ayios Yeoryios","Ayios Yeoryios Promiriou","Katiyioryi","Katiyióryi","Áyios Yeóryios","Άγιος Γεώργιος Προμυρίου"],"lon":23.34281,"lat":39.17273,"pop":70},{"id":263668,"name":"Ágios Geórgios Skiniá","alt":["Agios Georgios Skinia","Ayios Yeoryios Skinia","Áyios Yeóryios Skiniá","Άγιος Γεώργιος Σκινιά"],"lon":25.7002,"lat":35.3257,"pop":12},{"id":263628,"name":"Ágios Geórgios Sklívanis","alt":["Agios Georgios","Agios Georgios Sklivanis","Ayios Yeoryios","Ágios Geórgios","Áyios Yeóryios","Άγιος Γεώργιος Σκλίβανης"],"lon":20.94742,"lat":39.42228,"pop":40},{"id":263609,"name":"Ágios Geórgios Sykoúsis","alt":["Aghios Georgios Sikousis","Agios Georgios Sykousis","Ayios Yeoryios Sikousis","Áyios Yeóryios Sikoúsis","Άγιος Γεώργιος Συκούσης"],"lon":26.05691,"lat":38.31885,"pop":579},{"id":9036681,"name":"Agios Geórgios Thorikoú","alt":["Agios Georgios Thorikou","Άγιος Γεώργιος Θορικού"],"lon":24.03924,"lat":37.745,"pop":141},{"id":9165902,"name":"Agios Geórgios Viroú","alt":["Agios Georgios Viros","Agios Georgios Virou","Άγιος Γεώργιος Βιρού"],"lon":19.87682,"lat":39.5899,"pop":89},{"id":10175081,"name":"Ágios Geórgios Vrosínas","alt":["Agios Georgios Vrosinas","Άγιος Γεώργιος Βροσίνας"],"lon":20.53329,"lat":39.65333,"pop":4},{"id":6692641,"name":"Agios Georgis","alt":["Aghios Georgios","Agios Georgios","Agios-Georgios","Агиос Георгиос","Агиос-Георгиос"],"lon":19.69969,"lat":39.72363,"pop":4958},{"id":9036753,"name":"Agios Gerásimos","alt":["Aghios Gerasimos","Agios Gerasimos","Ayios Gerasimos","Άγιος Γεράσιμος"],"lon":24.04654,"lat":37.69238,"pop":281},{"id":8740245,"name":"Ágios Gerásimos","alt":["Agios Gerasimos","Άγιος Γεράσιμος"],"lon":24.50799,"lat":36.73568,"pop":3},{"id":11079507,"name":"Ágios Gerásimos","alt":["Agios Gerasimos","Άγιος Γεράσιμος"],"lon":22.85887,"lat":37.93673,"pop":0},{"id":736578,"name":"Ágios Germanós","alt":["Agios Germanos","Ayios Yermanos","German","Gérman","Áyios Yermanós","Άγιος Γερμανός","Γέρμαν","Герман"],"lon":21.15855,"lat":40.83875,"pop":182},{"id":6692638,"name":"Agios Górdios","alt":["Aghios Gordios","Agios Gordios","Ai Gordis","Άγιος Γόρδιος","Άη Γόρδης"],"lon":19.85165,"lat":39.54678,"pop":54},{"id":263940,"name":"Ágios Ilías","alt":["Agios Ilias","Ayios Ilias","Áyios Ilías","Άγιος Ηλίας"],"lon":21.28707,"lat":38.48823,"pop":0},{"id":263941,"name":"Ágios Ilías","alt":["Agios Ilias","Ayios Ilias","Áyios Ilías","Άγιος Ηλίας"],"lon":21.45378,"lat":37.88489,"pop":0},{"id":263942,"name":"Ágios Ilías","alt":["Agios Ilias","Ayios Ilias","Áyios Ilías","Άγιος Ηλίας"],"lon":21.32953,"lat":37.7175,"pop":0},{"id":443600,"name":"Ágios Ilías","alt":["Agios Ilias","Άγιος Ηλίας"],"lon":26.73273,"lat":37.80521,"pop":33},{"id":736613,"name":"Ágios Ilías","alt":["Agios Ilias","Ailias","Ayios Ilias","Aïliás","Libeshevo","Libistovon","Libístovon","Limpisovo","Áyios Ilías","Άγιος Ηλίας","Λιμπίσοβο","Агиос Илиас","Либешево"],"lon":21.18821,"lat":40.36057,"pop":8},{"id":2463589,"name":"Ágios Ilías","alt":["Agios Ilias","Profitis Ilias","Profítis Ilías","Άγιος Ηλίας"],"lon":19.87427,"lat":39.79703,"pop":232},{"id":11887046,"name":"Ágios Ilías","alt":["Agios Ilias","Άγιος Ηλίας"],"lon":22.00908,"lat":38.21315,"pop":0},{"id":7287704,"name":"Agios Ioannis","alt":["Agios Ioannis Peristeron","Άγιος Ιωάννης Περιστερών"],"lon":19.92306,"lat":39.50841,"pop":0},{"id":7701518,"name":"Agios Ioannis","alt":["Άγιος Ιωάννης"],"lon":23.16407,"lat":39.41531,"pop":0},{"id":8349517,"name":"Agios Ioannis","alt":["Άγιος Ιωάννης"],"lon":25.07192,"lat":39.92185,"pop":0},{"id":12420899,"name":"Agios Ioannis","alt":["Άγιος Ιωάννης"],"lon":24.71222,"lat":37.9461,"pop":0},{"id":9035989,"name":"Agios Ioánnis","alt":["Agios Ioannis","Άγιος Ιωάννης"],"lon":23.73113,"lat":37.95682,"pop":0},{"id":9166432,"name":"Agios Ioánnis","alt":["Agios Ioannis","Άγιος Ιωάννης"],"lon":20.94552,"lat":37.72984,"pop":8},{"id":263897,"name":"Ágios Ioánnis","alt":["Agios Ioannis","Ayios Ioannis","Mikro Bisdhouni","Mikro Bisdouni","Mikron Bisdhounion","Mikró Bisdhoúni","Mikrón Bisdhoúnion","Áyios Ioánnis","Άγιος Ιωάννης","Μικρό Μπισδούνι"],"lon":20.81308,"lat":39.6965,"pop":821},{"id":263899,"name":"Ágios Ioánnis","alt":["Agios Ioannis","Ayios Ioannis","Áyios Ioánnis","Άγιος Ιωάννης"],"lon":21.55839,"lat":39.43619,"pop":143},