[{"id":4043807,"name":"Afami","alt":["Afame"],"lon":144.76285,"lat":13.4571,"pop":0},{"id":4043726,"name":"Agafo Gumas","lon":144.87881,"lat":13.58315,"pop":0},{"id":4043525,"name":"Agana Heights Village","alt":["Agana Heights","Hagatna Heights","Tutuhan"],"lon":144.74795,"lat":13.46559,"pop":3940},{"id":4043804,"name":"Agat Village","alt":["Hagat","Hågat"],"lon":144.66003,"lat":13.383,"pop":5656},{"id":7871075,"name":"Andersen AFB Andy South Housing","lon":144.8686,"lat":13.49881,"pop":0},{"id":7267913,"name":"Andersen AFB Housing Areas","alt":["Andersen Air Force Base CDP"],"lon":144.92231,"lat":13.55691,"pop":0},{"id":7874277,"name":"Apoigan","alt":["Apurguan"],"lon":144.77644,"lat":13.48817,"pop":0},{"id":4043829,"name":"Apra Heights - DoD Naval Housing","lon":144.68475,"lat":13.40306,"pop":0},{"id":7871069,"name":"Apusento Garden","lon":144.76964,"lat":13.44656,"pop":0},{"id":7870570,"name":"Asalonso","lon":144.7614,"lat":13.33438,"pop":0},{"id":7874393,"name":"Asan","lon":144.71581,"lat":13.47174,"pop":0},{"id":4043812,"name":"Asan-Maina Village","alt":["Assan"],"lon":144.71654,"lat":13.47215,"pop":2137},{"id":4043671,"name":"Aspengo","lon":144.79708,"lat":13.46236,"pop":0},{"id":4043665,"name":"Astumbo","lon":144.84341,"lat":13.55422,"pop":0},{"id":7871392,"name":"Astumbo Gardens","lon":144.84023,"lat":13.55117,"pop":0},{"id":7870567,"name":"Atao","lon":144.73303,"lat":13.25526,"pop":0},{"id":4043655,"name":"Barrigada Heights","lon":144.82508,"lat":13.48683,"pop":0},{"id":4043656,"name":"Barrigada Village","alt":["Barigada","Barigåda"],"lon":144.79901,"lat":13.46913,"pop":8875},{"id":4043651,"name":"Baza Gardens","lon":144.7519,"lat":13.37021,"pop":0},{"id":4043400,"name":"Belen","lon":144.74805,"lat":13.2823,"pop":0},{"id":4043879,"name":"Bile","lon":144.66471,"lat":13.27616,"pop":0},{"id":4043643,"name":"Biyae","lon":144.64806,"lat":13.35743,"pop":0},{"id":4043894,"name":"Camp Witek","lon":144.76208,"lat":13.38423,"pop":0},{"id":4043629,"name":"Canada","lon":144.78887,"lat":13.45988,"pop":0},{"id":4043913,"name":"Carlos Heights","lon":144.81301,"lat":13.51586,"pop":0},{"id":7871386,"name":"Central Dededo","lon":144.83966,"lat":13.51709,"pop":0},{"id":4043917,"name":"Cerain","lon":144.66361,"lat":13.39838,"pop":0},{"id":4043618,"name":"Chagamin Lago","lon":144.75377,"lat":13.27769,"pop":0},{"id":4043923,"name":"Chalan Mamajanao","lon":144.78738,"lat":13.49975,"pop":0},{"id":4043965,"name":"Chalan Pago","lon":144.77607,"lat":13.43857,"pop":0},{"id":4043615,"name":"Chalan Pago-Ordot Village","alt":["Chalan Pagu","Chalan Pagu-Otdot","Chalan Pågu-Otdot"],"lon":144.75902,"lat":13.44741,"pop":6822},{"id":4043909,"name":"Dededo Village","alt":["Dedidu"],"lon":144.8391,"lat":13.51777,"pop":44943},{"id":4038608,"name":"Destroyed Sumay Village WW2","alt":["Sumai","Sumay Villagers moved to new Santa Rita Village"],"lon":144.65306,"lat":13.43636,"pop":0},{"id":4038631,"name":"Fern Terrace","alt":["Taguag","Tatguat","Toguag"],"lon":144.85019,"lat":13.56991,"pop":0},{"id":7874010,"name":"Flag Circle - USN Top Brass Housing","lon":144.72327,"lat":13.46713,"pop":0},{"id":7874007,"name":"Fonte","lon":144.74211,"lat":13.46119,"pop":0},{"id":4043984,"name":"Gayinero","lon":144.90441,"lat":13.53036,"pop":0},{"id":7871401,"name":"Ghura","lon":144.86967,"lat":13.52748,"pop":0},{"id":4043547,"name":"Guam Government House","alt":["Designer Architect Richard Neutra"],"lon":144.74978,"lat":13.47191,"pop":0},{"id":4044012,"name":"Hagåtña","alt":["Agadna","Agana","Agana -1998","Agania","Aganija","Aganja","Agano","Agaña","Aguana","Akashi","Akashi - JP renamed WW2","Ankana","City of Ignacio de Agana","City of Saint Ignacio de Agana","Ciudad de San Ignacio de Agana","Hagadna","Hagatna","Haqatna","Jagatna","Khagatna","San Ignacio de Agana *","Ville d'Agana","Vjoska Agan'ja","a jia ni ya","akatna","ha katya","hagania","hagasnya","hagatna","hagatnya","haghatnya","hegatn'ya","Αγκάνα","Вёска Аганья","Хагатна","Хагатња","Հագատնա","هاغاتنيا","هاگاتنا","هاگاتنیا","हेगात्न्या","அகாத்ன","ฮากาตญา","ჰაგატნა","ハガニア","阿加尼亚","하갓냐"],"lon":144.74886,"lat":13.47567,"pop":1051},{"id":7874008,"name":"Hagåtña Village","alt":["Agana -1998","Akashi WW2"],"lon":144.75802,"lat":13.47279,"pop":1051},{"id":7873861,"name":"Harmon","lon":144.81098,"lat":13.50688,"pop":0},{"id":4043515,"name":"Harmon Garden","lon":144.8236,"lat":13.50878,"pop":0},{"id":7870569,"name":"Inara","lon":144.73148,"lat":13.27888,"pop":0},{"id":4043499,"name":"Inarajan Village","alt":["Inalahan","Inalajan","Inalåhan"],"lon":144.74845,"lat":13.27363,"pop":3052},{"id":7839322,"name":"Jati - Prehistoric and Spanish Settlement","alt":["Ati","Cetti Bay - US National Register of Historic Places"],"lon":144.65773,"lat":13.31588,"pop":0},{"id":4043476,"name":"Julog","lon":144.68865,"lat":13.25711,"pop":0},{"id":4038754,"name":"Kaiser","lon":144.84615,"lat":13.52593,"pop":0},{"id":7870495,"name":"Lada","lon":144.73934,"lat":13.26538,"pop":0},{"id":7871403,"name":"Las Palmas","lon":144.84276,"lat":13.50261,"pop":0},{"id":4044079,"name":"Latte Heights","lon":144.84169,"lat":13.49055,"pop":0},{"id":4043459,"name":"Latte Plantation","lon":144.85049,"lat":13.49501,"pop":0},{"id":4043455,"name":"Leyan","lon":144.8041,"lat":13.45554,"pop":0},{"id":7871397,"name":"Liguan Terrace","lon":144.82259,"lat":13.52103,"pop":0},{"id":4044077,"name":"Lingae","lon":144.68282,"lat":13.25557,"pop":0},{"id":4044087,"name":"Lockwood Terrace - DoD Naval Housing","alt":["Lockwood Terrace Housing Area"],"lon":144.65031,"lat":13.43272,"pop":0},{"id":7870689,"name":"Lower Talisay","lon":144.6917,"lat":13.39983,"pop":0},{"id":4043444,"name":"Lupog","lon":144.91413,"lat":13.54825,"pop":0},{"id":4043438,"name":"Machaute","lon":144.79047,"lat":13.46949,"pop":0},{"id":4044096,"name":"Macheche","lon":144.8351,"lat":13.50386,"pop":0},{"id":7871066,"name":"Maimai","lon":144.77787,"lat":13.44627,"pop":0},{"id":4044105,"name":"Maina","alt":["Ma`ina"],"lon":144.73702,"lat":13.46764,"pop":0},{"id":4043429,"name":"Maite","lon":144.76671,"lat":13.47798,"pop":0},{"id":4038791,"name":"Malojloj","lon":144.76105,"lat":13.3064,"pop":0},{"id":4043421,"name":"Manaca","lon":144.80285,"lat":13.45975,"pop":0},{"id":4043861,"name":"Manenggon","alt":["As-Misen","Manengon"],"lon":144.7535,"lat":13.39866,"pop":0},{"id":7268049,"name":"Mangilao Village","alt":["Manguilao","Manguuao"],"lon":144.80109,"lat":13.44761,"pop":15191},{"id":4044126,"name":"Marianas Terrace","lon":144.89905,"lat":13.5331,"pop":0},{"id":4043399,"name":"Merizo Village","alt":["Maleso","Malesso","Merico"],"lon":144.66908,"lat":13.26584,"pop":2152},{"id":7871404,"name":"Mogfog","lon":144.85139,"lat":13.50282,"pop":0},{"id":4043390,"name":"Mongmong","lon":144.76277,"lat":13.47429,"pop":0},{"id":7873866,"name":"Mongmong-Toto-Maite Village","lon":144.78214,"lat":13.46857,"pop":6825},{"id":7871400,"name":"NCS Machanao","lon":144.8583,"lat":13.58038,"pop":0},{"id":4038681,"name":"Nimitz Hill","lon":144.70518,"lat":13.46346,"pop":0},{"id":7267944,"name":"Nimitz Hill Navy Housing","alt":["Nimitz Hill Annex CDP"],"lon":144.71749,"lat":13.4572,"pop":0},{"id":4045163,"name":"North Tipalao - DoD Naval Housing","alt":["North Tipalao Housing Area"],"lon":144.64422,"lat":13.42074,"pop":0},{"id":4044419,"name":"Oka","alt":["Jonestown","Oca"],"lon":144.77252,"lat":13.50086,"pop":0},{"id":4042606,"name":"Ordot","alt":["Otdot"],"lon":144.7612,"lat":13.44786,"pop":0},{"id":4044406,"name":"Pado","lon":144.77528,"lat":13.46784,"pop":0},{"id":4045182,"name":"Pagachao","lon":144.65569,"lat":13.36478,"pop":0},{"id":7871070,"name":"Pago Bay","lon":144.78929,"lat":13.42673,"pop":0},{"id":4045154,"name":"Peca","alt":["Y-Peca"],"lon":144.75321,"lat":13.28143,"pop":0},{"id":4038444,"name":"Perez Acres","lon":144.8869,"lat":13.52431,"pop":0},{"id":4041694,"name":"Perezville","lon":144.77878,"lat":13.50403,"pop":0},{"id":4038460,"name":"Piga","lon":144.67421,"lat":13.26409,"pop":0},{"id":4043644,"name":"Pigua","lon":144.672,"lat":13.27054,"pop":0},{"id":4038473,"name":"Piti Village","alt":["Petey","Piti Vilage"],"lon":144.69331,"lat":13.46256,"pop":1666},{"id":4038711,"name":"Pulantat","alt":["Tres-Reyes"],"lon":144.75526,"lat":13.41283,"pop":0},{"id":4038530,"name":"Salinas","lon":144.66278,"lat":13.39144,"pop":0},{"id":7871329,"name":"Salisbury","lon":144.90136,"lat":13.55941,"pop":0},{"id":4038537,"name":"San Antonio","lon":144.80286,"lat":13.46633,"pop":0},{"id":4038549,"name":"San Vicente","lon":144.66903,"lat":13.39273,"pop":0},{"id":7871390,"name":"Santa Ana","lon":144.8657,"lat":13.58666,"pop":0},{"id":4038554,"name":"Santa Rita Village","alt":["Santa Rita"],"lon":144.67226,"lat":13.38608,"pop":7500},{"id":4038557,"name":"Santa Rosa","alt":["Hyundai"],"lon":144.67311,"lat":13.39797,"pop":0},{"id":4038573,"name":"Sella","lon":144.73402,"lat":13.47156,"pop":0},{"id":4043695,"name":"Sese","alt":["As-Agas"],"lon":144.74509,"lat":13.28731,"pop":0},{"id":4038588,"name":"Sinajana Village","alt":["Sinahanna","Sinajana"],"lon":144.75406,"lat":13.46334,"pop":2853},{"id":4038597,"name":"Socio","alt":["Saucio"],"lon":144.78989,"lat":13.48946,"pop":0},{"id":4038603,"name":"South Tipalao - DoD Naval Housing","alt":["South Tipalao Housing Area"],"lon":144.65134,"lat":13.41734,"pop":0},{"id":4038607,"name":"Spring Hill","lon":144.88674,"lat":13.54185,"pop":0},{"id":4038626,"name":"Tagachang","lon":144.78096,"lat":13.40828,"pop":0},{"id":7871084,"name":"Tai","lon":144.79124,"lat":13.4417,"pop":0},{"id":4038726,"name":"Taigigao","lon":144.7467,"lat":13.45902,"pop":0},{"id":4038644,"name":"Talisay","lon":144.71335,"lat":13.39098,"pop":0},{"id":4038647,"name":"Talofofo Village","alt":["Pre-WW2 Part of Inarajan","Talo'fo'fo","Talo`fo`fo"],"lon":144.75835,"lat":13.35513,"pop":3215},{"id":7874631,"name":"Tamuning","alt":["Tamuneng","ta mu ning","tamunin","tamuning","tamwnyng","tamwnyng  gwam","Тамунинг","تامونینگ","تامونینگ، گوام","タムニン","塔穆宁","타무닝"],"lon":144.78143,"lat":13.48754,"pop":19685},{"id":4038659,"name":"Tamuning-Tumon-Harmon Village","alt":["Maria Christina","Timoneng"],"lon":144.78138,"lat":13.48773,"pop":19685},{"id":4038720,"name":"Tinaga","lon":144.75363,"lat":13.28637,"pop":0},{"id":7267960,"name":"Tiyan","alt":["Tillan","Tiyan CDP","Tiyen"],"lon":144.78719,"lat":13.48466,"pop":0},{"id":4038710,"name":"Toto","alt":["To`to"],"lon":144.78257,"lat":13.46609,"pop":0},{"id":4038718,"name":"Tumon","alt":["Tomhom"],"lon":144.80139,"lat":13.50694,"pop":0},{"id":4038722,"name":"Tumon Heights","lon":144.7874,"lat":13.49768,"pop":0},{"id":7871398,"name":"Ukudo","lon":144.84349,"lat":13.54091,"pop":0},{"id":4038733,"name":"Umatac Village","alt":["Humatak","Humåtak","San Antonio de Umatag","Umatag","Ville D'Umata"],"lon":144.66314,"lat":13.29843,"pop":903},{"id":4038741,"name":"Ungaguan","lon":144.80542,"lat":13.471,"pop":0},{"id":7874276,"name":"Upper Tumon","lon":144.81367,"lat":13.512,"pop":0},{"id":7839942,"name":"USN Royal Palms Housing","alt":["USN South Finegayan Housing"],"lon":144.83201,"lat":13.55168,"pop":0},{"id":4038757,"name":"Utan","lon":144.76531,"lat":13.46841,"pop":0},{"id":7873870,"name":"West Airport Terrace","lon":144.77383,"lat":13.47984,"pop":0},{"id":4038789,"name":"Windward Hills","lon":144.75085,"lat":13.37812,"pop":0},{"id":4038794,"name":"Yigo Village","alt":["Yigu"],"lon":144.88855,"lat":13.53605,"pop":20539},{"id":7870623,"name":"Ylig","lon":144.77139,"lat":13.39014,"pop":0},{"id":4038809,"name":"Yona Village","alt":["Yo' na","Yo`na","Yo’ ña"],"lon":144.77697,"lat":13.40974,"pop":6484},{"id":4038813,"name":"Ypan","lon":144.76873,"lat":13.35363,"pop":0},{"id":4038818,"name":"Ypaopao Estates","lon":144.86207,"lat":13.52501,"pop":0}]