[{"id":6904652,"name":"Carcasse","lon":72.48132,"lat":-7.37449,"pop":0},{"id":7503195,"name":"Downtown","lon":72.37676,"lat":-7.26229,"pop":0},{"id":6904653,"name":"East Point Settlement","lon":72.46777,"lat":-7.3529,"pop":0},{"id":11668506,"name":"ÃŽle Lubine","lon":71.33406,"lat":-6.66887,"pop":15},{"id":1282544,"name":"Minni Minni","lon":72.48292,"lat":-7.31693,"pop":0}]