[{"id":3491625,"name":"Aberdeen","alt":["Aberdean"],"lon":-77.36667,"lat":18.38333,"pop":0},{"id":3491626,"name":"Aberdeen","lon":-77.7018,"lat":18.19851,"pop":0},{"id":3491624,"name":"Aberly","lon":-77.36667,"lat":18.26667,"pop":0},{"id":3491623,"name":"Abingdon","lon":-78.3,"lat":18.38333,"pop":0},{"id":3491622,"name":"Aboukir","alt":["Abourkir"],"lon":-77.35917,"lat":18.25378,"pop":0},{"id":6690257,"name":"Above Rocks","lon":-76.87608,"lat":18.10678,"pop":0},{"id":3491620,"name":"Accompong","alt":["Accompong Maroon Lands","Accompong Maroon Village","Accompong Town"],"lon":-77.7536,"lat":18.22627,"pop":0},{"id":3491618,"name":"Acton","lon":-77.65,"lat":18.43333,"pop":0},{"id":3491619,"name":"Acton","alt":["Acton House"],"lon":-78.13333,"lat":18.26667,"pop":0},{"id":3491617,"name":"Adams Valley","lon":-77.6,"lat":18.11667,"pop":0},{"id":3491616,"name":"Adelphi","lon":-77.79318,"lat":18.44675,"pop":0},{"id":12541643,"name":"Adelphi Mount","alt":["Adelphi Mountain"],"lon":-77.8093,"lat":18.3816,"pop":0},{"id":3491615,"name":"Admiral Town","alt":["Admiral's Town","Admiral’s Town"],"lon":-76.8,"lat":17.98333,"pop":0},{"id":3491613,"name":"Aenon Town","lon":-77.39892,"lat":18.21041,"pop":0},{"id":3491612,"name":"Aeolus Valley","lon":-76.53229,"lat":17.90434,"pop":0},{"id":3491611,"name":"Agualta Vale","alt":["Agua Alta Vale","Aqua Alta Vale"],"lon":-76.7866,"lat":18.26203,"pop":0},{"id":3491609,"name":"Airy Castle","lon":-76.34572,"lat":17.92058,"pop":0},{"id":3491608,"name":"Airy Hill","lon":-76.93638,"lat":18.39818,"pop":0},{"id":3491606,"name":"Albany","lon":-76.85663,"lat":18.29183,"pop":0},{"id":3491607,"name":"Albany","lon":-76.61667,"lat":18.13333,"pop":0},{"id":3491603,"name":"Albert Arms","lon":-77.7,"lat":18.05,"pop":0},{"id":3491602,"name":"Albert Town","lon":-77.54239,"lat":18.29434,"pop":3449},{"id":3491599,"name":"Albion","lon":-77.91916,"lat":18.48242,"pop":0},{"id":3491600,"name":"Albion","lon":-76.60367,"lat":17.88559,"pop":0},{"id":3491596,"name":"Alderton","lon":-77.2034,"lat":18.29777,"pop":0},{"id":3491595,"name":"Aleppo","lon":-76.86301,"lat":18.23879,"pop":0},{"id":3491592,"name":"Alexandria","lon":-78.01469,"lat":18.33557,"pop":0},{"id":3491593,"name":"Alexandria","lon":-77.35335,"lat":18.30768,"pop":1927},{"id":3491594,"name":"Alexandria","lon":-77.29847,"lat":18.07433,"pop":0},{"id":3491590,"name":"Allen Hall","lon":-77.43333,"lat":18.45,"pop":0},{"id":3491589,"name":"Allenton","lon":-77.05,"lat":18.15,"pop":0},{"id":3491586,"name":"Alligator Pond","alt":["Alligator Pond Bay","Alligator Pond Village"],"lon":-77.56769,"lat":17.86932,"pop":1793},{"id":12547055,"name":"Allison","lon":-77.46101,"lat":18.14024,"pop":0},{"id":3491583,"name":"Alma","lon":-78.20841,"lat":18.2925,"pop":0},{"id":3491582,"name":"Almondsbury","lon":-77.65,"lat":18.15,"pop":0},{"id":3491581,"name":"Alscot","lon":-77.76667,"lat":17.96667,"pop":0},{"id":3491580,"name":"Alston","lon":-77.43623,"lat":18.17959,"pop":0},{"id":3491579,"name":"Altamont","lon":-76.4,"lat":18.03333,"pop":0},{"id":3491578,"name":"Althorp","alt":["Arthorp"],"lon":-77.9,"lat":18.03333,"pop":0},{"id":3491577,"name":"Alva","lon":-77.32884,"lat":18.29866,"pop":0},{"id":3491576,"name":"Amity Cross","alt":["Amity","Amity House"],"lon":-78.10111,"lat":18.25404,"pop":0},{"id":3491572,"name":"Amity Hall","lon":-77.81203,"lat":18.40084,"pop":0},{"id":3491573,"name":"Amity Hall","lon":-76.25057,"lat":17.9556,"pop":0},{"id":3491574,"name":"Amity Hall","lon":-77.04793,"lat":17.93222,"pop":0},{"id":3491575,"name":"Amity Hall","alt":["Amity"],"lon":-77.26074,"lat":17.80626,"pop":0},{"id":3491570,"name":"Anchovy","alt":["Anchovy Station"],"lon":-77.93166,"lat":18.4103,"pop":4161},{"id":3491569,"name":"Anchovy Bottom","lon":-77.93445,"lat":18.41384,"pop":0},{"id":3491563,"name":"Andersons Town","alt":["Anderson Town"],"lon":-77.36753,"lat":18.22275,"pop":0},{"id":3491562,"name":"Angels","alt":["The Angel"],"lon":-76.97119,"lat":18.02032,"pop":0},{"id":3491561,"name":"Anglesea","lon":-78.06667,"lat":18.23333,"pop":0},{"id":12535055,"name":"Ann's Delight","lon":-76.6603,"lat":18.1712,"pop":0},{"id":3491559,"name":"Annandale","alt":["Annadale"],"lon":-77.15,"lat":18.36667,"pop":0},{"id":3491556,"name":"Annotto Bay","alt":["Annatto Bay","Annotta Bay"],"lon":-76.76523,"lat":18.2717,"pop":5504},{"id":12541916,"name":"Annotto River","lon":-76.7662,"lat":18.2068,"pop":0},{"id":3491554,"name":"Anns Castle","lon":-77.11667,"lat":17.91667,"pop":0},{"id":3491550,"name":"Antrim","lon":-77.3,"lat":18.43333,"pop":0},{"id":3491547,"name":"Appleton","lon":-77.72592,"lat":18.16624,"pop":0},{"id":3491543,"name":"Arcadia","lon":-77.50719,"lat":18.45091,"pop":0},{"id":3491544,"name":"Arcadia","lon":-76.98333,"lat":18.25,"pop":0},{"id":3491545,"name":"Arcadia","lon":-77.43333,"lat":18.05,"pop":0},{"id":3491546,"name":"Arcadia","lon":-76.30349,"lat":17.91875,"pop":0},{"id":3491542,"name":"Arcadia Club","lon":-76.78333,"lat":18.03333,"pop":0},{"id":3491541,"name":"Ardoch","lon":-77.1,"lat":18.25,"pop":0},{"id":3491540,"name":"Argyle","alt":["Argyle Pen"],"lon":-77.99167,"lat":18.32643,"pop":0},{"id":12547267,"name":"Argyle Mountain","lon":-77.9656,"lat":18.3105,"pop":0},{"id":3491539,"name":"Armadale","lon":-77.36667,"lat":18.3,"pop":0},{"id":3491538,"name":"Armstrong","alt":["Armstrongs"],"lon":-77.63333,"lat":18.18333,"pop":0},{"id":3491537,"name":"Arntally","alt":["Arntully"],"lon":-76.6,"lat":18.01667,"pop":0},{"id":3491536,"name":"Arthurs Mount","alt":["Arthurs Mountain"],"lon":-77.23333,"lat":18.4,"pop":0},{"id":3491534,"name":"Arthurs Seat","lon":-77.13333,"lat":18.38333,"pop":0},{"id":3491535,"name":"Arthurs Seat","lon":-77.2277,"lat":18.13709,"pop":0},{"id":3491533,"name":"Ashcott","lon":-76.6,"lat":18.11667,"pop":0},{"id":3491532,"name":"Ashley Hall","lon":-77.27028,"lat":17.84458,"pop":0},{"id":12546953,"name":"Ashley Kraal","alt":["Ashley Crawle"],"lon":-77.26348,"lat":18.12048,"pop":0},{"id":3491531,"name":"Ashleys","alt":["Ashley"],"lon":-77.26484,"lat":18.07566,"pop":0},{"id":3491528,"name":"Ashton","lon":-77.93465,"lat":18.23239,"pop":0},{"id":3491529,"name":"Ashton","lon":-77.86667,"lat":18.05,"pop":0},{"id":3491527,"name":"Asia","lon":-77.43166,"lat":17.91788,"pop":0},{"id":3491526,"name":"Askenish","alt":["Askinish"],"lon":-78.15,"lat":18.3846,"pop":0},{"id":3491522,"name":"Auchindown","alt":["Achendown","Ackendown"],"lon":-77.98333,"lat":18.11667,"pop":0},{"id":3491521,"name":"Auchtembeddie","alt":["Auchinbeddie"],"lon":-77.62395,"lat":18.21325,"pop":0},{"id":3491519,"name":"August Town","lon":-76.74156,"lat":17.99353,"pop":0},{"id":3491516,"name":"Bachams Cottage","alt":["Beacham Cottage","Beachams"],"lon":-77.31667,"lat":17.81667,"pop":0},{"id":3491513,"name":"Bachelors Hall","lon":-78.17655,"lat":18.4371,"pop":0},{"id":3491514,"name":"Bachelors Hall","lon":-77.08333,"lat":18.31667,"pop":0},{"id":3491515,"name":"Bachelors Hall","lon":-76.31675,"lat":17.95311,"pop":0},{"id":3491505,"name":"Bad Times","lon":-77.11667,"lat":18.38333,"pop":0},{"id":3491504,"name":"Bagatelle","lon":-76.6,"lat":18.15,"pop":0},{"id":12546981,"name":"Bagatelle","lon":-77.34175,"lat":18.00611,"pop":0},{"id":12541893,"name":"Bailey's Pen","alt":["Bailey Pen","Bayley Pen","Bayley's Pen"],"lon":-77.3681,"lat":17.9743,"pop":0},{"id":3491502,"name":"Baillieston","alt":["Bailleston"],"lon":-77.43503,"lat":18.17437,"pop":0},{"id":3491501,"name":"Balaclava","lon":-77.64375,"lat":18.17228,"pop":2862},{"id":3491499,"name":"Balcarres","alt":["Batcarres","Belcarres"],"lon":-76.69982,"lat":18.16494,"pop":0},{"id":3491500,"name":"Balcarres","alt":["Balcarris"],"lon":-77.43134,"lat":18.12661,"pop":0},{"id":3491497,"name":"Baldwins Cottage","lon":-77.23333,"lat":17.76667,"pop":0},{"id":12546945,"name":"Ballards River","lon":-77.31289,"lat":18.12226,"pop":0},{"id":3491494,"name":"Ballards Valley","lon":-76.8879,"lat":18.32189,"pop":0},{"id":3491490,"name":"Ballintoy","lon":-77.3,"lat":18.3,"pop":0},{"id":3491489,"name":"Bally Mony","lon":-77.18444,"lat":18.24339,"pop":0},{"id":3491488,"name":"Ballynure","lon":-77.56667,"lat":18.16667,"pop":0},{"id":3491486,"name":"Bamboo","lon":-78.01327,"lat":18.44649,"pop":0},{"id":3491487,"name":"Bamboo","alt":["Excellent Town","Little Kent"],"lon":-77.26429,"lat":18.39216,"pop":4264},{"id":3491483,"name":"Bamboo Market","alt":["Bamboo"],"lon":-77.05818,"lat":18.0312,"pop":0},{"id":3491482,"name":"Banana Ground","lon":-77.43611,"lat":18.08039,"pop":0},{"id":3491477,"name":"Banbury","alt":["Banbury Village"],"lon":-78.11454,"lat":18.26839,"pop":0},{"id":3491478,"name":"Banbury","lon":-77.03882,"lat":18.13628,"pop":0},{"id":3491476,"name":"Bandon","lon":-77.8602,"lat":18.36359,"pop":0},{"id":3491474,"name":"Bangor Ridge","lon":-76.68463,"lat":18.16609,"pop":0},{"id":3491471,"name":"Banks","lon":-77.23333,"lat":18.45,"pop":0},{"id":3491472,"name":"Banks","lon":-77.30607,"lat":17.84067,"pop":0},{"id":3491468,"name":"Barbary Hall","lon":-77.76902,"lat":17.96184,"pop":0},{"id":3491464,"name":"Barbican","lon":-76.7728,"lat":18.02477,"pop":0},{"id":3491465,"name":"Barbican","alt":["Barbicon"],"lon":-78.10142,"lat":18.45038,"pop":0},{"id":3491462,"name":"Bariff Castle","lon":-76.45,"lat":17.95,"pop":0},{"id":3491460,"name":"Barking Lodge","lon":-76.27797,"lat":17.89775,"pop":0},{"id":3491459,"name":"Barnes Green","lon":-77.86667,"lat":18.05,"pop":0},{"id":12541801,"name":"Barnett Bush","lon":-77.8632,"lat":18.3647,"pop":0},{"id":3491458,"name":"Barneyside","alt":["Barreyside"],"lon":-77.96656,"lat":18.2721,"pop":0},{"id":3491457,"name":"Barnstaple","lon":-77.46667,"lat":18.4,"pop":0},{"id":3491454,"name":"Barossa","lon":-77.46667,"lat":18.03333,"pop":0},{"id":3491452,"name":"Barrett Hall Village","alt":["Barrett Hall"],"lon":-77.16667,"lat":18.3,"pop":0},{"id":10400280,"name":"Barrett Town","lon":-77.80178,"lat":18.51491,"pop":0},{"id":3491450,"name":"Bartons","alt":["Barton"],"lon":-77.73136,"lat":18.13565,"pop":0},{"id":3491451,"name":"Bartons","alt":["Barton"],"lon":-77.13984,"lat":18.03198,"pop":0},{"id":3491449,"name":"Batersea","lon":-77.48333,"lat":18.21667,"pop":0},{"id":3491448,"name":"Bath","alt":["The Bath"],"lon":-76.34916,"lat":17.9482,"pop":2382},{"id":9295771,"name":"Beacon","lon":-77.75454,"lat":17.90492,"pop":0},{"id":3491443,"name":"Beacon Hill","lon":-76.95,"lat":17.98333,"pop":0},{"id":3491444,"name":"Beacon Hill","lon":-76.35538,"lat":17.96187,"pop":0},{"id":3491442,"name":"Beckford Kraal","lon":-77.31302,"lat":18.08326,"pop":0},{"id":3491440,"name":"Beckford Town","lon":-76.36667,"lat":17.88333,"pop":0},{"id":3491441,"name":"Beckfords","lon":-77.28333,"lat":17.9,"pop":0},{"id":3491439,"name":"Beecher Town","alt":["The Village"],"lon":-77.11148,"lat":18.36521,"pop":0},{"id":3491438,"name":"Beeston Spring","alt":["Beaston Spring","Beaston Springs"],"lon":-77.96407,"lat":18.14533,"pop":0},{"id":3491411,"name":"Bel Retiro","alt":["Bel Renro"],"lon":-76.9,"lat":18.4,"pop":0},{"id":3491437,"name":"Belfast","lon":-76.39877,"lat":17.88241,"pop":0},{"id":3491436,"name":"Belfield","alt":["Bellfield"],"lon":-76.84666,"lat":18.26088,"pop":0},{"id":3491434,"name":"Belfield Works","lon":-76.82894,"lat":18.2618,"pop":0},{"id":3491433,"name":"Belford","lon":-76.26667,"lat":17.88333,"pop":0},{"id":3491432,"name":"Bellas Gate","lon":-77.16051,"lat":18.04587,"pop":0},{"id":3491430,"name":"Belle Air Summit","alt":["Belleair"],"lon":-77.34351,"lat":18.44788,"pop":0},{"id":3491429,"name":"Belle Castle","alt":["Belcastle","Belecastle"],"lon":-76.26831,"lat":17.99951,"pop":0},{"id":3491427,"name":"Belle Plain","lon":-77.31537,"lat":17.96888,"pop":0},{"id":3491426,"name":"Belle Retiro","lon":-77.46667,"lat":18.01667,"pop":0},{"id":3491431,"name":"Belleair","lon":-77.45,"lat":18.1,"pop":0},{"id":3491428,"name":"Bellefield","lon":-77.45155,"lat":18.08118,"pop":0},{"id":3491423,"name":"Bellevue","lon":-77.06667,"lat":18.35,"pop":0},{"id":9294235,"name":"Bellevue","lon":-76.66667,"lat":18.08014,"pop":0},{"id":3491422,"name":"Bellevue Heights","lon":-77.02013,"lat":17.9976,"pop":0},{"id":3491420,"name":"Bellfield","alt":["Belfield"],"lon":-77.15516,"lat":18.06171,"pop":0},{"id":3491419,"name":"Belmare","lon":-76.45,"lat":17.95,"pop":0},{"id":3491414,"name":"Belmont","lon":-77.9,"lat":18.45,"pop":0},{"id":3491415,"name":"Belmont","lon":-77.45,"lat":18.36667,"pop":0},{"id":3491416,"name":"Belmont","lon":-77.13333,"lat":18.31667,"pop":0},{"id":3491417,"name":"Belmont","lon":-77.07025,"lat":18.03461,"pop":0},{"id":3491418,"name":"Belmont","lon":-77.34861,"lat":18.03769,"pop":0},{"id":12546983,"name":"Belmont Cottage","lon":-77.35112,"lat":18.04734,"pop":0},{"id":3491412,"name":"Belmore Castle","alt":["Belmont Castle"],"lon":-77.71667,"lat":18.26667,"pop":0},{"id":3491406,"name":"Belvedere","alt":["Belvidere House"],"lon":-77.95027,"lat":18.33691,"pop":0},{"id":3491407,"name":"Belvedere","alt":["Belvidere"],"lon":-76.70737,"lat":18.21384,"pop":0},{"id":3491408,"name":"Belvedere","alt":["Belvidere"],"lon":-76.85784,"lat":18.05575,"pop":0},{"id":3491409,"name":"Belvedere","alt":["Belvedere House"],"lon":-76.43217,"lat":17.87609,"pop":0},{"id":3491404,"name":"Ben Bow","lon":-77.01667,"lat":18.23333,"pop":0},{"id":3491401,"name":"Ben Lomond","lon":-77.68333,"lat":18.2,"pop":0},{"id":3491403,"name":"Bendish Rock","lon":-76.80425,"lat":18.26405,"pop":0},{"id":3491402,"name":"Bengal","alt":["Bengal Bridge"],"lon":-77.45,"lat":18.45,"pop":0},{"id":3491400,"name":"Bennetsfield","alt":["Bennettsfield"],"lon":-77.33333,"lat":18.3,"pop":0},{"id":3491398,"name":"Bensonton","lon":-77.2137,"lat":18.23961,"pop":0},{"id":3491397,"name":"Beredoes","alt":["Berdoes"],"lon":-76.86667,"lat":18.06667,"pop":0},{"id":3491396,"name":"Berkshire Hall","lon":-77.00331,"lat":18.20886,"pop":0},{"id":3491395,"name":"Berlin","lon":-77.66029,"lat":17.91321,"pop":0},{"id":3491393,"name":"Bernard Lodge","lon":-76.93452,"lat":17.96945,"pop":0},{"id":3491392,"name":"Berridale","lon":-76.47808,"lat":18.14814,"pop":0},{"id":3491389,"name":"Berry Hill","lon":-76.93333,"lat":18.28333,"pop":0},{"id":3491391,"name":"Berrydale","alt":["Berridale"],"lon":-77.38553,"lat":18.01683,"pop":0},{"id":3491387,"name":"Berwick","lon":-76.98993,"lat":18.1401,"pop":0},{"id":3491388,"name":"Berwick","lon":-77.48333,"lat":18.01667,"pop":0},{"id":3491384,"name":"Bethany","alt":["Belhany"],"lon":-77.36461,"lat":18.31298,"pop":0},{"id":3491385,"name":"Bethany","lon":-77.53614,"lat":18.15096,"pop":0},{"id":3491382,"name":"Bethel Gap","lon":-76.58599,"lat":17.9891,"pop":0},{"id":3491381,"name":"Bethel Town","lon":-77.95112,"lat":18.29503,"pop":3053},{"id":3491380,"name":"Bethezra","alt":["Bethezrd","Village"],"lon":-76.61667,"lat":17.95,"pop":0},{"id":3491379,"name":"Bethlehem","lon":-77.7,"lat":17.96667,"pop":0},{"id":3491377,"name":"Bettys Hope","lon":-76.3,"lat":18.05,"pop":0},{"id":3491375,"name":"Beverly","lon":-77.29275,"lat":18.45661,"pop":0},{"id":3491376,"name":"Beverly","lon":-77.61667,"lat":18.15,"pop":0},{"id":3491374,"name":"Beverly Hills","lon":-76.76643,"lat":18.00771,"pop":0},{"id":3491373,"name":"Bickersteth","alt":["Bickerstaff"],"lon":-77.91555,"lat":18.35922,"pop":0},{"id":3491372,"name":"Biddiford","alt":["Biddeford"],"lon":-77.46966,"lat":18.4053,"pop":0},{"id":3491371,"name":"Bideford","lon":-77.70178,"lat":17.95554,"pop":0},{"id":3491370,"name":"Big Bridge","lon":-78.15743,"lat":18.2254,"pop":0},{"id":3491365,"name":"Billy Dun","alt":["Billy Dunn"],"lon":-76.76667,"lat":18.031,"pop":0},{"id":12546944,"name":"Bird's Hill","lon":-77.1882,"lat":18.00455,"pop":0},{"id":3491362,"name":"Biscany","lon":-76.6,"lat":18.18333,"pop":0},{"id":3491361,"name":"Bishop Mount","lon":-76.95,"lat":18.31667,"pop":0},{"id":3491359,"name":"Black Heath","lon":-78.13333,"lat":18.28333,"pop":0},{"id":9241038,"name":"Black Hill","lon":-76.58578,"lat":18.2062,"pop":0},{"id":3491355,"name":"Black River","lon":-77.84873,"lat":18.02636,"pop":4229},{"id":3491358,"name":"Blackheath","lon":-77.13333,"lat":18.31667,"pop":0},{"id":3491344,"name":"Blackstone Edge","lon":-77.02148,"lat":18.25974,"pop":0},{"id":12547037,"name":"Blackwoods","lon":-77.33396,"lat":18.09129,"pop":0},{"id":3491342,"name":"Blair Pen","lon":-76.95,"lat":17.96667,"pop":0},{"id":12541817,"name":"Blairs Hill","lon":-78.23607,"lat":18.37036,"pop":0},{"id":3491341,"name":"Blakes Pen","lon":-77.56667,"lat":17.91667,"pop":0},{"id":12541808,"name":"Blenheim","lon":-78.20854,"lat":18.41533,"pop":0},{"id":3491336,"name":"Bloomfield","lon":-76.58793,"lat":18.15729,"pop":0},{"id":3491337,"name":"Bloomfield","lon":-77.53333,"lat":18.03333,"pop":0},{"id":3491330,"name":"Bloxburgh","lon":-76.66278,"lat":17.98562,"pop":0},{"id":3491329,"name":"Blue Castle","alt":["Blue Castle Farm"],"lon":-78.11884,"lat":18.27654,"pop":0},{"id":3491319,"name":"Blue Hole","lon":-77.83333,"lat":18.48333,"pop":0},{"id":3491320,"name":"Blue Hole","lon":-78.08791,"lat":18.44886,"pop":0},{"id":3491321,"name":"Blue Hole","lon":-77.28333,"lat":18.41667,"pop":0},{"id":3491322,"name":"Blue Hole","alt":["Belmont"],"lon":-78.02596,"lat":18.15052,"pop":0},{"id":3491323,"name":"Blue Hole","lon":-76.9,"lat":18.03333,"pop":0},{"id":12540891,"name":"Blue Hole","lon":-77.9255,"lat":18.37407,"pop":0},{"id":3491316,"name":"Blue Mountain","lon":-77.13333,"lat":18.18333,"pop":0},{"id":3491317,"name":"Blue Mountain","lon":-77.43639,"lat":18.06481,"pop":0},{"id":3491326,"name":"Bluefields","lon":-77.3416,"lat":18.37171,"pop":0},{"id":3491327,"name":"Bluefields","lon":-78.02702,"lat":18.16602,"pop":2828},{"id":3491305,"name":"Boca Pen","alt":["Bocca Pen"],"lon":-76.88333,"lat":18.01667,"pop":0},{"id":3491302,"name":"Bodles Pen","alt":["Bodles"],"lon":-77.13333,"lat":17.93333,"pop":0},{"id":3491299,"name":"Bog","alt":["Bogg"],"lon":-77.13333,"lat":18.4,"pop":0},{"id":3491300,"name":"Bog","alt":["Bog Land"],"lon":-77.94847,"lat":18.15067,"pop":0},{"id":3491301,"name":"Bog","lon":-77.23841,"lat":17.82674,"pop":0},{"id":3491297,"name":"Bog Plain","lon":-77.23333,"lat":17.88333,"pop":0},{"id":3491293,"name":"Bog Walk","lon":-77.00541,"lat":18.10205,"pop":12873},{"id":3491291,"name":"Bohemia","lon":-77.48333,"lat":18.21667,"pop":0},{"id":3490877,"name":"Bois Content","alt":["Boyce"],"lon":-77.16355,"lat":18.01972,"pop":0},{"id":3491290,"name":"Boldness","lon":-77.35,"lat":18.06667,"pop":0},{"id":3491289,"name":"Bolton Park","alt":["Bolton"],"lon":-77.13333,"lat":18.31667,"pop":0},{"id":3491288,"name":"Bonavista","lon":-77.91835,"lat":18.40531,"pop":0},{"id":3491469,"name":"Bonham Spring","alt":["Bantam Spring"],"lon":-77.05884,"lat":18.39588,"pop":0},{"id":3491287,"name":"Bonnett","alt":["Bennett"],"lon":-77.02713,"lat":18.22207,"pop":0},{"id":3491286,"name":"Bonny Gate","alt":["Bonny Pen"],"lon":-76.95075,"lat":18.32664,"pop":0},{"id":3491282,"name":"Booth","lon":-77.64289,"lat":18.26165,"pop":0},{"id":3491281,"name":"Border","lon":-76.86442,"lat":18.15975,"pop":0},{"id":3491279,"name":"Borobridge","alt":["Brobridge"],"lon":-77.42648,"lat":18.19974,"pop":0},{"id":3491277,"name":"Boscobel","alt":["Boscabel","OCJ"],"lon":-76.97989,"lat":18.40465,"pop":0},{"id":3491276,"name":"Bossue","lon":-77.43333,"lat":17.88333,"pop":0},{"id":3491273,"name":"Boston","lon":-76.35645,"lat":18.15826,"pop":0},{"id":9733287,"name":"Boston Bay","lon":-76.34515,"lat":18.12913,"pop":0},{"id":3491269,"name":"Bounty Hall","lon":-77.71284,"lat":18.44967,"pop":0},{"id":3491268,"name":"Bournemouth Gardens","lon":-76.76199,"lat":17.97065,"pop":0},{"id":3491267,"name":"Bowden","alt":["Bowden House"],"lon":-76.3135,"lat":17.8874,"pop":0},{"id":3491265,"name":"Bowen Crawle","alt":["Lawrence Eden"],"lon":-77.35,"lat":18.0505,"pop":0},{"id":3491264,"name":"Bowens Hall","alt":["Bowens"],"lon":-77.25415,"lat":17.89936,"pop":0},{"id":3491262,"name":"Bowers Hall","alt":["Bower Hall","Bower Hill"],"lon":-78.18637,"lat":18.4043,"pop":0},{"id":3491259,"name":"Box","lon":-77.9301,"lat":18.4826,"pop":0},{"id":3491258,"name":"Boxford Lodge","lon":-76.28333,"lat":17.9,"pop":0},{"id":3491256,"name":"Boyne Park","lon":-76.93149,"lat":18.3187,"pop":0},{"id":3491254,"name":"Braco","lon":-77.5,"lat":18.46667,"pop":0},{"id":3491253,"name":"Brae Head","lon":-76.93333,"lat":18.26667,"pop":0},{"id":3491252,"name":"Braema","lon":-77.01667,"lat":18.21667,"pop":0},{"id":3491250,"name":"Braes River","lon":-77.65051,"lat":18.08025,"pop":0},{"id":3491248,"name":"Braeton","lon":-76.90526,"lat":17.94978,"pop":0},{"id":3491247,"name":"Brainerd","alt":["Brainard"],"lon":-76.89556,"lat":18.19633,"pop":0},{"id":3491245,"name":"Brandon Hill","lon":-77.2506,"lat":18.15831,"pop":0},{"id":3491246,"name":"Brandon Hill","lon":-76.81341,"lat":18.14971,"pop":0},{"id":3491242,"name":"Brazilletos","alt":["Brazalitta","Braziletta","Braziletto","Brazilletto"],"lon":-77.16667,"lat":17.83333,"pop":0},{"id":3491239,"name":"Breadfruit","alt":["Breadfruit Hill"],"lon":-76.53333,"lat":18.15,"pop":0},{"id":3491238,"name":"Breadnut","lon":-77.9,"lat":18.05,"pop":0},{"id":3491237,"name":"Breadnut Bottom","lon":-77.18047,"lat":17.9621,"pop":0},{"id":3491235,"name":"Breadnut Hill","lon":-77.08709,"lat":18.38441,"pop":0},{"id":3491234,"name":"Breastworks","lon":-76.44703,"lat":18.16448,"pop":0},{"id":3491233,"name":"Breezy Hill","lon":-77.14298,"lat":18.37551,"pop":0},{"id":3491232,"name":"Breezy Park","lon":-77.2,"lat":18.38333,"pop":0},{"id":3491229,"name":"Bretts Pen","lon":-76.95,"lat":18.01667,"pop":0},{"id":12541913,"name":"Bridge Hole","lon":-76.76163,"lat":18.22513,"pop":0},{"id":3491226,"name":"Bridge Pen","lon":-77.02785,"lat":17.96363,"pop":0},{"id":3491227,"name":"Bridge Pen","lon":-77.6,"lat":17.91667,"pop":0},{"id":3491224,"name":"Brighton","lon":-78.01708,"lat":18.15724,"pop":0},{"id":3491225,"name":"Brighton","lon":-77.87152,"lat":18.15065,"pop":0},{"id":3491223,"name":"Brimmer Hall","alt":["Brummer Hall"],"lon":-76.91497,"lat":18.34499,"pop":0},{"id":3491222,"name":"Brinkley","lon":-77.61292,"lat":17.93705,"pop":0},{"id":3491221,"name":"Brissett Run","alt":["Brissett Runs"],"lon":-77.25,"lat":18.3,"pop":0},{"id":3491220,"name":"Bristol","lon":-77.53333,"lat":18.28333,"pop":0},{"id":3491219,"name":"British","lon":-77.20674,"lat":18.10786,"pop":0},{"id":3491218,"name":"Brittonville","lon":-77.209,"lat":18.36293,"pop":0},{"id":3491217,"name":"Brixton Hill","lon":-77.32133,"lat":18.02111,"pop":0},{"id":3491216,"name":"Broadgate","lon":-76.81518,"lat":18.22973,"pop":0},{"id":3491215,"name":"Broadleaf","lon":-77.03333,"lat":18.35,"pop":0},{"id":3491212,"name":"Broadstreet","lon":-77.16667,"lat":18.31667,"pop":0},{"id":3491211,"name":"Brokenbank","lon":-77.26554,"lat":17.83134,"pop":0},{"id":3491210,"name":"Brokenhurst","lon":-77.45,"lat":17.96667,"pop":0},{"id":3491209,"name":"Bromley","lon":-77.1,"lat":18.31667,"pop":0},{"id":3491208,"name":"Brompton","alt":["Brampton"],"lon":-77.88486,"lat":18.06749,"pop":0},{"id":3491207,"name":"Bronte","lon":-77.94011,"lat":18.14402,"pop":0},{"id":3491206,"name":"Brooklyn","lon":-76.92041,"lat":18.38293,"pop":0},{"id":3491203,"name":"Brown Hill Village","lon":-76.73333,"lat":18.23333,"pop":0},{"id":3491201,"name":"Browns Hall","lon":-77.12964,"lat":18.06385,"pop":0},{"id":3491199,"name":"Browns Town","lon":-77.36684,"lat":18.39247,"pop":0},{"id":3491200,"name":"Browns Town","lon":-77.08816,"lat":18.06681,"pop":0},{"id":3491197,"name":"Browns Valley","lon":-77.2,"lat":18.28333,"pop":0},{"id":3491198,"name":"Browns Valley","lon":-77.76667,"lat":17.96667,"pop":0},{"id":12541739,"name":"Bruce Hall","lon":-77.9007,"lat":18.2903,"pop":0},{"id":3491196,"name":"Brucefield","lon":-77.77695,"lat":17.97766,"pop":0},{"id":3491194,"name":"Brunswick","lon":-77.17682,"lat":18.32124,"pop":0},{"id":3491193,"name":"Bryan","alt":["Bryon"],"lon":-77.46667,"lat":18.43333,"pop":0},{"id":3491192,"name":"Bryan Castle","lon":-77.48294,"lat":18.45144,"pop":0},{"id":3491190,"name":"Bryans Bay","lon":-76.47142,"lat":18.19095,"pop":0},{"id":3491188,"name":"Bryans Hill","lon":-77.3,"lat":18.13333,"pop":0},{"id":3491187,"name":"Bryans Pen","alt":["Bryans"],"lon":-77.23333,"lat":17.96667,"pop":0},{"id":3491181,"name":"Buck Up","lon":-77.51667,"lat":18.2,"pop":0},{"id":3491184,"name":"Buckfield","lon":-77.1,"lat":18.4,"pop":0},{"id":3491183,"name":"Buckingham","lon":-76.50687,"lat":17.93495,"pop":0},{"id":3491182,"name":"Buckup","lon":-77.49453,"lat":17.89709,"pop":0},{"id":3491179,"name":"Budley Park","lon":-77.31667,"lat":17.86667,"pop":0},{"id":3491175,"name":"Buff Bay","lon":-76.66118,"lat":18.23287,"pop":2757},{"id":3491169,"name":"Bull Bay","alt":["Bull Bay Pen"],"lon":-76.66603,"lat":17.94372,"pop":0},{"id":12547259,"name":"Bull Head","lon":-77.27477,"lat":18.17199,"pop":0},{"id":3491164,"name":"Bull Pen","lon":-76.95,"lat":18.01667,"pop":0},{"id":3491161,"name":"Bull Savanna","lon":-77.59022,"lat":17.88678,"pop":6962},{"id":3491171,"name":"Bullards","lon":-77.28333,"lat":17.93333,"pop":0},{"id":3491157,"name":"Bunkers Hill","alt":["Bunker Hill"],"lon":-77.69557,"lat":18.39303,"pop":0},{"id":3491156,"name":"Burge","lon":-76.65,"lat":17.93333,"pop":0},{"id":12541541,"name":"Burkes Mountain","alt":["Burk's Mountain"],"lon":-77.82033,"lat":18.37945,"pop":0},{"id":3491154,"name":"Burlington","lon":-76.50125,"lat":18.20007,"pop":0},{"id":3491152,"name":"Burnt Ground","lon":-77.70674,"lat":18.03274,"pop":0},{"id":3491150,"name":"Burnt Hill","lon":-77.55,"lat":18.3,"pop":0},{"id":3491148,"name":"Burnt Savanna","lon":-77.75,"lat":18.03333,"pop":0},{"id":3491145,"name":"Burton Hall","lon":-76.55,"lat":18.11667,"pop":0},{"id":3491144,"name":"Burts Run","lon":-77.30466,"lat":18.38935,"pop":0},{"id":3491140,"name":"Bushy Park","lon":-77.25,"lat":17.98333,"pop":0},{"id":3491141,"name":"Bushy Park","lon":-77.06742,"lat":17.93494,"pop":0},{"id":3491137,"name":"Buxton","alt":["Boxton"],"lon":-78.10245,"lat":18.3735,"pop":0},{"id":3491136,"name":"Buxton Town","lon":-77.05594,"lat":18.11561,"pop":0},{"id":3491134,"name":"Bybrook","alt":["Winchester"],"lon":-76.65865,"lat":18.18019,"pop":0},{"id":3491135,"name":"Bybrook","lon":-77.68333,"lat":18.06667,"pop":0},{"id":3491132,"name":"Byndloss","alt":["Bindloss"],"lon":-77.02306,"lat":18.15657,"pop":0},{"id":12547068,"name":"Cabbage Hall","lon":-77.4235,"lat":18.10336,"pop":0},{"id":12547069,"name":"Cabbage Hill","lon":-77.37645,"lat":18.15576,"pop":0},{"id":3491125,"name":"Cacoon","lon":-78.19794,"lat":18.4111,"pop":0},{"id":3491124,"name":"Cacoon Castle","lon":-78.01475,"lat":18.403,"pop":0},{"id":3491122,"name":"Cairn","lon":-78.00856,"lat":18.2322,"pop":0},{"id":3491121,"name":"Cairnie","lon":-77.33333,"lat":18.28333,"pop":0},{"id":12541872,"name":"Calabar","lon":-77.46176,"lat":18.46288,"pop":0},{"id":3491115,"name":"Calderwood Glen","alt":["Calderwood"],"lon":-77.3,"lat":18.28333,"pop":0},{"id":3491110,"name":"Caledonia","lon":-78.04837,"lat":18.37833,"pop":0},{"id":3491111,"name":"Caledonia","lon":-77.86667,"lat":18.38333,"pop":0},{"id":3491112,"name":"Caledonia","lon":-77.43333,"lat":18.31667,"pop":0},{"id":3491113,"name":"Caledonia","lon":-78.01445,"lat":18.24925,"pop":0},{"id":3491114,"name":"Caledonia","lon":-77.49921,"lat":18.05093,"pop":0},{"id":3491109,"name":"Caley","lon":-77.81667,"lat":18.3,"pop":0},{"id":3491108,"name":"California","lon":-77.56667,"lat":18.01667,"pop":0},{"id":3491106,"name":"Cambelton","alt":["Campbellton","Campbelton","Campbleton"],"lon":-78.28823,"lat":18.34996,"pop":0},{"id":3491105,"name":"Camberwell","alt":["Camberwell School"],"lon":-76.79098,"lat":18.2268,"pop":0},{"id":3491104,"name":"Cambrian","lon":-77.04275,"lat":18.126,"pop":0},{"id":3491101,"name":"Cambridge","lon":-77.6,"lat":18.43333,"pop":0},{"id":3491102,"name":"Cambridge","alt":["Cambridge Station"],"lon":-77.90252,"lat":18.31326,"pop":3930},{"id":3491103,"name":"Cambridge","lon":-76.40937,"lat":18.14978,"pop":0},{"id":3491099,"name":"Cambrook","alt":["Cranbrook"],"lon":-77.26667,"lat":18.45,"pop":0},{"id":3491094,"name":"Camp Savanna","lon":-78.23333,"lat":18.28333,"pop":0},{"id":3491098,"name":"Campbell Castle","lon":-77.45,"lat":17.96667,"pop":0},{"id":3491095,"name":"Camperdown","lon":-76.80053,"lat":18.0291,"pop":0},{"id":3491096,"name":"Camperdown","lon":-77.1584,"lat":18.22276,"pop":0},{"id":12535219,"name":"Camrose","lon":-77.8801,"lat":18.41223,"pop":0},{"id":3491089,"name":"Cane River","alt":["Lakelands"],"lon":-76.7,"lat":17.95,"pop":0},{"id":3491086,"name":"Canewood","alt":["Caenwood"],"lon":-76.57882,"lat":18.20179,"pop":0},{"id":3491080,"name":"Carawina","alt":["Cariwina"],"lon":-78.08333,"lat":18.25,"pop":0},{"id":3491077,"name":"Cardiff Hall","alt":["Cardiff","Carditt Hall"],"lon":-77.32353,"lat":18.449,"pop":0},{"id":12534940,"name":"Carew Spring Mount","alt":["Karew"],"lon":-77.848,"lat":18.4031,"pop":0},{"id":3491075,"name":"Carey Park","alt":["Cary Park","Cary Park Village"],"lon":-77.55932,"lat":18.47432,"pop":0},{"id":3491074,"name":"Carey Town","lon":-77.93333,"lat":18.38333,"pop":0},{"id":3491072,"name":"Carisbrook","alt":["Carrisbrook"],"lon":-77.76924,"lat":18.14791,"pop":0},{"id":3491071,"name":"Carlette Pen","alt":["Carletts"],"lon":-76.96667,"lat":17.98333,"pop":0},{"id":3491070,"name":"Carlisle","alt":["Carlyle"],"lon":-77.28232,"lat":17.7792,"pop":0},{"id":3491068,"name":"Carlton","alt":["Charlton"],"lon":-77.77247,"lat":18.48216,"pop":0},{"id":12547006,"name":"Carlton Mountain","lon":-77.8058,"lat":18.363,"pop":0},{"id":12547036,"name":"Carmel","lon":-77.93842,"lat":18.16159,"pop":0},{"id":8659009,"name":"Carribean Park","lon":-77.03695,"lat":18.41537,"pop":0},{"id":3491063,"name":"Carron Hall","alt":["Caron Hall"],"lon":-76.94502,"lat":18.2746,"pop":0},{"id":3491062,"name":"Carry Hall","alt":["Craig Hall"],"lon":-76.38333,"lat":17.91667,"pop":0},{"id":3491060,"name":"Carthagena","alt":["Carthagina"],"lon":-77.9,"lat":18.45,"pop":0},{"id":3491059,"name":"Carton","lon":-77.18333,"lat":18.35,"pop":0},{"id":3491058,"name":"Cartwheel","lon":-77.35,"lat":17.95,"pop":0},{"id":12547080,"name":"Carty Hill","lon":-77.35621,"lat":18.16852,"pop":0},{"id":3491055,"name":"Cascade","lon":-78.10337,"lat":18.39747,"pop":1232},{"id":3491056,"name":"Cascade","lon":-77.45,"lat":18.21667,"pop":0},{"id":3491057,"name":"Cascade","lon":-76.71667,"lat":18.1,"pop":0},{"id":3491053,"name":"Cashew","alt":["Great Cashoo"],"lon":-77.78196,"lat":18.06811,"pop":0},{"id":3491050,"name":"Cassava","alt":["Cassava River"],"lon":-76.87069,"lat":18.13942,"pop":0},{"id":3491048,"name":"Cassia Park","lon":-76.8,"lat":18.01667,"pop":0},{"id":3491047,"name":"Castle Comfort","alt":["Castle House","Comfort Castle"],"lon":-76.35,"lat":18.13333,"pop":0},{"id":3491046,"name":"Castle Dawson","lon":-76.71667,"lat":18.08333,"pop":0},{"id":3491044,"name":"Castleton","alt":["Castleton Gardens"],"lon":-76.82169,"lat":18.17361,"pop":0},{"id":3491043,"name":"Caswell Hill","lon":-77.26667,"lat":17.85,"pop":0},{"id":3491042,"name":"Cataboo","lon":-77.81171,"lat":18.0421,"pop":0},{"id":3491041,"name":"Catadupa","alt":["Catadupa Station"],"lon":-77.87461,"lat":18.28375,"pop":0},{"id":10297400,"name":"Catherine Hall","lon":-77.92397,"lat":18.46141,"pop":0},{"id":12534992,"name":"Catskin","alt":["Cathkin"],"lon":-77.88083,"lat":18.22731,"pop":0},{"id":3491037,"name":"Cauldwell","lon":-78.24093,"lat":18.39,"pop":0},{"id":3491036,"name":"Cavaliers","alt":["Cavalier"],"lon":-76.84241,"lat":18.09617,"pop":0},{"id":3491035,"name":"Cave","lon":-78.28333,"lat":18.3,"pop":0},{"id":3491032,"name":"Cave Hill","lon":-77.38333,"lat":18.46667,"pop":0},{"id":3491029,"name":"Cave Valley","lon":-78.27307,"lat":18.32802,"pop":0},{"id":3491030,"name":"Cave Valley","lon":-77.36553,"lat":18.22408,"pop":0},{"id":9295725,"name":"Cave Valley","lon":-77.26907,"lat":18.20008,"pop":0},{"id":3491028,"name":"Caymanas","lon":-76.9,"lat":18.01667,"pop":0},{"id":3491026,"name":"Caymanas House","lon":-76.9,"lat":18.01667,"pop":0},{"id":3491016,"name":"Cedar Valley","lon":-77.11667,"lat":18.35,"pop":0},{"id":3491017,"name":"Cedar Valley","lon":-77.25373,"lat":18.30209,"pop":0},{"id":3491018,"name":"Cedar Valley","lon":-76.98333,"lat":18.2,"pop":0},{"id":3491019,"name":"Cedar Valley","alt":["Cedarhurst"],"lon":-76.71058,"lat":18.10851,"pop":0},{"id":3491020,"name":"Cedar Valley","lon":-76.93333,"lat":18.06667,"pop":0},{"id":3491021,"name":"Cedar Valley","lon":-76.86667,"lat":18.05,"pop":0},{"id":3491022,"name":"Cedar Valley","lon":-76.58508,"lat":17.992,"pop":0},{"id":3491013,"name":"Central Village","alt":["White Marl"],"lon":-76.91679,"lat":18.0011,"pop":0},{"id":12541816,"name":"Cessnock","lon":-78.21637,"lat":18.3587,"pop":0},{"id":3491012,"name":"Chalky Hill","lon":-77.16299,"lat":18.40025,"pop":0},{"id":3491010,"name":"Chandlers Pen","lon":-77.2,"lat":17.98333,"pop":0},{"id":3491009,"name":"Change Hill","lon":-76.94938,"lat":18.26907,"pop":0},{"id":3491008,"name":"Chantilly","lon":-77.46749,"lat":18.10643,"pop":0},{"id":3491007,"name":"Chapelton","lon":-77.26667,"lat":18.08333,"pop":4514},{"id":3491005,"name":"Charlemont","lon":-77.06667,"lat":18.18333,"pop":0},{"id":3491002,"name":"Charles Town","lon":-76.67134,"lat":18.21205,"pop":0},{"id":3491001,"name":"Charlottenburgh","lon":-76.87768,"lat":18.25019,"pop":0},{"id":3490998,"name":"Charlton","lon":-77.35,"lat":18.3,"pop":0},{"id":3490999,"name":"Charlton","lon":-77.1,"lat":18.16667,"pop":0},{"id":3491000,"name":"Charlton","lon":-76.8,"lat":18.03333,"pop":0},{"id":3490997,"name":"Charlton Castle","lon":-77.4,"lat":18.4,"pop":0},{"id":3490996,"name":"Chateau","lon":-77.2,"lat":17.977,"pop":0},{"id":3490994,"name":"Chatham","lon":-77.91897,"lat":18.49263,"pop":0},{"id":3490995,"name":"Chatham","lon":-77.76326,"lat":18.47,"pop":0},{"id":3490992,"name":"Chatsworth","lon":-77.05,"lat":18.35,"pop":0},{"id":3490993,"name":"Chatsworth","alt":["Charlsworth"],"lon":-76.53827,"lat":18.14905,"pop":0},{"id":12541795,"name":"Chatsworth","lon":-77.78591,"lat":18.36299,"pop":0},{"id":3490991,"name":"Chatworth","lon":-77.11667,"lat":18.1,"pop":0},{"id":3490989,"name":"Cheapside","lon":-77.60305,"lat":17.9262,"pop":0},{"id":3490990,"name":"Cheapside","lon":-77.43333,"lat":17.93333,"pop":0},{"id":3490988,"name":"Chedwin Park","lon":-77.0021,"lat":17.98199,"pop":0},{"id":3490986,"name":"Cheesefield","lon":-77.0177,"lat":18.18947,"pop":0},{"id":3490984,"name":"Chelsea","lon":-76.58052,"lat":18.15012,"pop":0},{"id":3490985,"name":"Chelsea","lon":-77.7,"lat":17.93333,"pop":0},{"id":3490983,"name":"Chepstowe","alt":["Chepstow"],"lon":-76.63598,"lat":18.1781,"pop":0},{"id":3490980,"name":"Cherry Garden","lon":-76.77761,"lat":18.04583,"pop":0},{"id":3490981,"name":"Cherry Garden","lon":-77.05,"lat":17.93333,"pop":0},{"id":3490982,"name":"Cherryfield","lon":-77.03333,"lat":18.4,"pop":0},{"id":3490979,"name":"Chester","alt":["Chesler"],"lon":-77.61667,"lat":18.41761,"pop":0},{"id":3490976,"name":"Chesterfield","lon":-77.21667,"lat":18.38333,"pop":0},{"id":3490977,"name":"Chesterfield","alt":["Chesterfield Hillside"],"lon":-76.63333,"lat":18.03333,"pop":0},{"id":3490978,"name":"Chesterfield","lon":-77.24949,"lat":17.80364,"pop":0},{"id":9295726,"name":"Chesterfield","lon":-77.88603,"lat":18.26933,"pop":0},{"id":12547175,"name":"Chesterfield","lon":-76.8184,"lat":18.18504,"pop":0},{"id":3490974,"name":"Chestervale","lon":-76.67678,"lat":18.0839,"pop":0},{"id":9239029,"name":"Chichester","lon":-77.99606,"lat":18.32775,"pop":0},{"id":3490973,"name":"Chigwell","lon":-78.03848,"lat":18.40095,"pop":0},{"id":3490972,"name":"Chilton","lon":-77.96667,"lat":18.21667,"pop":0},{"id":3490971,"name":"Chipps Hall","lon":-76.55,"lat":18.11667,"pop":0},{"id":3490968,"name":"Chovey","alt":["Chovey House"],"lon":-76.80947,"lat":18.24976,"pop":0},{"id":3490967,"name":"Christiana","alt":["Village of Christiana"],"lon":-77.49116,"lat":18.17356,"pop":0},{"id":3490966,"name":"Christianfield Village","lon":-76.53333,"lat":18.15,"pop":0},{"id":3490963,"name":"Chudleigh","lon":-77.51667,"lat":18.15,"pop":0},{"id":3490960,"name":"Cinnamon Hill","lon":-77.81667,"lat":18.51667,"pop":0},{"id":3490959,"name":"Clair Park","lon":-76.96667,"lat":18.03333,"pop":0},{"id":3490958,"name":"Clandon","alt":["Clanden"],"lon":-77.46824,"lat":18.15144,"pop":0},{"id":3490955,"name":"Claremont","lon":-77.1736,"lat":18.33123,"pop":0},{"id":3490956,"name":"Claremont","lon":-77.11667,"lat":17.95,"pop":0},{"id":3490957,"name":"Claremont","lon":-76.68333,"lat":17.93333,"pop":0},{"id":3490954,"name":"Claremont Park","alt":["Claremont","Clarmont Park"],"lon":-77.73159,"lat":17.91716,"pop":0},{"id":3490950,"name":"Clarendon Park","alt":["Claredon Park"],"lon":-77.37159,"lat":17.99354,"pop":0},{"id":3490944,"name":"Clarks Town","lon":-77.54381,"lat":18.41949,"pop":0},{"id":3490945,"name":"Clarks Town","alt":["Clark Town","Clarke's Town","Clarke’s Town"],"lon":-77.21667,"lat":18.4,"pop":0},{"id":3490946,"name":"Clarks Town","lon":-77.51448,"lat":18.05491,"pop":0},{"id":3490947,"name":"Clarksonville","lon":-77.36112,"lat":18.24682,"pop":0},{"id":3490943,"name":"Clermont","lon":-76.86437,"lat":18.25922,"pop":0},{"id":3490942,"name":"Cliffords Rest","lon":-77.18333,"lat":17.95,"pop":0},{"id":3490937,"name":"Clifton","lon":-77.64418,"lat":18.47158,"pop":0},{"id":3490938,"name":"Clifton","alt":["Clifton Falls"],"lon":-77.06667,"lat":18.38333,"pop":0},{"id":3490939,"name":"Clifton","lon":-78.13333,"lat":18.3,"pop":0},{"id":3490940,"name":"Clifton","lon":-77.98491,"lat":18.24328,"pop":0},{"id":3490941,"name":"Clifton","alt":["Clifton Hill"],"lon":-76.31667,"lat":17.9,"pop":0},{"id":12541815,"name":"Clifton","lon":-78.1434,"lat":18.39939,"pop":0},{"id":12535006,"name":"Clifton in Cambridge","lon":-77.8946,"lat":18.2979,"pop":0},{"id":12535007,"name":"Clifton in Little River","lon":-77.7545,"lat":18.4812,"pop":0},{"id":3490933,"name":"Clonmel","lon":-76.85407,"lat":18.24549,"pop":0},{"id":3490932,"name":"Clover Hill","lon":-77.15,"lat":18.21667,"pop":0},{"id":3490929,"name":"Clydesdale","lon":-77.33333,"lat":18.3,"pop":0},{"id":3490930,"name":"Clydesdale","alt":["Clydesdale Industry"],"lon":-76.66667,"lat":18.06667,"pop":0},{"id":3490928,"name":"Coates Pen","alt":["Coates"],"lon":-77.26667,"lat":17.95,"pop":0},{"id":3490927,"name":"Cobblers","lon":-77.46708,"lat":18.14397,"pop":0},{"id":3490925,"name":"Cockburn Gardens","lon":-76.82053,"lat":18.0113,"pop":0},{"id":3490922,"name":"Cockpit","alt":["Cockpit Village","Cockpits","Shands Cockpit"],"lon":-77.14822,"lat":17.88407,"pop":0},{"id":3490920,"name":"Cockshop","lon":-77.23333,"lat":18.13333,"pop":0},{"id":3490914,"name":"Coco Ree","lon":-77.18333,"lat":18.15,"pop":0},{"id":3490916,"name":"Cocoa Walk","lon":-77.28333,"lat":18.06667,"pop":0},{"id":3490917,"name":"Cocoa Walk","lon":-76.60005,"lat":17.95005,"pop":0},{"id":3490918,"name":"Cocoa Walk","lon":-77.50303,"lat":17.88426,"pop":0},{"id":3490911,"name":"Coffee Grove","lon":-77.46667,"lat":17.95,"pop":0},{"id":3490910,"name":"Coffee Piece","lon":-76.84814,"lat":18.25056,"pop":0},{"id":3490906,"name":"Colbeck","alt":["Colbecks","Colebeck"],"lon":-77.13465,"lat":17.9624,"pop":0},{"id":3490904,"name":"Cold Spring","lon":-76.9,"lat":18.2,"pop":0},{"id":12541797,"name":"Cold Spring","lon":-77.8146,"lat":18.303,"pop":0},{"id":12541818,"name":"Cold Spring","lon":-78.05612,"lat":18.4081,"pop":0},{"id":3490900,"name":"Coley","alt":["Coley House"],"lon":-76.5,"lat":17.95,"pop":0},{"id":3490899,"name":"Coleyville","lon":-77.50754,"lat":18.20783,"pop":3860},{"id":9260790,"name":"College Commons","lon":-76.74993,"lat":17.99922,"pop":0},{"id":3490897,"name":"Colon","lon":-77.91438,"lat":18.12124,"pop":0},{"id":3490895,"name":"Colonels Ridge","lon":-77.26751,"lat":18.14305,"pop":0},{"id":3490894,"name":"Comfort","lon":-77.9179,"lat":18.41412,"pop":0},{"id":3490893,"name":"Comfort Castle","lon":-76.4142,"lat":18.05438,"pop":0},{"id":3490892,"name":"Comfort Hall","lon":-77.60289,"lat":18.18184,"pop":0},{"id":3490891,"name":"Comfort Settlement","lon":-76.94187,"lat":18.30774,"pop":0},{"id":3490890,"name":"Comfort Village","lon":-77.32631,"lat":17.94797,"pop":0},{"id":3490888,"name":"Comma Pen","lon":-77.5824,"lat":17.91248,"pop":0},{"id":3490889,"name":"Commadore","lon":-78.03333,"lat":18.43333,"pop":0},{"id":3490887,"name":"Commodore","lon":-76.3391,"lat":18.12371,"pop":0},{"id":3490886,"name":"Concord","lon":-77.21933,"lat":18.21551,"pop":0},{"id":12540886,"name":"Concordia","lon":-77.90862,"lat":18.41503,"pop":0},{"id":3490884,"name":"Congress Hall","lon":-77.95,"lat":18.1,"pop":0},{"id":3490883,"name":"Congreve Park","alt":["Congrove Park"],"lon":-76.9,"lat":17.95,"pop":0},{"id":3490881,"name":"Connors","lon":-77.16385,"lat":18.06878,"pop":0},{"id":3490880,"name":"Constant Spring","lon":-76.79372,"lat":18.05078,"pop":12830},{"id":3490879,"name":"Constitution Hill","lon":-76.71126,"lat":18.01414,"pop":0},{"id":3490865,"name":"Content","lon":-77.39925,"lat":18.42709,"pop":0},{"id":3490866,"name":"Content","lon":-77.02761,"lat":18.40034,"pop":0},{"id":3490867,"name":"Content","lon":-76.95,"lat":18.4,"pop":0},{"id":3490868,"name":"Content","lon":-78.00091,"lat":18.37878,"pop":0},{"id":3490869,"name":"Content","lon":-77.23333,"lat":18.38333,"pop":0},{"id":3490870,"name":"Content","lon":-77.10772,"lat":18.357,"pop":0},{"id":3490871,"name":"Content","lon":-76.88299,"lat":18.26566,"pop":0},{"id":3490872,"name":"Content","lon":-77.99933,"lat":18.1803,"pop":0},{"id":3490873,"name":"Content","lon":-77.96667,"lat":18.15,"pop":0},{"id":3490874,"name":"Content","lon":-77.90602,"lat":18.107,"pop":0},{"id":3490875,"name":"Content","lon":-77.43681,"lat":18.05482,"pop":0},{"id":3490876,"name":"Content","lon":-76.68437,"lat":18.04588,"pop":0},{"id":3490878,"name":"Content","lon":-77.07341,"lat":18.02182,"pop":0},{"id":3490863,"name":"Content Village","lon":-77.28776,"lat":17.94949,"pop":0},{"id":3490862,"name":"Cool Spring","lon":-77.11667,"lat":18.11667,"pop":0},{"id":12534933,"name":"Cool Water","lon":-77.8536,"lat":18.40608,"pop":0},{"id":3490859,"name":"Copse","lon":-77.96865,"lat":18.37629,"pop":0},{"id":3490857,"name":"Corby Castle","lon":-77.66418,"lat":17.90306,"pop":0},{"id":3490855,"name":"Corn Hill","lon":-77.38333,"lat":18.11667,"pop":0},{"id":3490856,"name":"Corner Shop","lon":-77.3443,"lat":18.1876,"pop":0},{"id":3490852,"name":"Cornwall","alt":["Cornwall Farm"],"lon":-78.08634,"lat":18.2699,"pop":0},{"id":3490850,"name":"Cornwall Barracks","alt":["Barracks Hall"],"lon":-76.42037,"lat":18.06433,"pop":0},{"id":3490849,"name":"Cornwood","alt":["Caenwood"],"lon":-77.63333,"lat":18.45,"pop":0},{"id":3490848,"name":"Corrovants Grove","alt":["Corrovants"],"lon":-76.95,"lat":18.05,"pop":0},{"id":3490846,"name":"Cotswold Hill","lon":-77.01667,"lat":18.23333,"pop":0},{"id":3490842,"name":"Cottage","lon":-77.93767,"lat":18.17291,"pop":0},{"id":3490843,"name":"Cottage","lon":-76.72959,"lat":18.25478,"pop":0},{"id":3490844,"name":"Cottage","lon":-77.46667,"lat":17.96667,"pop":0},{"id":3490845,"name":"Cottage","lon":-77.23333,"lat":17.81667,"pop":0},{"id":3490840,"name":"Cotterwood","lon":-77.91307,"lat":18.0893,"pop":0},{"id":3490837,"name":"Coultant Grove","alt":["Cooltort Grove"],"lon":-77.18295,"lat":18.32303,"pop":0},{"id":3490835,"name":"Cousins Cove","lon":-78.23987,"lat":18.42678,"pop":0},{"id":3490834,"name":"Coventry Pen","alt":["Coventry"],"lon":-78.06667,"lat":18.41667,"pop":0},{"id":12547102,"name":"Cow Pen","lon":-77.36029,"lat":18.15892,"pop":0},{"id":3490832,"name":"Cowans","lon":-77.11667,"lat":18.06667,"pop":0},{"id":3490827,"name":"Coxheath","lon":-77.63093,"lat":18.3794,"pop":0},{"id":3490820,"name":"Craig Head","lon":-77.54989,"lat":18.23702,"pop":0},{"id":3490819,"name":"Craig Mill","alt":["Graig Mill"],"lon":-76.68359,"lat":18.22149,"pop":0},{"id":3490818,"name":"Craigton","lon":-76.72422,"lat":18.056,"pop":0},{"id":3490816,"name":"Crawford","alt":["Crawfords"],"lon":-77.91105,"lat":18.04172,"pop":0},{"id":3490814,"name":"Crawle","lon":-76.93333,"lat":18.3,"pop":0},{"id":3490815,"name":"Crawle","lon":-77.16667,"lat":18.01667,"pop":0},{"id":12546947,"name":"Crawle River","lon":-77.25256,"lat":18.12396,"pop":0},{"id":3490806,"name":"Creighton Hall","lon":-76.48917,"lat":17.88838,"pop":0},{"id":3490805,"name":"Crescent","lon":-76.98048,"lat":18.04815,"pop":0},{"id":3490804,"name":"Crescent Park","alt":["Cresent Park"],"lon":-77.14522,"lat":18.31254,"pop":0},{"id":12540887,"name":"Crochers Mount","alt":["Crochers Mountain","Crotcher Mountain"],"lon":-77.9,"lat":18.41253,"pop":0},{"id":3490802,"name":"Crofts Hill","alt":["Crofts"],"lon":-77.20771,"lat":18.13299,"pop":0},{"id":3490797,"name":"Crooked River","lon":-77.31118,"lat":18.13261,"pop":0},{"id":3490794,"name":"Crosbie","lon":-78.3,"lat":18.23333,"pop":0},{"id":3490793,"name":"Cross Keys","lon":-77.50241,"lat":17.89891,"pop":0},{"id":3490792,"name":"Cross Pen","lon":-77.2,"lat":17.95,"pop":0},{"id":3490791,"name":"Cross Roads","lon":-76.78575,"lat":17.99274,"pop":0},{"id":9307984,"name":"Crown Lands","lon":-77.65162,"lat":18.26563,"pop":0},{"id":3490790,"name":"Croyden","alt":["Croydon"],"lon":-77.9,"lat":18.13333,"pop":0},{"id":3490785,"name":"Cudjoe Hill","alt":["Cudioe Hill"],"lon":-77.08776,"lat":18.05657,"pop":0},{"id":3490784,"name":"Cuffie Head","lon":-76.51617,"lat":18.17892,"pop":0},{"id":9294021,"name":"Cuffy Gully","lon":-76.89305,"lat":18.24378,"pop":0},{"id":3490782,"name":"Culloden","alt":["Culldden"],"lon":-77.97855,"lat":18.1055,"pop":0},{"id":3490780,"name":"Cum See","lon":-76.87833,"lat":18.29195,"pop":0},{"id":12541911,"name":"Cum See","alt":["Come See"],"lon":-76.75334,"lat":18.20891,"pop":0},{"id":3490781,"name":"Cumberland","lon":-77.43086,"lat":18.11221,"pop":0},{"id":12547081,"name":"Cumberland","lon":-77.35988,"lat":18.1748,"pop":0},{"id":3490778,"name":"Curatoe Hill","lon":-77.23333,"lat":17.95,"pop":0},{"id":3490773,"name":"Cypress Hall","lon":-76.87852,"lat":18.05479,"pop":0},{"id":3490772,"name":"Cyprus","lon":-77.38333,"lat":18.31667,"pop":0},{"id":3490771,"name":"Dallas Castle","alt":["Dallas"],"lon":-76.70503,"lat":17.99849,"pop":0},{"id":3490769,"name":"Dallingtober","alt":["Dalentobur","Dalingtober","Dollingtabor"],"lon":-77.93333,"lat":18.05,"pop":0},{"id":3490767,"name":"Dalvey","lon":-76.95,"lat":18.21667,"pop":0},{"id":3490768,"name":"Dalvey","alt":["Dalvy"],"lon":-76.24864,"lat":17.91184,"pop":3037},{"id":3490762,"name":"Danks","alt":["Danks Station"],"lon":-77.26961,"lat":18.09123,"pop":0},{"id":3490760,"name":"Darley","lon":-76.50703,"lat":18.16059,"pop":0},{"id":3490759,"name":"Darlington","lon":-77.4,"lat":18.35,"pop":0},{"id":3490758,"name":"Darliston","alt":["Darlingston"],"lon":-77.97626,"lat":18.23731,"pop":1583},{"id":12546982,"name":"Darlow","lon":-77.33825,"lat":18.00252,"pop":0},{"id":3490757,"name":"David Wilsons Village","lon":-77.11667,"lat":17.96667,"pop":0},{"id":3490753,"name":"Davis Town","lon":-77.16116,"lat":18.39082,"pop":0},{"id":3490752,"name":"Davyton","alt":["Village of Davyton"],"lon":-77.46001,"lat":18.0942,"pop":0},{"id":3490751,"name":"Dawkins Caymanas","alt":["Dawkins"],"lon":-76.90746,"lat":18.00978,"pop":0},{"id":3490748,"name":"Dawkins Smokey Hole","lon":-77.29917,"lat":18.03725,"pop":0},{"id":3490746,"name":"Dawson Castle","lon":-76.68333,"lat":18.15,"pop":0},{"id":3490741,"name":"Decoy","lon":-77.35937,"lat":17.9621,"pop":0},{"id":3490740,"name":"Decoy Estate","lon":-76.98333,"lat":18.28333,"pop":0},{"id":3490739,"name":"Decoy Pen","alt":["Decoy"],"lon":-76.99669,"lat":18.25774,"pop":0},{"id":3490737,"name":"Dee Side","lon":-77.35,"lat":17.88333,"pop":0},{"id":3490736,"name":"Deeside","alt":["Dee Side Village","Deep Side Village"],"lon":-77.74428,"lat":18.39156,"pop":0},{"id":3490735,"name":"Defiance","lon":-77.4,"lat":18.46667,"pop":0},{"id":3490733,"name":"Delacree Pen","lon":-76.81692,"lat":17.99653,"pop":0},{"id":3490732,"name":"Denbigh","alt":["Denhigh"],"lon":-77.26879,"lat":17.96385,"pop":0},{"id":10400159,"name":"Denham Town","lon":-76.80619,"lat":17.98351,"pop":0},{"id":3490730,"name":"Denhigh Plain","lon":-77.26648,"lat":17.98975,"pop":0},{"id":12547177,"name":"Derry","lon":-76.9533,"lat":18.3061,"pop":0},{"id":12547078,"name":"Desire","lon":-77.3601,"lat":18.1648,"pop":0},{"id":3490724,"name":"Devon","lon":-77.38333,"lat":18.35,"pop":0},{"id":3490725,"name":"Devon","alt":["Devon Township","Devon Village"],"lon":-77.52867,"lat":18.16706,"pop":0},{"id":3490721,"name":"Diamond","alt":["Hendley"],"lon":-77.20558,"lat":18.08069,"pop":0},{"id":3490722,"name":"Diamond","lon":-76.86667,"lat":18.05,"pop":0},{"id":3490720,"name":"Dias","lon":-78.1962,"lat":18.39755,"pop":0},{"id":3490716,"name":"Discovery Bay","alt":["Dry Harbor","Dry Harbour","Puerto Bueno"],"lon":-77.39997,"lat":18.45873,"pop":2535},{"id":3490689,"name":"Doctors Cave","lon":-77.92912,"lat":18.48282,"pop":0},{"id":3490686,"name":"Doncaster","lon":-77.4,"lat":18.33333,"pop":0},{"id":3490681,"name":"Donegal","lon":-77.88333,"lat":18.18333,"pop":0},{"id":3490678,"name":"Doone Lodge","lon":-77.3,"lat":18.3,"pop":0},{"id":3490677,"name":"Dorcas","lon":-77.81667,"lat":17.98333,"pop":0},{"id":3490675,"name":"Dorothy Pen","alt":["Dorothy"],"lon":-77.38333,"lat":18.28333,"pop":0},{"id":3489538,"name":"Douglas Castle","lon":-77.26807,"lat":18.19797,"pop":0},{"id":12547188,"name":"Douglas Castle","lon":-77.27083,"lat":18.20353,"pop":0},{"id":3490673,"name":"Dove Cot Park","alt":["Dove Cole Park"],"lon":-76.99672,"lat":18.01204,"pop":0},{"id":3490672,"name":"Dove Hall","lon":-76.94348,"lat":18.11441,"pop":0},{"id":3490670,"name":"Dover","alt":["Dove"],"lon":-76.70497,"lat":18.26051,"pop":0},{"id":3490671,"name":"Dover","lon":-77.07245,"lat":18.00925,"pop":0},{"id":3490667,"name":"Downs","alt":["Epsom Downs","Epson Downs"],"lon":-77.56043,"lat":17.94517,"pop":0},{"id":3490665,"name":"Drapers","lon":-76.40946,"lat":18.17519,"pop":0},{"id":3490663,"name":"Dressikie","alt":["Dressiky"],"lon":-76.97837,"lat":18.33422,"pop":0},{"id":3490660,"name":"Dromilly","lon":-77.72017,"lat":18.37665,"pop":0},{"id":3490659,"name":"Drummand Orange Grove","lon":-76.73333,"lat":18.2,"pop":0},{"id":3490658,"name":"Drummonds Run","lon":-77.7,"lat":17.86667,"pop":0},{"id":3490656,"name":"Dry Harbour Cave","alt":["Dry Harbor Cave"],"lon":-77.36667,"lat":18.46667,"pop":0},{"id":3490654,"name":"Dry Hill","lon":-77.2341,"lat":17.76647,"pop":0},{"id":3490653,"name":"Dry River","alt":["Rodans Dry River"],"lon":-77.25838,"lat":17.87855,"pop":0},{"id":3490646,"name":"Duanvale","alt":["Duanvale Village"],"lon":-77.59028,"lat":18.40466,"pop":0},{"id":3490645,"name":"Dublin Castle","lon":-77.35,"lat":18.45,"pop":0},{"id":3490642,"name":"Duckenfield Hall","alt":["Duckenfield","Duckensfield"],"lon":-76.26048,"lat":17.92092,"pop":0},{"id":12535133,"name":"Ducketts in Bethel Town","lon":-77.91526,"lat":18.3061,"pop":0},{"id":12535135,"name":"Ducketts in Cambridge","lon":-77.9072,"lat":18.3087,"pop":0},{"id":3490641,"name":"Duff House","lon":-77.56667,"lat":17.88333,"pop":0},{"id":3490640,"name":"Dumbarton","lon":-77.9,"lat":18.13333,"pop":0},{"id":3490639,"name":"Dumblane","lon":-77.73333,"lat":17.88333,"pop":0},{"id":3490638,"name":"Dump","lon":-77.50357,"lat":18.20228,"pop":0},{"id":3490636,"name":"Dunbar","lon":-76.61667,"lat":18.15,"pop":0},{"id":3490637,"name":"Dunbar","lon":-76.56667,"lat":18.11667,"pop":0},{"id":3490633,"name":"Duncans","lon":-77.53633,"lat":18.468,"pop":1876},{"id":3490631,"name":"Dundee","lon":-77.73333,"lat":18.45,"pop":0},{"id":3490628,"name":"Dunkeld","alt":["Red Grown"],"lon":-78.01621,"lat":18.14481,"pop":0},{"id":3490629,"name":"Dunkeld","lon":-77.51667,"lat":18.11667,"pop":0},{"id":3490627,"name":"Dunkleys","alt":["Dunkley","Dunkley Dry River"],"lon":-77.26667,"lat":17.9,"pop":0},{"id":3490626,"name":"Dunkleys Pen","lon":-77.3,"lat":18.03333,"pop":0},{"id":3490621,"name":"Dunrobin","lon":-76.8,"lat":18.03333,"pop":0},{"id":3490619,"name":"Durham","lon":-76.52768,"lat":18.1334,"pop":0},{"id":3490616,"name":"Easington","lon":-76.58824,"lat":17.92397,"pop":2634},{"id":3489828,"name":"East Lacovia","lon":-77.7587,"lat":18.07578,"pop":0},{"id":3490609,"name":"Eastwood Park","lon":-76.8037,"lat":18.0193,"pop":0},{"id":3490607,"name":"Eaton","alt":["Eton"],"lon":-78.16258,"lat":18.42564,"pop":0},{"id":3490604,"name":"Ebony Park","lon":-77.03333,"lat":17.95,"pop":0},{"id":3490605,"name":"Ebony Park","lon":-77.35,"lat":17.91667,"pop":0},{"id":3490603,"name":"Ecclesdown","lon":-76.33608,"lat":18.05842,"pop":0},{"id":3490602,"name":"Edbury","lon":-77.0064,"lat":18.04027,"pop":0},{"id":3490599,"name":"Eden","lon":-77.96667,"lat":18.4,"pop":0},{"id":3490600,"name":"Eden","lon":-76.95,"lat":18.4,"pop":0},{"id":3490601,"name":"Eden","lon":-77.33217,"lat":18.02067,"pop":0},{"id":3490598,"name":"Eden Bowers","lon":-77.11667,"lat":18.4,"pop":0},{"id":3490597,"name":"Eden Gardens","lon":-76.77469,"lat":17.9962,"pop":0},{"id":3490596,"name":"Eden Hill","alt":["Eden Park"],"lon":-76.95,"lat":18.38333,"pop":0},{"id":3490593,"name":"Edinburgh Castle","lon":-76.58333,"lat":17.9,"pop":0},{"id":3490592,"name":"Edward Piece","lon":-76.9243,"lat":18.12179,"pop":0},{"id":3490590,"name":"Effort","lon":-77.38333,"lat":18.13333,"pop":0},{"id":3490589,"name":"Eglington","lon":-77.58333,"lat":18.01667,"pop":0},{"id":3490587,"name":"Egypt","lon":-77.36667,"lat":18.38333,"pop":0},{"id":3490588,"name":"Egypt","lon":-76.85,"lat":18.28333,"pop":0},{"id":3490586,"name":"Eldersley","alt":["Elderslie"],"lon":-77.79805,"lat":18.23017,"pop":0},{"id":3490585,"name":"Eleven Mile","alt":["Cambridge","Eleven Miles"],"lon":-76.64358,"lat":17.93347,"pop":0},{"id":3490582,"name":"Elgin Town","lon":-78.15209,"lat":18.44529,"pop":0},{"id":3490583,"name":"Elgin Town","lon":-77.01725,"lat":18.30384,"pop":0},{"id":3490584,"name":"Elgin Town","lon":-76.4,"lat":17.88333,"pop":0},{"id":3490580,"name":"Elim","lon":-77.68124,"lat":18.12245,"pop":0},{"id":3490578,"name":"Ellen Street","lon":-77.45628,"lat":17.96525,"pop":0},{"id":3490577,"name":"Ellis Caymanas","alt":["Caymanas"],"lon":-76.90944,"lat":18.02126,"pop":0},{"id":3490575,"name":"Eltham","lon":-77.07459,"lat":18.40166,"pop":0},{"id":3490574,"name":"Elysium","lon":-77.91667,"lat":18.4,"pop":0},{"id":3490571,"name":"Emilie","lon":-77.03333,"lat":18.03333,"pop":0},{"id":3490569,"name":"Endeavor","alt":["Eardley","Endeavour"],"lon":-78.26667,"lat":18.3,"pop":0},{"id":3490565,"name":"Endeavour","lon":-77.05074,"lat":18.36688,"pop":0},{"id":3490566,"name":"Endeavour","lon":-77.4271,"lat":18.35572,"pop":0},{"id":3490567,"name":"Endeavour","lon":-77.35,"lat":18.33333,"pop":0},{"id":3490568,"name":"Endeavour","lon":-77.3838,"lat":18.0894,"pop":0},{"id":3490559,"name":"Enfield","lon":-77.3863,"lat":18.38986,"pop":0},{"id":3490560,"name":"Enfield","lon":-77.95949,"lat":18.21809,"pop":0},{"id":3490561,"name":"Enfield","lon":-76.73203,"lat":18.20507,"pop":0},{"id":3490562,"name":"Enfield","lon":-77.01667,"lat":18.18333,"pop":0},{"id":3490563,"name":"Enfield","lon":-76.71667,"lat":18.03333,"pop":0},{"id":3490564,"name":"Enfield","lon":-77.46621,"lat":17.9585,"pop":0},{"id":12547100,"name":"Ennetts","alt":["Ennets","Ennits","Ennitts"],"lon":-77.24397,"lat":18.06982,"pop":0},{"id":3490558,"name":"Ensom Pen","alt":["Epsom Pen","Epson Pen"],"lon":-76.95778,"lat":18.00915,"pop":0},{"id":3490557,"name":"Envy Valley","alt":["Envey Valley"],"lon":-77.03333,"lat":17.98333,"pop":0},{"id":3490555,"name":"Epsom","alt":["Epson"],"lon":-76.72634,"lat":18.24909,"pop":0},{"id":3490554,"name":"Epworth","lon":-77.14001,"lat":18.37161,"pop":0},{"id":3490552,"name":"Esher","lon":-78.19722,"lat":18.4539,"pop":0},{"id":3490553,"name":"Esher","lon":-76.8618,"lat":18.28777,"pop":0},{"id":3490548,"name":"Essex","lon":-77.21667,"lat":18.23333,"pop":0},{"id":3490549,"name":"Essex","lon":-76.92018,"lat":18.23591,"pop":0},{"id":3490546,"name":"Essling","lon":-77.36667,"lat":18.28333,"pop":0},{"id":3490544,"name":"Etingdon","lon":-77.56667,"lat":18.45,"pop":0},{"id":3490543,"name":"Evergreen","lon":-77.61667,"lat":18.18333,"pop":0},{"id":3490542,"name":"Everton","lon":-76.86859,"lat":18.09642,"pop":0},{"id":3490539,"name":"Ewarton","lon":-77.08536,"lat":18.18333,"pop":12797},{"id":3490537,"name":"Exchange","lon":-77.06512,"lat":18.40618,"pop":0},{"id":3490536,"name":"Exeter","alt":["Exter"],"lon":-77.3,"lat":17.83333,"pop":0},{"id":3490528,"name":"Fair Prospect","lon":-76.32318,"lat":18.11379,"pop":0},{"id":3490535,"name":"Fairburn","lon":-77.35675,"lat":18.18458,"pop":0},{"id":3490530,"name":"Fairfield","lon":-77.91107,"lat":18.45191,"pop":0},{"id":3490531,"name":"Fairfield","lon":-76.69691,"lat":18.1703,"pop":0},{"id":3490532,"name":"Fairfield","lon":-77.11667,"lat":18.1,"pop":0},{"id":3490533,"name":"Fairfield","lon":-77.57478,"lat":18.01833,"pop":0},{"id":3490534,"name":"Fairfield","lon":-76.28333,"lat":17.88333,"pop":0},{"id":3490526,"name":"Fairy Hill","lon":-76.61667,"lat":18.15,"pop":0},{"id":3490527,"name":"Fairy Hill","lon":-76.38052,"lat":18.16578,"pop":0},{"id":3490524,"name":"Falkeners","lon":-77.28333,"lat":17.95,"pop":0},{"id":3490523,"name":"Falkland","alt":["Nutshell"],"lon":-77.06667,"lat":18.16667,"pop":0},{"id":3490520,"name":"Falmouth","lon":-77.65587,"lat":18.49358,"pop":7779},{"id":3490517,"name":"Far Enough","lon":-77.75,"lat":17.95,"pop":0},{"id":3490516,"name":"Farenough","lon":-77.21667,"lat":18.18333,"pop":0},{"id":3490514,"name":"Farm Hill","lon":-76.63333,"lat":18.03333,"pop":0},{"id":3490510,"name":"Fellowship","alt":["Fellowship School"],"lon":-76.44994,"lat":18.14289,"pop":0},{"id":3490511,"name":"Fellowship","lon":-77.61667,"lat":17.98333,"pop":0},{"id":3490506,"name":"Fellowship Hall","lon":-76.99013,"lat":18.37231,"pop":0},{"id":3490507,"name":"Fellowship Hall","lon":-77.06998,"lat":18.12188,"pop":0},{"id":3490508,"name":"Fellowship Hall","lon":-76.8,"lat":18.11667,"pop":0},{"id":3490509,"name":"Fellowship Hall","lon":-76.96667,"lat":17.96667,"pop":0},{"id":12541706,"name":"Fern","lon":-77.88195,"lat":18.3249,"pop":0},{"id":3490504,"name":"Ferris Cross","alt":["Ferris","Ferris Pen"],"lon":-78.07136,"lat":18.22786,"pop":0},{"id":3490501,"name":"Fiddle Hall","lon":-77.05,"lat":18.11667,"pop":0},{"id":12541912,"name":"Fish Bone","lon":-76.76161,"lat":18.20388,"pop":0},{"id":3490496,"name":"Fish River","lon":-78.3,"lat":18.33333,"pop":0},{"id":3490493,"name":"Flagstaff","alt":["Maroon Town Barracks"],"lon":-77.77733,"lat":18.34182,"pop":0},{"id":3490490,"name":"Flamstead","lon":-77.81667,"lat":18.31667,"pop":0},{"id":3490491,"name":"Flamstead","alt":["Flamstead Cottage"],"lon":-76.68573,"lat":18.01681,"pop":0},{"id":3490487,"name":"Flat Grass","lon":-76.28333,"lat":18.01667,"pop":0},{"id":3490486,"name":"Flat Point","alt":["Flatpaint"],"lon":-77.28333,"lat":18.46667,"pop":0},{"id":12547084,"name":"Flemington","lon":-77.34765,"lat":18.18514,"pop":0},{"id":3490484,"name":"Flint River","alt":["Flint River House"],"lon":-78.05437,"lat":18.44772,"pop":0},{"id":3490481,"name":"Florence Hall","lon":-77.62875,"lat":18.4721,"pop":0},{"id":3490480,"name":"Florida","lon":-77.61826,"lat":18.48886,"pop":0},{"id":3490477,"name":"Flower Hill","lon":-77.85164,"lat":18.49175,"pop":0},{"id":3490475,"name":"Folly","lon":-77.41667,"lat":18.45,"pop":0},{"id":3490476,"name":"Folly","lon":-77.36667,"lat":18.01667,"pop":0},{"id":3490466,"name":"Font Hill","lon":-77.9469,"lat":18.04734,"pop":0},{"id":3490467,"name":"Font Hill","lon":-76.51025,"lat":17.94274,"pop":0},{"id":3490469,"name":"Fontabelle","lon":-77.65645,"lat":18.39358,"pop":0},{"id":3490470,"name":"Fontabelle","lon":-76.95558,"lat":18.36241,"pop":0},{"id":3490471,"name":"Fontabelle","alt":["Fontabelle House"],"lon":-78.15,"lat":18.28333,"pop":0},{"id":3490465,"name":"Foremost","lon":-77.7,"lat":18.25,"pop":0},{"id":3490464,"name":"Forest","lon":-77.22887,"lat":18.38491,"pop":0},{"id":3490461,"name":"Fornbrook","alt":["Fernbrook"],"lon":-77.93333,"lat":18.28333,"pop":0},{"id":3490460,"name":"Fort Charles","lon":-77.8,"lat":17.91667,"pop":0},{"id":3490457,"name":"Fort George","lon":-76.77313,"lat":18.24013,"pop":0},{"id":3490458,"name":"Fort George","alt":["George Fort"],"lon":-77.2257,"lat":18.20228,"pop":0},{"id":3490459,"name":"Fort George","lon":-76.81177,"lat":18.0801,"pop":0},{"id":3490453,"name":"Fort Stewart","lon":-76.74281,"lat":18.23823,"pop":0},{"id":3490451,"name":"Fort William","lon":-78.06853,"lat":18.2996,"pop":0},{"id":3490448,"name":"Four Feet","alt":["Bowden Pen"],"lon":-76.37797,"lat":18.01447,"pop":0},{"id":3490447,"name":"Four Mile","lon":-76.83333,"lat":18,"pop":0},{"id":3490445,"name":"Four Paths","alt":["Turners Four Paths"],"lon":-77.24792,"lat":18.06123,"pop":0},{"id":3490446,"name":"Four Paths","lon":-77.29169,"lat":17.96953,"pop":0},{"id":3490443,"name":"Four Roads","lon":-76.81667,"lat":18.01667,"pop":0},{"id":3490437,"name":"Frankfield","lon":-77.36643,"lat":18.14662,"pop":0},{"id":3490429,"name":"Free Hill","lon":-76.93227,"lat":18.35738,"pop":0},{"id":3490428,"name":"Free People","lon":-77.2078,"lat":17.93038,"pop":0},{"id":3490425,"name":"Free Town","lon":-77.41667,"lat":17.9,"pop":0},{"id":12541524,"name":"Free Town","lon":-76.884,"lat":18.1528,"pop":0},{"id":3490430,"name":"Freefield","lon":-77.38333,"lat":18.4,"pop":0},{"id":3490431,"name":"Freefield","lon":-76.7,"lat":18.2,"pop":0},{"id":3490426,"name":"Freetown","lon":-77.14704,"lat":17.91859,"pop":0},{"id":3490423,"name":"French Land","lon":-77.28333,"lat":18.33333,"pop":0},{"id":3490416,"name":"French Park","lon":-77.55127,"lat":17.98107,"pop":0},{"id":3490415,"name":"French Pen","alt":["Purcells Pen"],"lon":-76.96667,"lat":17.95,"pop":0},{"id":3490422,"name":"Frenchman","lon":-77.80706,"lat":18.06549,"pop":0},{"id":3490419,"name":"Frenchmans Hill","lon":-77.03333,"lat":18.01667,"pop":0},{"id":3490396,"name":"Friendship","alt":["Friendship Grove","Grove"],"lon":-78.01878,"lat":18.43909,"pop":0},{"id":3490397,"name":"Friendship","lon":-78.22549,"lat":18.39443,"pop":0},{"id":3490398,"name":"Friendship","lon":-77.21667,"lat":18.4,"pop":0},{"id":3490399,"name":"Friendship","lon":-77.06667,"lat":18.31667,"pop":0},{"id":3490400,"name":"Friendship","lon":-76.85525,"lat":18.31987,"pop":0},{"id":3490401,"name":"Friendship","lon":-78.1,"lat":18.3,"pop":0},{"id":3490402,"name":"Friendship","lon":-77.15498,"lat":18.27883,"pop":0},{"id":3490403,"name":"Friendship","lon":-76.61667,"lat":18.18333,"pop":0},{"id":3490404,"name":"Friendship","lon":-77.27716,"lat":18.1282,"pop":0},{"id":3490405,"name":"Friendship","lon":-76.8146,"lat":18.09723,"pop":0},{"id":3490406,"name":"Friendship","lon":-76.76667,"lat":18.03333,"pop":0},{"id":3490407,"name":"Friendship","alt":["Retirement"],"lon":-76.97885,"lat":18.00532,"pop":0},{"id":3490408,"name":"Friendship","lon":-76.43324,"lat":17.87648,"pop":0},{"id":3490409,"name":"Friendship","lon":-77.65,"lat":17.98333,"pop":0},{"id":3490410,"name":"Friendship","alt":["Belvedere"],"lon":-76.42306,"lat":17.88004,"pop":0},{"id":3490392,"name":"Friendship Valley","lon":-76.33333,"lat":18.05,"pop":0},{"id":3490390,"name":"Frome","lon":-78.15469,"lat":18.29407,"pop":993},{"id":3490389,"name":"Frontier","lon":-76.88333,"lat":18.36667,"pop":0},{"id":3490388,"name":"Fruitful Vale","lon":-76.55085,"lat":18.14275,"pop":0},{"id":3490386,"name":"Fullerfield Chapel","alt":["Fullersfield Chapel"],"lon":-78.19984,"lat":18.28693,"pop":0},{"id":3490385,"name":"Fullerswood","alt":["Fullerswood Beach"],"lon":-77.80435,"lat":17.99921,"pop":0},{"id":3490384,"name":"Fullerswood Park","alt":["Fullerwood Park","Park"],"lon":-77.78333,"lat":17.98333,"pop":0},{"id":3490383,"name":"Fustic Grove","lon":-77.93866,"lat":18.0666,"pop":0},{"id":3490382,"name":"Fyffes Pen","alt":["Fyffes"],"lon":-77.8905,"lat":18.07536,"pop":0},{"id":3490380,"name":"Gales Valley","lon":-77.75,"lat":18.41667,"pop":0},{"id":3490374,"name":"Galway","lon":-77.6,"lat":18.08333,"pop":0},{"id":12547250,"name":"Garberley","alt":["Garverley"],"lon":-77.2748,"lat":18.1767,"pop":0},{"id":3490372,"name":"Garland Grove","lon":-76.48333,"lat":18.1,"pop":0},{"id":3490370,"name":"Garlands","lon":-77.82605,"lat":18.30673,"pop":0},{"id":3490371,"name":"Garlands","lon":-76.98333,"lat":18.05,"pop":0},{"id":12541869,"name":"Garlogie","lon":-77.41493,"lat":18.0719,"pop":0},{"id":3490368,"name":"Gayle","alt":["Gayle Village"],"lon":-77.00971,"lat":18.32642,"pop":3305},{"id":9261113,"name":"Gayle Mountain","alt":["Gayle Mt."],"lon":-76.72843,"lat":18.03444,"pop":0},{"id":3490367,"name":"Gazeland","lon":-77.6,"lat":17.95,"pop":0},{"id":3490365,"name":"Geneva","lon":-78.18333,"lat":18.3,"pop":0},{"id":3490366,"name":"Geneva","lon":-77.73333,"lat":17.93333,"pop":0},{"id":12547056,"name":"George North","lon":-77.46854,"lat":18.16077,"pop":0},{"id":3490362,"name":"Georges Plain","lon":-78.13818,"lat":18.2737,"pop":0},{"id":3490356,"name":"Georges Valley","lon":-77.71667,"lat":18.46667,"pop":0},{"id":3490357,"name":"Georges Valley","lon":-77.62687,"lat":18.10169,"pop":0},{"id":3490353,"name":"Georgia","lon":-77.53783,"lat":18.44961,"pop":0},{"id":3490354,"name":"Georgia","lon":-78.13679,"lat":18.41937,"pop":0},{"id":3490355,"name":"Georgia","lon":-76.80405,"lat":18.2415,"pop":0},{"id":3490351,"name":"Giblatore","alt":["Gibraltar"],"lon":-77.01983,"lat":18.08448,"pop":0},{"id":3490348,"name":"Gibraltar","lon":-77.43172,"lat":18.3419,"pop":0},{"id":3490349,"name":"Gibraltar","lon":-77.14498,"lat":18.24174,"pop":0},{"id":3490347,"name":"Giddy Hall","lon":-77.88333,"lat":18.1,"pop":0},{"id":3490344,"name":"Gilnock","alt":["Gilnock Hall"],"lon":-77.65,"lat":18.05,"pop":0},{"id":3490342,"name":"Ginger Hill","lon":-77.85807,"lat":18.20743,"pop":0},{"id":3490341,"name":"Ginger House","lon":-76.42818,"lat":18.06336,"pop":0},{"id":3490340,"name":"Ginger Ridge","lon":-77.17238,"lat":18.08003,"pop":0},{"id":3490334,"name":"Glasgow","lon":-77.8,"lat":18.45,"pop":0},{"id":3490335,"name":"Glasgow","lon":-78.20565,"lat":18.35657,"pop":0},{"id":3490336,"name":"Glasgow","lon":-76.43333,"lat":17.95,"pop":0},{"id":3490333,"name":"Glebe Farm","alt":["Clebe Farm"],"lon":-76.81667,"lat":18.03333,"pop":0},{"id":3490329,"name":"Glen Islay","alt":["Glenisla","Glenisley"],"lon":-78.06388,"lat":18.32045,"pop":0},{"id":12541437,"name":"Glencoe","alt":["Glenco"],"lon":-77.8603,"lat":18.241,"pop":0},{"id":3490331,"name":"Glendevon","lon":-77.90199,"lat":18.48059,"pop":0},{"id":6690260,"name":"Glengoffe","lon":-76.89005,"lat":18.14601,"pop":0},{"id":3490328,"name":"Glenroy","lon":-77.28333,"lat":17.96667,"pop":0},{"id":3490326,"name":"Gloster","alt":["Gloster Hall","Gloucester Hall"],"lon":-77.05,"lat":18.25,"pop":0},{"id":3490327,"name":"Gloster","alt":["Gloucester"],"lon":-77.38333,"lat":18.08333,"pop":0},{"id":3490323,"name":"Goat Island","lon":-77.55,"lat":18.26667,"pop":0},{"id":12541570,"name":"Goat Ridge","lon":-76.61455,"lat":17.99356,"pop":0},{"id":3490321,"name":"Godfreys","lon":-77.01667,"lat":18.23333,"pop":0},{"id":3490320,"name":"Gods Well","lon":-77.4,"lat":17.86667,"pop":0},{"id":3490319,"name":"Golden","lon":-77.19497,"lat":18.38457,"pop":0},{"id":3488772,"name":"Golden Grove","lon":-76.25443,"lat":17.90871,"pop":0},{"id":3490313,"name":"Golden Grove","lon":-77.23333,"lat":18.38333,"pop":0},{"id":3490314,"name":"Golden Grove","lon":-78.01469,"lat":18.3557,"pop":0},{"id":3490315,"name":"Golden Grove","alt":["Lydford"],"lon":-77.14705,"lat":18.3245,"pop":0},{"id":3490316,"name":"Golden Grove","lon":-77.18333,"lat":18.23333,"pop":0},{"id":3490317,"name":"Golden Grove","lon":-76.96353,"lat":18.23547,"pop":0},{"id":3490318,"name":"Golden Grove","lon":-76.27254,"lat":17.93361,"pop":3058},{"id":12546961,"name":"Golden River","lon":-76.8883,"lat":18.09459,"pop":0},{"id":3490311,"name":"Golden Spring","lon":-76.80533,"lat":18.0894,"pop":0},{"id":3490310,"name":"Golden Vale","lon":-76.46667,"lat":18.13333,"pop":0},{"id":3490309,"name":"Goldsons Corner","alt":["Coldsome Corner"],"lon":-78.23333,"lat":18.21667,"pop":0},{"id":3490307,"name":"Good Design","lon":-77.55,"lat":18.38333,"pop":0},{"id":3490308,"name":"Good Design","lon":-77.06667,"lat":18.28333,"pop":0},{"id":3490306,"name":"Good Endeavour","lon":-77.35,"lat":18.1,"pop":0},{"id":3490300,"name":"Good Hope","alt":["Good Hope House"],"lon":-77.67825,"lat":18.41789,"pop":0},{"id":3490301,"name":"Good Hope","lon":-78.33796,"lat":18.26492,"pop":0},{"id":3490302,"name":"Good Hope","lon":-78.03333,"lat":18.2,"pop":0},{"id":3490303,"name":"Good Hope","lon":-76.96667,"lat":18.16667,"pop":0},{"id":3490304,"name":"Good Hope","lon":-76.7,"lat":17.98333,"pop":0},{"id":3490296,"name":"Goods Pen","lon":-76.96667,"lat":17.96667,"pop":0},{"id":3490295,"name":"Goodwill","lon":-77.74967,"lat":18.4749,"pop":0},{"id":3490293,"name":"Gordon Town","lon":-76.71783,"lat":18.03578,"pop":1088},{"id":3490294,"name":"Gordons Store","lon":-77.18333,"lat":17.96667,"pop":0},{"id":3490291,"name":"Goshen","lon":-77.02492,"lat":18.30732,"pop":0},{"id":3490292,"name":"Goshen","lon":-77.31034,"lat":18.01233,"pop":0},{"id":3490290,"name":"Goshen Pen","alt":["Goshen","Goshen Farm"],"lon":-76.91667,"lat":17.95,"pop":0},{"id":3490286,"name":"Goulbournes","alt":["Amity Hall","Goulbourne"],"lon":-77.35,"lat":17.95,"pop":0},{"id":3490285,"name":"Government Pen","alt":["Government Park","Government Park Pen"],"lon":-76.93333,"lat":17.95,"pop":0},{"id":3490283,"name":"Gowrie","lon":-77.28333,"lat":17.83333,"pop":0},{"id":3490280,"name":"Grand Cairo","alt":["Watering"],"lon":-77.4,"lat":18.31667,"pop":0},{"id":3490277,"name":"Grandvale","lon":-77.93364,"lat":18.10718,"pop":0},{"id":3490275,"name":"Grange","lon":-78.23688,"lat":18.36802,"pop":0},{"id":3490276,"name":"Grange","lon":-78.07085,"lat":18.3342,"pop":0},{"id":3490273,"name":"Grange Hill","alt":["Gran Hill"],"lon":-78.18431,"lat":18.31062,"pop":0},{"id":3490269,"name":"Grantham","lon":-76.88963,"lat":18.25984,"pop":0},{"id":3490270,"name":"Grantham","lon":-77.3949,"lat":18.15425,"pop":0},{"id":3490271,"name":"Grantham","alt":["Grantham Valley"],"lon":-76.88333,"lat":18.11667,"pop":0},{"id":3490267,"name":"Grants Pen","lon":-76.7833,"lat":18.0333,"pop":0},{"id":9319476,"name":"Grants Pen","lon":-76.63226,"lat":17.91615,"pop":0},{"id":10400168,"name":"Granville","lon":-77.89889,"lat":18.44556,"pop":0},{"id":3490266,"name":"Grasmond","lon":-77.66228,"lat":18.06493,"pop":0},{"id":9295719,"name":"Grasspiece","lon":-77.25444,"lat":18.1609,"pop":0},{"id":3490264,"name":"Gravel Hill","lon":-77.32756,"lat":17.90559,"pop":0},{"id":3490263,"name":"Grays Inn","alt":["Grays Inn Estate","Greys Inn"],"lon":-76.78333,"lat":18.26667,"pop":0},{"id":12541470,"name":"Graysville","alt":["Gray's Ville","Grays Ville"],"lon":-77.7885,"lat":18.25,"pop":0},{"id":3490252,"name":"Great Pond","lon":-77.1,"lat":18.4,"pop":0},{"id":3490244,"name":"Great Valley","lon":-78.06236,"lat":18.40295,"pop":0},{"id":3490245,"name":"Great Valley","lon":-77.51667,"lat":17.88333,"pop":0},{"id":3490238,"name":"Green Castle","lon":-77.30936,"lat":18.42741,"pop":0},{"id":3490239,"name":"Green Castle","lon":-76.81667,"lat":18.28333,"pop":0},{"id":3490241,"name":"Green Castle","lon":-76.31667,"lat":17.91667,"pop":0},{"id":3490233,"name":"Green Hill","lon":-77.34681,"lat":18.32145,"pop":0},{"id":3490232,"name":"Green Hills","alt":["Green Hill"],"lon":-76.71743,"lat":18.09898,"pop":0},{"id":3490230,"name":"Green Island","lon":-78.2738,"lat":18.3892,"pop":0},{"id":3490224,"name":"Green Park","lon":-77.69083,"lat":18.46627,"pop":0},{"id":3490225,"name":"Green Park","lon":-77.1877,"lat":18.35744,"pop":0},{"id":3490226,"name":"Green Park","lon":-77.33571,"lat":18.02812,"pop":0},{"id":3490221,"name":"Green Pond","lon":-77.87424,"lat":18.47247,"pop":0},{"id":3490222,"name":"Green Pond","lon":-77.4341,"lat":17.97994,"pop":0},{"id":3490220,"name":"Green River","lon":-78.2536,"lat":18.35711,"pop":0},{"id":3490217,"name":"Green Rossfield Isle","alt":["Green Ross Field Isles","Ross Isle"],"lon":-76.55,"lat":17.96667,"pop":0},{"id":3490216,"name":"Green Vale","lon":-77.45,"lat":17.95,"pop":0},{"id":3490213,"name":"Green Walk","lon":-77.1,"lat":18.33333,"pop":0},{"id":3490240,"name":"Greencastle","lon":-76.8,"lat":18.31,"pop":0},{"id":3490236,"name":"Greenfield","lon":-77.61667,"lat":18.45,"pop":0},{"id":3490228,"name":"Greenland","lon":-78.18367,"lat":18.41599,"pop":0},{"id":3490227,"name":"Greenock","lon":-77.36667,"lat":18.2,"pop":0},{"id":3490215,"name":"Greenvale","lon":-77.53333,"lat":18.03333,"pop":0},{"id":3490208,"name":"Greenwich","alt":["Greenwich House"],"lon":-77.93351,"lat":18.29793,"pop":0},{"id":3490209,"name":"Greenwich","lon":-78.08333,"lat":18.28333,"pop":0},{"id":3490210,"name":"Greenwich","lon":-77.01982,"lat":18.11061,"pop":0},{"id":3490211,"name":"Greenwich","alt":["Greenwich Camp"],"lon":-76.73333,"lat":18.06667,"pop":0},{"id":3490212,"name":"Greenwich","alt":["Greenwick","Greenwicki"],"lon":-77.26667,"lat":17.8,"pop":0},{"id":3490207,"name":"Greenwich Town","lon":-76.81675,"lat":17.98224,"pop":0},{"id":3490206,"name":"Greenwood","lon":-76.96667,"lat":18.38333,"pop":0},{"id":3490205,"name":"Gregory Park","alt":["Gregory Park Pen"],"lon":-76.88134,"lat":17.99558,"pop":0},{"id":3490202,"name":"Grier Park","lon":-77.18333,"lat":18.28333,"pop":0},{"id":3490203,"name":"Grierfield","lon":-77.13763,"lat":18.27148,"pop":0},{"id":3490201,"name":"Grimett","alt":["Grimmetts"],"lon":-77.31667,"lat":17.85,"pop":0},{"id":9295727,"name":"Gringer Hill","lon":-77.89053,"lat":18.25637,"pop":0},{"id":3490200,"name":"Grossett Village","alt":["Grossett"],"lon":-76.35,"lat":17.93333,"pop":0},{"id":3490199,"name":"Grove Place","lon":-77.51667,"lat":18.11667,"pop":0},{"id":3490197,"name":"Grove Town","lon":-77.47151,"lat":17.90107,"pop":0},{"id":3490194,"name":"Guanaboa Vale","alt":["Guanaboa"],"lon":-77.06895,"lat":18.0381,"pop":0},{"id":12546959,"name":"Guava Ground","lon":-77.22496,"lat":18.12138,"pop":0},{"id":3490193,"name":"Guava Ridge","lon":-76.67672,"lat":18.02702,"pop":0},{"id":3490188,"name":"Guilsbro","alt":["Gilsbro","Guilsboro"],"lon":-77.81492,"lat":18.42726,"pop":0},{"id":3490189,"name":"Guilsbro","lon":-77.8,"lat":18.41667,"pop":0},{"id":3490187,"name":"Guinea Corn","lon":-77.37054,"lat":18.1545,"pop":0},{"id":3490182,"name":"Gunters Hill","lon":-77.33333,"lat":17.88333,"pop":0},{"id":12541812,"name":"Gurney's Mount","lon":-78.04836,"lat":18.40219,"pop":0},{"id":3490180,"name":"Gutters","lon":-77.61182,"lat":18.03545,"pop":0},{"id":3490177,"name":"Guys Hill","lon":-76.99179,"lat":18.24987,"pop":0},{"id":3490176,"name":"Haddersfield","alt":["Huddersfield"],"lon":-77.01667,"lat":18.4,"pop":0},{"id":3490175,"name":"Haddington","lon":-78.00434,"lat":18.42124,"pop":0},{"id":3490174,"name":"Haddon","lon":-77.1,"lat":18.3,"pop":0},{"id":3490172,"name":"Hagley Gap","lon":-76.61762,"lat":18.01718,"pop":0},{"id":3490171,"name":"Halberstadt","alt":["Halberstadt House"],"lon":-76.66667,"lat":17.96667,"pop":0},{"id":3490165,"name":"Half Way Tree","lon":-76.79928,"lat":18.01248,"pop":18552},{"id":3490163,"name":"Halifax","lon":-77.02066,"lat":18.29153,"pop":0},{"id":3490164,"name":"Halifax","lon":-77.55,"lat":18.15,"pop":0},{"id":3490162,"name":"Hall Head","lon":-76.46667,"lat":17.91667,"pop":0},{"id":3490161,"name":"Halls Delight","lon":-76.65979,"lat":18.05089,"pop":0},{"id":3490160,"name":"Hallsfield","alt":["Haltsfield","Hiattsfield"],"lon":-77.08333,"lat":18.36667,"pop":0},{"id":3490159,"name":"Halse Hall","alt":["Halsey Hall"],"lon":-77.23832,"lat":17.93524,"pop":0},{"id":3490148,"name":"Ham Walk","lon":-76.95209,"lat":18.22113,"pop":0},{"id":3490158,"name":"Hamilton Pen","lon":-77.31667,"lat":17.96667,"pop":0},{"id":3490156,"name":"Hampden","lon":-77.74739,"lat":18.44117,"pop":0},{"id":3490154,"name":"Hampstead","alt":["Khehmpsted","Хэмпстед"],"lon":-77.63333,"lat":18.41667,"pop":0},{"id":3490155,"name":"Hampstead","alt":["Khehmpsted","Хэмпстед"],"lon":-76.91691,"lat":18.31048,"pop":0},{"id":3490151,"name":"Hampton","lon":-77.3,"lat":18.46667,"pop":0},{"id":3490152,"name":"Hampton","lon":-77.86667,"lat":18.38333,"pop":0},{"id":3490153,"name":"Hampton","lon":-77.7,"lat":17.95,"pop":0},{"id":3490150,"name":"Hampton Court","lon":-76.26421,"lat":17.91725,"pop":0},{"id":3490147,"name":"Hanbury","lon":-77.48333,"lat":18.06667,"pop":0},{"id":3490146,"name":"Hanover","lon":-77.55,"lat":17.96667,"pop":0},{"id":3490144,"name":"Hansons","lon":-77.5,"lat":18.18333,"pop":0},{"id":3490141,"name":"Happy Grove","alt":["Hazel Grove"],"lon":-77.88431,"lat":18.14164,"pop":0},{"id":3490142,"name":"Happy Grove","lon":-76.86667,"lat":18.03333,"pop":0},{"id":3490143,"name":"Happy Grove","lon":-76.26767,"lat":18.00855,"pop":0},{"id":3490140,"name":"Happy Retreat","lon":-77.08717,"lat":18.37839,"pop":0},{"id":3490138,"name":"Harbour Head","alt":["Harbor Head"],"lon":-76.32531,"lat":17.89665,"pop":0},{"id":3490136,"name":"Harbour View","lon":-76.7171,"lat":17.95336,"pop":0},{"id":3490134,"name":"Hard Bargain","lon":-77.03333,"lat":18.4,"pop":0},{"id":3490131,"name":"Harewood","alt":["Harewood Hall"],"lon":-76.94238,"lat":18.18454,"pop":0},{"id":3490132,"name":"Harewood","lon":-77.26667,"lat":17.95,"pop":0},{"id":6690258,"name":"Harkers Hall","lon":-76.90962,"lat":18.12224,"pop":0},{"id":3490130,"name":"Harmons","lon":-77.42208,"lat":17.9806,"pop":0},{"id":3490125,"name":"Harmony Hall","lon":-77.51667,"lat":18.46667,"pop":0},{"id":3490126,"name":"Harmony Hall","lon":-76.88882,"lat":18.28526,"pop":0},{"id":3490127,"name":"Harmony Hall","alt":["Harmony Hill"],"lon":-77.26667,"lat":17.78333,"pop":0},{"id":3490128,"name":"Harmony Hall","alt":["Harmony Hall Pen"],"lon":-77.21667,"lat":17.76667,"pop":0},{"id":3490123,"name":"Harmony Hill","lon":-77.16317,"lat":18.3287,"pop":0},{"id":3487941,"name":"Harmony Vale","alt":["Glenfield Pen","Penny"],"lon":-77.20467,"lat":18.26697,"pop":0},{"id":3490118,"name":"Harry Watch","lon":-77.56667,"lat":18.16667,"pop":0},{"id":3490116,"name":"Hart Hill","lon":-76.68242,"lat":18.25242,"pop":0},{"id":3490117,"name":"Hartford","alt":["Hertford"],"lon":-78.09089,"lat":18.25834,"pop":0},{"id":3490114,"name":"Hatfield","lon":-77.53082,"lat":18.02709,"pop":0},{"id":3490113,"name":"Haughton","alt":["Houghton"],"lon":-77.75,"lat":18.1,"pop":0},{"id":3490112,"name":"Haughton Court","lon":-78.2036,"lat":18.442,"pop":0},{"id":3490111,"name":"Haughton Grove","lon":-77.96529,"lat":18.34556,"pop":0},{"id":3490110,"name":"Haughton Hall","lon":-78.28333,"lat":18.38333,"pop":0},{"id":3490106,"name":"Hayes","lon":-77.23711,"lat":17.87569,"pop":9701},{"id":3490103,"name":"Hayfield","lon":-76.53333,"lat":18.2,"pop":0},{"id":3490104,"name":"Hayfield","lon":-77.07647,"lat":18.18793,"pop":0},{"id":3490102,"name":"Hazard","lon":-77.2258,"lat":17.9489,"pop":0},{"id":12541707,"name":"Hazelymph","lon":-77.9218,"lat":18.3348,"pop":0},{"id":3490100,"name":"Heart Ease","alt":["Hearts Ease"],"lon":-76.58162,"lat":17.90155,"pop":0},{"id":3490099,"name":"Heartherfield","alt":["Netherfield"],"lon":-77.28,"lat":17.82,"pop":0},{"id":3490096,"name":"Heathfield","alt":["Healthfield"],"lon":-77.0319,"lat":18.13341,"pop":0},{"id":3490097,"name":"Heathfield","alt":["Healthfield"],"lon":-77.28333,"lat":17.81667,"pop":0},{"id":3490095,"name":"Heavitree","alt":["Heawtree"],"lon":-77.57573,"lat":18.19074,"pop":0},{"id":3490094,"name":"Hectors River","lon":-76.26358,"lat":18.00424,"pop":0},{"id":3490092,"name":"Helicon","lon":-77.40655,"lat":18.44395,"pop":0},{"id":3490084,"name":"Hermitage","lon":-77.90075,"lat":18.27293,"pop":0},{"id":3490085,"name":"Hermitage","alt":["Hermitage House"],"lon":-77.69688,"lat":17.9411,"pop":0},{"id":3490086,"name":"Hermitage","lon":-77.45345,"lat":17.92635,"pop":0},{"id":3490081,"name":"Hesse Cassel","lon":-77.30282,"lat":18.26034,"pop":0},{"id":3490080,"name":"Heywood Hall","lon":-76.87985,"lat":18.3166,"pop":0},{"id":3490079,"name":"Hibernia","lon":-77.56667,"lat":18.15,"pop":0},{"id":3490078,"name":"Higgin Town","alt":["Higgins Town"],"lon":-77.2064,"lat":18.38149,"pop":0},{"id":3490076,"name":"Highgate","alt":["Highgate Village"],"lon":-76.89348,"lat":18.27239,"pop":0},{"id":3490077,"name":"Highgate","alt":["Highgate Park"],"lon":-76.9502,"lat":18.08693,"pop":0},{"id":3490072,"name":"Highland Castle","lon":-76.43333,"lat":17.91667,"pop":0},{"id":3490064,"name":"Hill Top","lon":-77.80851,"lat":17.95852,"pop":0},{"id":12541813,"name":"Hills Brook","lon":-78.08617,"lat":18.37,"pop":0},{"id":3490067,"name":"Hillsborough","lon":-76.88426,"lat":18.08214,"pop":0},{"id":3490065,"name":"Hillside","lon":-76.47861,"lat":17.96885,"pop":0},{"id":3490066,"name":"Hillside","lon":-77.21667,"lat":17.83333,"pop":0},{"id":3490063,"name":"Hinds Town","lon":-77.11667,"lat":18.35,"pop":0},{"id":3490062,"name":"Hodges","lon":-77.88333,"lat":18.05,"pop":0},{"id":3490058,"name":"Hog Hole","lon":-76.98333,"lat":18.01667,"pop":0},{"id":3490059,"name":"Hog Hole","lon":-77.43333,"lat":17.95,"pop":0},{"id":3490049,"name":"Holland","lon":-77.80902,"lat":18.10387,"pop":0},{"id":3490050,"name":"Holland","lon":-76.23333,"lat":17.95,"pop":0},{"id":3490047,"name":"Holland Park","alt":["Holland Moro"],"lon":-76.26667,"lat":17.96667,"pop":0},{"id":3490044,"name":"Holyland Corner","alt":["Cabbage Hall"],"lon":-77.4,"lat":18.1,"pop":0},{"id":3490043,"name":"Home Castle","lon":-77.41667,"lat":18.41667,"pop":0},{"id":3490034,"name":"Hope","lon":-77.45,"lat":18.05,"pop":0},{"id":3490035,"name":"Hope","alt":["Hope Maxhams"],"lon":-77.01667,"lat":18.03333,"pop":0},{"id":3490036,"name":"Hope","alt":["Hope Gardens","Hopehouse"],"lon":-76.74109,"lat":18.01865,"pop":0},{"id":3490037,"name":"Hope","lon":-77.34877,"lat":18.02075,"pop":0},{"id":3490038,"name":"Hope","lon":-77.55,"lat":17.98333,"pop":0},{"id":3490031,"name":"Hope Bay","alt":["Hope"],"lon":-76.56539,"lat":18.19882,"pop":1666},{"id":3490029,"name":"Hope Hall","lon":-78.18333,"lat":18.41667,"pop":0},{"id":12541909,"name":"Hope Hill","lon":-76.75377,"lat":18.1936,"pop":0},{"id":3490028,"name":"Hope Pastures","lon":-76.75714,"lat":18.02379,"pop":0},{"id":3490030,"name":"Hopefield","lon":-76.56667,"lat":18.2,"pop":0},{"id":3490023,"name":"Hopeton","lon":-77.88333,"lat":18.38333,"pop":0},{"id":3490024,"name":"Hopeton","lon":-76.7,"lat":18.18333,"pop":0},{"id":3490025,"name":"Hopeton","alt":["Hopeton House"],"lon":-77.94691,"lat":18.16784,"pop":0},{"id":3490026,"name":"Hopeton","lon":-77.66667,"lat":17.96025,"pop":0},{"id":3490014,"name":"Hopewell","lon":-78.01534,"lat":18.4538,"pop":0},{"id":3490015,"name":"Hopewell","lon":-77.4,"lat":18.45,"pop":0},{"id":3490016,"name":"Hopewell","lon":-78.13333,"lat":18.43333,"pop":0},{"id":3490017,"name":"Hopewell","lon":-77.0911,"lat":18.33147,"pop":0},{"id":3490018,"name":"Hopewell","lon":-78.3,"lat":18.25,"pop":0},{"id":3490019,"name":"Hopewell","lon":-76.72044,"lat":18.05635,"pop":0},{"id":3490020,"name":"Hopewell","lon":-77.77807,"lat":17.94945,"pop":0},{"id":3490021,"name":"Hopewell","lon":-77.43333,"lat":17.93333,"pop":0},{"id":3490022,"name":"Hopewell","lon":-77.3,"lat":17.93333,"pop":0},{"id":3490013,"name":"Hopewell Hall","lon":-76.33333,"lat":17.93333,"pop":0},{"id":3490012,"name":"Hordley","alt":["Hardley"],"lon":-76.26667,"lat":17.95,"pop":0},{"id":12535151,"name":"Horseguards","alt":["Horse Guards"],"lon":-77.81474,"lat":18.29245,"pop":0},{"id":3490001,"name":"Huntley","alt":["Huntley Pen"],"lon":-77.35173,"lat":18.40456,"pop":0},{"id":3490002,"name":"Huntley","alt":["Huntly"],"lon":-77.58333,"lat":18.06667,"pop":0},{"id":3490003,"name":"Huntley","lon":-76.48333,"lat":17.93333,"pop":0},{"id":3490000,"name":"Huntley Village","lon":-77.36807,"lat":18.39917,"pop":0},{"id":3489998,"name":"Hunts Pen","lon":-77.22683,"lat":17.93347,"pop":0},{"id":3489997,"name":"Huntstown","lon":-76.96667,"lat":18.35,"pop":0},{"id":12534957,"name":"Hurlock","lon":-77.86193,"lat":18.43648,"pop":0},{"id":3489996,"name":"Hutchensons Hale","alt":["Hutchensons Hole"],"lon":-77.21667,"lat":18.25,"pop":0},{"id":3489995,"name":"Hutchensons Turret","lon":-77.21667,"lat":18.26667,"pop":0},{"id":3489994,"name":"Hyde and Gibraltar","alt":["Hyde"],"lon":-77.53532,"lat":18.40552,"pop":0},{"id":3489993,"name":"Hyde Hall","lon":-77.56667,"lat":18.43333,"pop":0},{"id":3489984,"name":"Industry","lon":-77.8,"lat":18.43333,"pop":0},{"id":3489985,"name":"Industry","lon":-77.24829,"lat":18.38413,"pop":0},{"id":3489986,"name":"Industry","lon":-76.53052,"lat":18.16948,"pop":0},{"id":3489987,"name":"Industry","lon":-77.4,"lat":18.13333,"pop":0},{"id":3489977,"name":"Innswood","lon":-77.01987,"lat":17.98229,"pop":0},{"id":3489975,"name":"Inverness","lon":-77.36131,"lat":18.27658,"pop":0},{"id":3489976,"name":"Inverness","lon":-77.17096,"lat":17.93577,"pop":0},{"id":3489973,"name":"Ipswich","lon":-76.7,"lat":18.21667,"pop":0},{"id":3489974,"name":"Ipswich","lon":-77.80975,"lat":18.20442,"pop":0},{"id":3489970,"name":"Irish Town","lon":-76.72344,"lat":18.04931,"pop":0},{"id":3489967,"name":"Ironshore","lon":-77.8637,"lat":18.51736,"pop":0},{"id":3489966,"name":"Irwin","lon":-77.88092,"lat":18.45612,"pop":0},{"id":3489964,"name":"Isle","alt":["Isles"],"lon":-77.53333,"lat":17.95,"pop":0},{"id":3489961,"name":"Islington","lon":-77.13333,"lat":18.35,"pop":0},{"id":3489962,"name":"Islington","lon":-76.85482,"lat":18.30922,"pop":2958},{"id":3489963,"name":"Islington","lon":-76.34445,"lat":18.13052,"pop":0},{"id":3489960,"name":"Iter Boreale","alt":["Inter Boreale"],"lon":-76.74839,"lat":18.27028,"pop":0},{"id":3489959,"name":"Iver Cottage","alt":["Iver"],"lon":-77.7133,"lat":17.95756,"pop":0},{"id":3489958,"name":"Ivy Mount","lon":-77.08333,"lat":18.2,"pop":0},{"id":3489955,"name":"Jack Monday","lon":-77.26667,"lat":17.96667,"pop":0},{"id":3489950,"name":"Jacks Hill","lon":-76.75478,"lat":18.03652,"pop":0},{"id":3489948,"name":"Jacks Lodge","lon":-77.33333,"lat":18.26667,"pop":0},{"id":3489954,"name":"Jacks River","alt":["Jack Lodge","Jack River","Jack's Lodge","Jack's River"],"lon":-76.94408,"lat":18.38087,"pop":0},{"id":3489943,"name":"Jacks Rock","lon":-76.8,"lat":18.26667,"pop":0},{"id":3489945,"name":"Jackson Town","lon":-77.48741,"lat":18.41525,"pop":0},{"id":3489944,"name":"Jackson Village","alt":["Jackson's Village"],"lon":-76.96704,"lat":18.09483,"pop":0},{"id":3489946,"name":"Jacksons Bay","lon":-77.23653,"lat":17.7424,"pop":0},{"id":3489938,"name":"James Hill","lon":-77.34478,"lat":18.18422,"pop":0},{"id":3489937,"name":"Jane Marks","alt":["Jane Marks Village"],"lon":-78.13333,"lat":18.26667,"pop":0},{"id":3489935,"name":"Java","lon":-77.46667,"lat":17.93333,"pop":0},{"id":3489934,"name":"Jeffrey Town","alt":["Jefferey Town","Victoria Town"],"lon":-77.01667,"lat":18.28333,"pop":0},{"id":3489583,"name":"Jenny Pond Run","alt":["Manchioneal"],"lon":-77.75,"lat":17.88333,"pop":0},{"id":3489930,"name":"Jericho","lon":-78.12962,"lat":18.42839,"pop":0},{"id":3489931,"name":"Jericho","lon":-77.85208,"lat":18.32965,"pop":0},{"id":3489932,"name":"Jericho","lon":-77.06611,"lat":18.16019,"pop":0},{"id":3489929,"name":"Jerusalem","lon":-78.23333,"lat":18.31667,"pop":0},{"id":3489928,"name":"Jew Hill","lon":-78.15,"lat":18.43333,"pop":0},{"id":12547104,"name":"Joe Ground","lon":-77.1623,"lat":18.0417,"pop":0},{"id":3489916,"name":"Johns Hall","lon":-77.85273,"lat":18.4195,"pop":0},{"id":3489917,"name":"Johns Hall","lon":-77.4,"lat":18.3,"pop":0},{"id":3489918,"name":"Johns Hall","lon":-77.37506,"lat":18.17478,"pop":0},{"id":3489919,"name":"Johns Hall","lon":-77.5833,"lat":18.1167,"pop":0},{"id":3489920,"name":"Johns Hall","lon":-76.46914,"lat":18.10239,"pop":0},{"id":3489915,"name":"Johns Lodge","lon":-77.73333,"lat":17.96667,"pop":0},{"id":3489907,"name":"Johns Town","lon":-76.36473,"lat":17.88767,"pop":0},{"id":12541538,"name":"Johnson District","alt":["Johnson"],"lon":-77.8239,"lat":18.2588,"pop":0},{"id":3489914,"name":"Johnson Mountain","lon":-76.31616,"lat":17.96818,"pop":0},{"id":3489911,"name":"Johnson Town","alt":["Johnsons Town","Johnston Town"],"lon":-78.16521,"lat":18.43732,"pop":0},{"id":3489909,"name":"Johnston Pen","lon":-77.55,"lat":18.46667,"pop":0},{"id":3489908,"name":"Johnston Village","lon":-77.25,"lat":18.4,"pop":0},{"id":3489906,"name":"Jointwood","lon":-77.78655,"lat":18.21094,"pop":0},{"id":3489905,"name":"Jones Moreland","lon":-78.26667,"lat":18.31667,"pop":0},{"id":3489903,"name":"Jones Pen","lon":-78.31667,"lat":18.26667,"pop":0},{"id":3489904,"name":"Jones Pen","lon":-76.93333,"lat":17.98333,"pop":0},{"id":3489901,"name":"Jones Town","lon":-76.8,"lat":17.98333,"pop":0},{"id":3489894,"name":"Junction","lon":-77.61164,"lat":17.90894,"pop":0},{"id":3489892,"name":"Kan Pan","lon":-77.91667,"lat":18.26667,"pop":0},{"id":3489891,"name":"Katram Castle","lon":-77.03333,"lat":18.25,"pop":0},{"id":3489890,"name":"Keanwood","lon":-77.61667,"lat":18.2,"pop":0},{"id":3489889,"name":"Keith","lon":-77.40676,"lat":18.40971,"pop":0},{"id":3489888,"name":"Kellits","alt":["Kellets","Kellitts"],"lon":-77.23083,"lat":18.17278,"pop":2631},{"id":12547105,"name":"Kellits","alt":["Kellitts"],"lon":-77.2545,"lat":18.0526,"pop":0},{"id":12547257,"name":"Kellits - Part of","lon":-77.24386,"lat":18.163,"pop":0},{"id":3489885,"name":"Kemps Hill","lon":-77.28965,"lat":17.85892,"pop":0},{"id":3489883,"name":"Kempshot","lon":-78.12797,"lat":18.39616,"pop":0},{"id":3489884,"name":"Kempshot","lon":-77.86667,"lat":18.06667,"pop":0},{"id":3489882,"name":"Kencot","lon":-76.79698,"lat":17.99916,"pop":0},{"id":3489881,"name":"Kendal","lon":-77.4815,"lat":18.08721,"pop":0},{"id":3489876,"name":"Kennedys","lon":-77.2,"lat":17.95,"pop":0},{"id":3489872,"name":"Kensington","alt":["Кенсингтон"],"lon":-77.33333,"lat":18.33333,"pop":0},{"id":3489873,"name":"Kensington","alt":["Кенсингтон"],"lon":-76.58333,"lat":18.18333,"pop":0},{"id":3489874,"name":"Kensington","alt":["Кенсингтон"],"lon":-77.65,"lat":17.9,"pop":0},{"id":12541796,"name":"Kensington","lon":-77.8266,"lat":18.3684,"pop":0},{"id":3489871,"name":"Kent","lon":-77.73483,"lat":18.48431,"pop":0},{"id":3489869,"name":"Kent Village","lon":-76.99265,"lat":18.08764,"pop":0},{"id":3489870,"name":"Kentish","lon":-77.16023,"lat":18.09127,"pop":0},{"id":3489868,"name":"Kepham","lon":-78.03333,"lat":18.25,"pop":0},{"id":3489867,"name":"Keppoch","lon":-77.38333,"lat":18.31667,"pop":0},{"id":12547005,"name":"Kerr Land","lon":-77.8806,"lat":18.4172,"pop":0},{"id":3489865,"name":"Kew","lon":-78.14854,"lat":18.43941,"pop":0},{"id":3489866,"name":"Kew","lon":-76.66667,"lat":18.16667,"pop":0},{"id":3489863,"name":"Kew Park","lon":-77.94168,"lat":18.29083,"pop":0},{"id":12541873,"name":"Keys","alt":["Cays","Kays","Quays"],"lon":-77.1777,"lat":18.0442,"pop":0},{"id":3489862,"name":"Kilbies","lon":-77.06667,"lat":17.95,"pop":0},{"id":3489860,"name":"Kildare","lon":-76.65,"lat":18.23333,"pop":0},{"id":3489861,"name":"Kildare","lon":-77.75,"lat":17.96667,"pop":0},{"id":3489859,"name":"Kilmarnoch","lon":-77.92314,"lat":18.13151,"pop":0},{"id":3489858,"name":"Kilmorey","lon":-77.9,"lat":18.05,"pop":0},{"id":12547001,"name":"Kilsyth","lon":-77.38931,"lat":18.15065,"pop":0},{"id":3489855,"name":"Kings Pen","alt":["Kings"],"lon":-77.96667,"lat":18.08333,"pop":0},{"id":3489849,"name":"Kings Valley","lon":-78.19163,"lat":18.33035,"pop":0},{"id":3489854,"name":"Kingston","alt":["KIN","Kin'nkston","Kingstono","jing si dui","kingseuteon","kingusuton","kyngstwn","Κίνγκστον","Кингстон","کینگستون","キングストン","京斯敦","킹스턴"],"lon":-76.79358,"lat":17.99702,"pop":937700},{"id":3489850,"name":"Kingsvale","lon":-78.19844,"lat":18.38376,"pop":0},{"id":3489847,"name":"Kingswood","alt":["Kingwood"],"lon":-78.13333,"lat":18.23333,"pop":0},{"id":3489846,"name":"Kinloss","alt":["Kinloss Village"],"lon":-77.56667,"lat":18.4,"pop":0},{"id":9260791,"name":"Kintyer District","lon":-76.73624,"lat":18.01632,"pop":0},{"id":3489845,"name":"Kirklands","lon":-76.83333,"lat":18.05,"pop":0},{"id":3489844,"name":"Kirkpatrick Hall","lon":-77.83333,"lat":18.45,"pop":0},{"id":3489842,"name":"Kitson Town","lon":-77.05118,"lat":18.01739,"pop":0},{"id":3489841,"name":"Knapdale","lon":-77.33333,"lat":18.4,"pop":0},{"id":3489840,"name":"Knights","lon":-77.29,"lat":17.8,"pop":0},{"id":3489839,"name":"Knockalva","lon":-77.99606,"lat":18.32775,"pop":0},{"id":3489838,"name":"Knockpatrick","lon":-77.50563,"lat":17.99258,"pop":0},{"id":3489837,"name":"Knollis","alt":["Knowles"],"lon":-76.99427,"lat":18.11585,"pop":0},{"id":3489833,"name":"Knutsford","lon":-77.36667,"lat":18.35,"pop":0},{"id":3489832,"name":"Konigsberg","alt":["Koeningsburg","Konigsburg","Konigsburgh","Koningsberg","Koningsbergh","Koningsburgh"],"lon":-76.86667,"lat":18.23333,"pop":0},{"id":3489831,"name":"Kupuis","lon":-77.29733,"lat":18.11351,"pop":0},{"id":12547057,"name":"Kyle","lon":-77.46133,"lat":18.15427,"pop":0},{"id":3489830,"name":"Labyrinth","lon":-77.03038,"lat":18.35081,"pop":0},{"id":3489829,"name":"Lacovia","lon":-77.75059,"lat":18.0721,"pop":3187},{"id":3488256,"name":"Lacovia Tombstone","alt":["Tombstone"],"lon":-77.77235,"lat":18.08679,"pop":0},{"id":12541905,"name":"Lady Hume","lon":-77.37811,"lat":18.10849,"pop":0},{"id":3489823,"name":"Lambs River","lon":-77.91667,"lat":18.25,"pop":0},{"id":12547079,"name":"Lampart","alt":["Lampard"],"lon":-77.35652,"lat":18.15116,"pop":0},{"id":3489818,"name":"Lancaster","lon":-77.51667,"lat":18.46667,"pop":0},{"id":3489819,"name":"Lancaster","lon":-77.63106,"lat":18.12291,"pop":0},{"id":3489820,"name":"Lancaster","lon":-77.4621,"lat":17.93652,"pop":0},{"id":3489814,"name":"Lance Wood Valley","lon":-77.18333,"lat":17.93333,"pop":0},{"id":3489816,"name":"Lances Bay","alt":["Lances Bay Pen"],"lon":-78.21724,"lat":18.4427,"pop":0},{"id":3489813,"name":"Langley","lon":-76.91658,"lat":18.32359,"pop":0},{"id":3489812,"name":"Laughlands","alt":["Laughland"],"lon":-77.25631,"lat":18.45596,"pop":0},{"id":3489809,"name":"Lawrence Tavern","lon":-76.85148,"lat":18.13098,"pop":0},{"id":3489807,"name":"Leamington","lon":-77.93809,"lat":18.21007,"pop":0},{"id":3489806,"name":"Lebanon","lon":-76.67961,"lat":18.0538,"pop":0},{"id":3489804,"name":"Leeds","lon":-77.68783,"lat":18.01822,"pop":0},{"id":3489801,"name":"Leicesterfields","alt":["Leicesterfield"],"lon":-77.3904,"lat":18.1406,"pop":0},{"id":3489799,"name":"Leith Hall","lon":-76.33735,"lat":17.8773,"pop":0},{"id":3489796,"name":"Lennansville","lon":-77.11944,"lat":17.94628,"pop":0},{"id":3489795,"name":"Lennox","alt":["Lenox"],"lon":-76.6,"lat":18.21667,"pop":0},{"id":3489794,"name":"Lenox","alt":["Lennox"],"lon":-77.94457,"lat":18.18295,"pop":0},{"id":3489793,"name":"Leogan","alt":["Leagon"],"lon":-77.83333,"lat":18.46667,"pop":0},{"id":3489792,"name":"Lethe","lon":-77.96719,"lat":18.39327,"pop":0},{"id":3489790,"name":"Lewis","lon":-77.2455,"lat":18.43795,"pop":0},{"id":3489789,"name":"Lewis Store","lon":-76.83328,"lat":18.24711,"pop":0},{"id":3489788,"name":"Lewis Town","lon":-77.89619,"lat":18.05889,"pop":0},{"id":12534960,"name":"Leyden","alt":["Laden","Layden"],"lon":-77.8082,"lat":18.4071,"pop":0},{"id":3489787,"name":"Leyton Valley","lon":-76.61667,"lat":18.23333,"pop":0},{"id":3489786,"name":"Liberty Castle","lon":-76.9379,"lat":18.41095,"pop":0},{"id":3489783,"name":"Liberty Hill","lon":-77.23333,"lat":17.76667,"pop":0},{"id":3489782,"name":"Liberty Valley","lon":-77.36667,"lat":18.4,"pop":0},{"id":3489781,"name":"Liguanea","lon":-76.76435,"lat":18.01761,"pop":0},{"id":3489778,"name":"Lilliput","lon":-77.63651,"lat":18.15066,"pop":0},{"id":3489775,"name":"Lima","lon":-77.7811,"lat":18.44093,"pop":0},{"id":3489770,"name":"Lime Hall","lon":-77.20651,"lat":18.40519,"pop":0},{"id":3489771,"name":"Lime Hall","lon":-77.2,"lat":18.06667,"pop":0},{"id":3489767,"name":"Lime Tree Garden","lon":-77.38898,"lat":18.34275,"pop":0},{"id":3489766,"name":"Limetree Valley","lon":-77.21667,"lat":18.3,"pop":0},{"id":8062858,"name":"Limit","lon":-77.47121,"lat":18.15287,"pop":2321},{"id":3489765,"name":"Lincoln","lon":-77.55772,"lat":18.02616,"pop":0},{"id":3489764,"name":"Lindale Pen","alt":["Lindale","Lyndale"],"lon":-77.4,"lat":18.38333,"pop":0},{"id":3489763,"name":"Lindos Gap","lon":-76.71375,"lat":17.99408,"pop":0},{"id":3489760,"name":"Linstead","lon":-77.03171,"lat":18.13683,"pop":20660},{"id":3489758,"name":"Lionel Town","lon":-77.24061,"lat":17.81007,"pop":5362},{"id":3489757,"name":"Litchfield","alt":["Lichfield"],"lon":-77.5,"lat":18.25,"pop":0},{"id":3489755,"name":"Lititz","alt":["Lelitz","Letitz","Lilitz"],"lon":-77.5743,"lat":17.94293,"pop":0},{"id":3489754,"name":"Little Angels","alt":["Little Angles"],"lon":-76.96667,"lat":18.06667,"pop":0},{"id":3489750,"name":"Little Bay","alt":["Brighton"],"lon":-78.26588,"lat":18.2209,"pop":0},{"id":3489748,"name":"Little Broughton","alt":["Broughton"],"lon":-78.22503,"lat":18.22682,"pop":0},{"id":3489746,"name":"Little Ease","lon":-77.80593,"lat":18.46681,"pop":0},{"id":12547002,"name":"Little Hazard","alt":["Little Hazzard"],"lon":-77.21966,"lat":17.9495,"pop":0},{"id":3489741,"name":"Little London","lon":-78.21641,"lat":18.2483,"pop":0},{"id":3489739,"name":"Little Mountain","lon":-77.38333,"lat":17.9,"pop":0},{"id":3489738,"name":"Little Park","lon":-77.71591,"lat":17.90641,"pop":0},{"id":3489731,"name":"Little River","lon":-77.80969,"lat":18.52138,"pop":0},{"id":3489726,"name":"Little Spring Garden","alt":["Spring Garden"],"lon":-76.5333,"lat":18.1833,"pop":0},{"id":3489723,"name":"Llandewey","alt":["Llhandewey"],"lon":-76.61114,"lat":17.96228,"pop":0},{"id":3489721,"name":"Llandilo","alt":["Llanaillo","Llandillo","Llanoilo"],"lon":-78.14348,"lat":18.2301,"pop":0},{"id":3489719,"name":"Llandovery","lon":-77.26667,"lat":18.46667,"pop":0},{"id":3489718,"name":"Llanrumney","alt":["Lianrunney","Llanrunney"],"lon":-76.89071,"lat":18.33495,"pop":0},{"id":3489716,"name":"Lloyds","lon":-76.54749,"lat":17.9011,"pop":0},{"id":3489715,"name":"Lloyds Pen","lon":-76.58217,"lat":17.87535,"pop":0},{"id":3489714,"name":"Lluidas Vale","alt":["Luidas Vale"],"lon":-77.14823,"lat":18.12587,"pop":3163},{"id":3489710,"name":"Lochaber","lon":-77.46667,"lat":18.01667,"pop":0},{"id":3489708,"name":"Lodge","lon":-77.05665,"lat":18.37917,"pop":0},{"id":3489707,"name":"Lodge Bush","lon":-78.11667,"lat":18.3,"pop":0},{"id":3489706,"name":"Logan Castle","lon":-77.03333,"lat":18.13333,"pop":0},{"id":3489705,"name":"Logans Junction","lon":-77.25808,"lat":17.97064,"pop":0},{"id":3489704,"name":"Logens Pen","lon":-77.13333,"lat":17.93333,"pop":0},{"id":3489703,"name":"Logie Green","lon":-77.41667,"lat":18.15,"pop":0},{"id":3489702,"name":"Logwood","lon":-78.29436,"lat":18.35113,"pop":0},{"id":3489693,"name":"Long Bay","alt":["Long Bay Village"],"lon":-76.31511,"lat":18.09732,"pop":0},{"id":12535289,"name":"Long Bay","lon":-77.75139,"lat":18.51125,"pop":0},{"id":12547107,"name":"Long Bough","alt":["Long Bow","Longbough"],"lon":-77.40616,"lat":18.20016,"pop":0},{"id":3489691,"name":"Long Hill","lon":-77.65,"lat":18.01667,"pop":0},{"id":6690261,"name":"Long Hill","lon":-76.91554,"lat":18.13688,"pop":0},{"id":9735801,"name":"Long Mountain Country Club","lon":-76.761,"lat":17.99873,"pop":0},{"id":3489687,"name":"Long Pond","lon":-77.5416,"lat":18.42335,"pop":0},{"id":3489685,"name":"Long Pond Pen","lon":-78.21667,"lat":18.23333,"pop":0},{"id":9316857,"name":"Long Road","lon":-76.27885,"lat":18.02465,"pop":0},{"id":12541914,"name":"Long Road Village","alt":["Long Road"],"lon":-76.7503,"lat":18.2114,"pop":0},{"id":3489678,"name":"Long Wood","lon":-77.28333,"lat":17.81667,"pop":0},{"id":3489700,"name":"Longacre","lon":-77.9,"lat":18.03333,"pop":0},{"id":3489680,"name":"Longville","lon":-77.21606,"lat":18.0185,"pop":0},{"id":12546943,"name":"Longville Estate","lon":-77.18788,"lat":18.01001,"pop":0},{"id":3489679,"name":"Longville Park","lon":-77.153,"lat":17.90561,"pop":0},{"id":3489676,"name":"Look Out","lon":-76.89392,"lat":18.39385,"pop":0},{"id":3489677,"name":"Lookout","lon":-77.63333,"lat":18.13333,"pop":0},{"id":3489674,"name":"Lottery","lon":-77.61667,"lat":18.45,"pop":0},{"id":3489675,"name":"Lottery","lon":-77.81778,"lat":18.40957,"pop":0},{"id":12535056,"name":"Louisiana","lon":-76.9242,"lat":18.2519,"pop":0},{"id":3489670,"name":"Lovers Leap","lon":-77.65,"lat":17.86667,"pop":0},{"id":3489661,"name":"Low Ground Pen","lon":-77.18333,"lat":17.96667,"pop":0},