[{"id":7521823,"name":"Abaiang Village","lon":-160.36597,"lat":4.68883,"pop":91},{"id":2110133,"name":"Abamakoro Village","lon":174.24865,"lat":-0.54652,"pop":210},{"id":2110285,"name":"Abaokoro Village","lon":173.01528,"lat":1.49702,"pop":294},{"id":7601778,"name":"Abarao Village","alt":["Bangantebure"],"lon":173.10965,"lat":1.36301,"pop":908},{"id":2110282,"name":"Abatao Village","lon":173.11836,"lat":1.39914,"pop":421},{"id":7576769,"name":"Abatiku Village","lon":173.77701,"lat":0.38843,"pop":191},{"id":2110210,"name":"Aiaki","alt":["Ijaki"],"lon":175.61507,"lat":-1.89417,"pop":186},{"id":2110056,"name":"Aiwa Village","lon":174.90226,"lat":-1.38825,"pop":145},{"id":7601765,"name":"Ambo Village","lon":173.04259,"lat":1.35317,"pop":1688},{"id":2110275,"name":"Antai Village","lon":173.28219,"lat":2.03773,"pop":165},{"id":7601779,"name":"Antebuka Village","lon":173.02698,"lat":1.34009,"pop":390},{"id":2110110,"name":"Antereen Village","alt":["Tabiang","Tapiang"],"lon":169.52841,"lat":-0.86451,"pop":108},{"id":7576839,"name":"Aobike Village","lon":173.05351,"lat":0.98483,"pop":98},{"id":7577004,"name":"Aoneaba Village","lon":173.01948,"lat":1.71895,"pop":48},{"id":2110274,"name":"Aoniman Village","lon":175.98555,"lat":-1.30923,"pop":101},{"id":2110273,"name":"Aonobuaka Village","alt":["Aonobuaba","Aonobuaka"],"lon":172.98506,"lat":1.87901,"pop":372},{"id":7521883,"name":"Aontena Gilberts Village","lon":-159.36083,"lat":3.85049,"pop":177},{"id":7521827,"name":"Arabata Village","lon":-160.39743,"lat":4.67951,"pop":190},{"id":7521843,"name":"Aramari Gilberts Village","lon":-159.32555,"lat":3.81773,"pop":358},{"id":2110265,"name":"Aubeangai","alt":["Aubeanai","Aubeanau"],"lon":174.45274,"lat":-0.68601,"pop":0},{"id":2110262,"name":"Autokia Village","alt":["Autokia","Autukia"],"lon":175.97009,"lat":-1.29682,"pop":204},{"id":2110260,"name":"Autukia Village","lon":174.43715,"lat":-0.65078,"pop":163},{"id":7576851,"name":"Bainuna Village","lon":173.29798,"lat":1.98638,"pop":246},{"id":7601762,"name":"Bairiki Village","alt":["Bairiki"],"lon":172.97522,"lat":1.32924,"pop":2766},{"id":7576334,"name":"Bakaka Village","lon":175.9798,"lat":-2.50016,"pop":559},{"id":7576338,"name":"Bakarawa Village","lon":175.9876,"lat":-2.51001,"pop":152},{"id":11185878,"name":"Banana","lon":-157.39361,"lat":1.96865,"pop":0},{"id":7521903,"name":"Banana Village","lon":-157.36526,"lat":1.98329,"pop":1170},{"id":7576545,"name":"Bangai Village","lon":174.87231,"lat":-1.35622,"pop":35},{"id":7576781,"name":"Bangotantekabaia Village","lon":173.92731,"lat":0.37881,"pop":336},{"id":2110254,"name":"Banraeaba Village","alt":["Banraeaba","Banreaba"],"lon":173.03464,"lat":1.3454,"pop":1789},{"id":7576335,"name":"Barebuka Village","lon":175.96983,"lat":-2.49252,"pop":164},{"id":2110253,"name":"Baretoa Village","alt":["Baretoa","SILAS"],"lon":173.90597,"lat":0.43012,"pop":310},{"id":7576712,"name":"Baurua Village","lon":173.61556,"lat":0.1272,"pop":329},{"id":2110166,"name":"Benuaroa Village","lon":174.30848,"lat":-0.56369,"pop":162},{"id":7576471,"name":"Betania Village","lon":-159.38612,"lat":3.89526,"pop":260},{"id":2110248,"name":"Betio Village","lon":172.92105,"lat":1.35797,"pop":12509},{"id":7576955,"name":"Bikati Village","lon":172.68804,"lat":3.26,"pop":203},{"id":7576772,"name":"Bike Village","lon":173.84823,"lat":0.34478,"pop":17},{"id":7601774,"name":"Bikenibeu Village","lon":173.12415,"lat":1.3673,"pop":6170},{"id":2110239,"name":"Binoinano","alt":["SIDNEY WW2"],"lon":173.91622,"lat":0.40868,"pop":369},{"id":7601768,"name":"Bonriki Village","lon":173.13887,"lat":1.38081,"pop":2119},{"id":2110235,"name":"Borotiam Village","alt":["Borotiam","Borotium"],"lon":172.97102,"lat":1.89521,"pop":338},{"id":7576767,"name":"Bouatoa Village","lon":173.4195,"lat":0.20237,"pop":111},{"id":2110201,"name":"Buariki","lon":174.3648,"lat":-0.58794,"pop":0},{"id":2110230,"name":"Buariki Village","lon":172.95526,"lat":1.60909,"pop":597},{"id":2110231,"name":"Buariki Village","alt":["Buariki","Puarik"],"lon":175.05641,"lat":-1.47793,"pop":447},{"id":7576353,"name":"Buariki Village","lon":175.55476,"lat":-1.81802,"pop":213},{"id":7576713,"name":"Buariki Village","lon":173.63715,"lat":0.17708,"pop":509},{"id":7576745,"name":"Buariki Village","lon":173.41495,"lat":0.21498,"pop":199},{"id":7576832,"name":"Bubutei Village","lon":173.00394,"lat":0.87222,"pop":473},{"id":2110129,"name":"Buota","alt":["Riaria"],"lon":173.04483,"lat":1.78305,"pop":0},{"id":2110228,"name":"Buota Village","alt":["Buoata","Buota"],"lon":173.26007,"lat":2.01543,"pop":259},{"id":2110229,"name":"Buota Village","lon":173.13082,"lat":1.39078,"pop":1373},{"id":7576559,"name":"Buota Village","lon":174.70489,"lat":-1.15444,"pop":343},{"id":7576089,"name":"Digger Settlement 1870","lon":-174.12613,"lat":-3.59534,"pop":0},{"id":7521522,"name":"Diggers and Planters Settlement","lon":-151.82565,"lat":-11.42459,"pop":0},{"id":7521569,"name":"Diggers and Planters Settlement","lon":-150.23074,"lat":-9.9981,"pop":0},{"id":7576112,"name":"Diggers Camp 1870","lon":-170.7143,"lat":-3.7217,"pop":0},{"id":7576117,"name":"Diggers Camp 1870","lon":-171.09089,"lat":-3.11643,"pop":0},{"id":7576082,"name":"Diggers Camp 1900","lon":-171.26222,"lat":-4.45427,"pop":0},{"id":7521741,"name":"Diggers Settlement","lon":-155.92633,"lat":-5.63398,"pop":0},{"id":7521747,"name":"Diggers Settlement","lon":-154.96998,"lat":-4.01335,"pop":0},{"id":2110221,"name":"Eita Village","lon":174.72788,"lat":-1.178,"pop":814},{"id":7601776,"name":"Eita Village","lon":173.08113,"lat":1.36154,"pop":2299},{"id":2110204,"name":"Eriko Village","lon":176.00224,"lat":-1.35925,"pop":265},{"id":4030974,"name":"failed Gilbertese Settlement 2005","lon":-172.22442,"lat":-4.51785,"pop":0},{"id":4030912,"name":"Fareturaina - Gilberts Village","lon":-159.3115,"lat":3.81386,"pop":152},{"id":4030913,"name":"former Paris Village","alt":["Paris"],"lon":-157.49103,"lat":1.93325,"pop":0},{"id":7576083,"name":"Gilbertese Settlement 1940","lon":-171.26215,"lat":-4.45462,"pop":0},{"id":7521869,"name":"Guano Diggers and Planters Settlement","lon":-159.36162,"lat":3.85637,"pop":0},{"id":2110208,"name":"Kabangaki Village","alt":["JAMES","Kabanaki","Kabangaki"],"lon":173.92941,"lat":0.31373,"pop":363},{"id":7576551,"name":"Kabuna Village","lon":174.79831,"lat":-1.28832,"pop":204},{"id":7577077,"name":"Kainaba Village","lon":173.06095,"lat":1.45383,"pop":219},{"id":7576145,"name":"Kanton Village","alt":["Kanton"],"lon":-171.71679,"lat":-2.77677,"pop":41},{"id":4030921,"name":"Karaka settlement 1940","lon":-174.53871,"lat":-4.67147,"pop":0},{"id":2110205,"name":"Kariatebike Village","alt":["OSCAR WW2"],"lon":173.91988,"lat":0.40456,"pop":140},{"id":2110044,"name":"Katabanga Village","lon":175.06954,"lat":-1.50088,"pop":77},{"id":7521826,"name":"Kauamwmwe Village","lon":-160.37121,"lat":4.69053,"pop":106},{"id":7576798,"name":"Kauma Village","lon":173.87358,"lat":0.46166,"pop":172},{"id":2110199,"name":"Keuea Village","alt":["Keua","Keuea"],"lon":172.90442,"lat":3.13124,"pop":221},{"id":7576912,"name":"Kiebu Village","lon":172.97462,"lat":3.32342,"pop":551},{"id":2110195,"name":"Koinawa Village","lon":172.98774,"lat":1.8655,"pop":453},{"id":2110193,"name":"Kuma Village","lon":172.95972,"lat":3.17315,"pop":635},{"id":2110190,"name":"Kuria Village","alt":["Ewena"],"lon":172.99257,"lat":1.8576,"pop":219},{"id":4030939,"name":"London Village","alt":["London"],"lon":-157.47502,"lat":1.98487,"pop":1829},{"id":7521829,"name":"Makeitari Village","lon":-160.38084,"lat":4.67229,"pop":92},{"id":7576909,"name":"Makin Village","lon":172.98352,"lat":3.3644,"pop":1834},{"id":7576763,"name":"Manenaua Village","lon":173.39874,"lat":0.24617,"pop":246},{"id":2110183,"name":"Manoku Village","lon":173.93818,"lat":0.33198,"pop":247},{"id":2110182,"name":"Manriki Village","lon":176.45098,"lat":-1.35567,"pop":197},{"id":2110179,"name":"Marenanuka Village","alt":["Maranenuka Village","Marenanuka"],"lon":173.02637,"lat":1.48735,"pop":71},{"id":2110050,"name":"Matang Village","alt":["Temaraia"],"lon":174.44954,"lat":-0.67058,"pop":548},{"id":7576468,"name":"Matanibike Village","lon":-160.40895,"lat":4.69048,"pop":191},{"id":2110175,"name":"Morikao Village","lon":172.99072,"lat":1.86018,"pop":400},{"id":2110174,"name":"Muribenua Village","lon":176.41581,"lat":-1.32417,"pop":240},{"id":2110171,"name":"Nabeina Village","lon":173.07918,"lat":1.4358,"pop":414},{"id":7601763,"name":"Nanikai Village","lon":172.9978,"lat":1.33015,"pop":803},{"id":4030926,"name":"Napari Village","alt":["Nabari","Napari"],"lon":-159.38832,"lat":3.90806,"pop":194},{"id":4030924,"name":"Napia Village","alt":["Paelau"],"lon":-159.36023,"lat":3.8549,"pop":250},{"id":7601771,"name":"Nawerewere Village","alt":["Causeway"],"lon":173.13935,"lat":1.36362,"pop":1780},{"id":2110159,"name":"Nikumanu Village","alt":["Nikumanu","Nukumanu"],"lon":176.47431,"lat":-1.38369,"pop":316},{"id":2110157,"name":"Nikutoru Village","alt":["Nikutoru","Nutoru"],"lon":175.06819,"lat":-1.48223,"pop":168},{"id":2110125,"name":"Norauea Village","lon":173.29218,"lat":1.9998,"pop":311},{"id":7576766,"name":"Norauea Village","lon":173.41532,"lat":0.20604,"pop":219},{"id":2110152,"name":"Notoue","lon":173.0125,"lat":1.51142,"pop":0},{"id":2110151,"name":"Nuatabu Village","lon":172.97581,"lat":1.56146,"pop":199},{"id":2110150,"name":"Nuka Village","lon":175.99513,"lat":-1.33045,"pop":348},{"id":7576989,"name":"Nuotaea Village","lon":172.8068,"lat":1.88623,"pop":481},{"id":7576144,"name":"old GB-Village","lon":-171.71113,"lat":-2.81898,"pop":0},{"id":7576761,"name":"Oneeke Village","lon":173.39321,"lat":0.25123,"pop":188},{"id":7521828,"name":"Onouea Village","lon":-160.37597,"lat":4.67053,"pop":176},{"id":7576355,"name":"Otowae Village","lon":175.58329,"lat":-1.86934,"pop":238},{"id":7521898,"name":"Poland Village","lon":-157.55154,"lat":1.8648,"pop":235},{"id":2110131,"name":"Rawannawi Village","lon":173.26354,"lat":2.05379,"pop":1075},{"id":7576833,"name":"Raweai Village","lon":173.01838,"lat":0.8995,"pop":191},{"id":7576993,"name":"Ribono Village","lon":172.86302,"lat":1.96245,"pop":271},{"id":2110126,"name":"Rongorongo Village","lon":175.99223,"lat":-1.32041,"pop":315},{"id":2110124,"name":"Roreti Village","alt":["Roreti"],"lon":176.83302,"lat":-2.65512,"pop":764},{"id":2110122,"name":"Rotuma Village","lon":174.41433,"lat":-0.63125,"pop":625},{"id":2110121,"name":"Rungata","alt":["Rongata"],"lon":176.43567,"lat":-1.34244,"pop":933},{"id":7576133,"name":"Settlement Ruins","lon":-171.09069,"lat":-3.13803,"pop":0},{"id":2110135,"name":"Tabewa Village","alt":["Tabwewa","Tapiwa"],"lon":169.52233,"lat":-0.85414,"pop":58},{"id":2110109,"name":"Tabiang Village","lon":175.95935,"lat":-1.29499,"pop":416},{"id":2110111,"name":"Tabiang Village","alt":["STEVE WW2","Tabian","Tabiang","Tabiañ"],"lon":173.82937,"lat":0.48589,"pop":591},{"id":2110108,"name":"Tabiauea Village","alt":["King","Tabiauea","Tebiauea","Tebiayea"],"lon":173.02772,"lat":0.92746,"pop":183},{"id":2110106,"name":"Tabiteuea Village","lon":173.09988,"lat":1.42301,"pop":391},{"id":2110103,"name":"Taboiaki Village","lon":176.01362,"lat":-1.36804,"pop":349},{"id":2110102,"name":"Tabomatang Village","lon":176.48118,"lat":-1.39711,"pop":87},{"id":7577078,"name":"Tabonibara Village","lon":173.02974,"lat":1.47811,"pop":300},{"id":2110082,"name":"Tabontebike Village","lon":173.91151,"lat":0.42351,"pop":305},{"id":2110100,"name":"Tabontebike Village","alt":["Tabontebike","Tebontebike"],"lon":172.98965,"lat":1.72545,"pop":391},{"id":7576764,"name":"Tabontebike Village","lon":173.41144,"lat":0.23056,"pop":119},{"id":2110099,"name":"Tabonuea Village","alt":["Tabonuea","Tabonuuia"],"lon":172.82312,"lat":3.09612,"pop":244},{"id":2110098,"name":"Taborio Village","lon":173.00302,"lat":1.52009,"pop":845},{"id":7601767,"name":"Taborio Village","lon":173.054,"lat":1.35621,"pop":955},{"id":2110097,"name":"Tabuarorae Village","alt":["Tabuarorae","Taburari"],"lon":175.57616,"lat":-1.94232,"pop":246},{"id":2110096,"name":"Tabuiroa Village","alt":["Tabuiroa","Tabwiroa"],"lon":173.03591,"lat":1.8071,"pop":324},{"id":2110095,"name":"Tabukiniberu Village","alt":["Tabukinberu"],"lon":175.98449,"lat":-1.33781,"pop":97},{"id":2110093,"name":"Taburao Village","alt":["Taburao","Tebero"],"lon":172.99744,"lat":1.85372,"pop":221},{"id":2110092,"name":"Tabutoa Village","lon":176.42374,"lat":-1.33176,"pop":139},{"id":7521902,"name":"Tabwakea Village","lon":-157.48773,"lat":2.01643,"pop":1881},{"id":7576711,"name":"Takaeang Village","lon":173.56183,"lat":0.17097,"pop":320},{"id":2110091,"name":"Takarano Village","alt":["Takarano","Takarona"],"lon":172.91227,"lat":1.94987,"pop":300},{"id":2110088,"name":"Taku Village","lon":175.06544,"lat":-1.52304,"pop":158},{"id":2110086,"name":"Tamaroa Village","lon":176.81625,"lat":-2.63211,"pop":492},{"id":7577069,"name":"Tanaea Village","lon":173.13421,"lat":1.38831,"pop":91},{"id":7576352,"name":"Tanaeag Village","lon":175.53626,"lat":-1.80768,"pop":249},{"id":2110085,"name":"Tanaeang Village","alt":["Tanaeang","Tanaiang"],"lon":174.67741,"lat":-1.13765,"pop":514},{"id":4030892,"name":"Tanekore Village","lon":-160.40557,"lat":4.69683,"pop":203},{"id":7601777,"name":"Tangintebu Village","lon":173.07029,"lat":1.35769,"pop":94},{"id":2110083,"name":"Tanimaiaki Village","lon":172.87764,"lat":3.10106,"pop":250},{"id":2110084,"name":"Tanimaiaki Village","alt":["Tanimaiaki","Tanimaiki"],"lon":173.04167,"lat":1.7552,"pop":276},{"id":7576802,"name":"Tanimainiku","lon":173.85581,"lat":0.4789,"pop":0},{"id":7576961,"name":"Tanimainiku Village","lon":172.89538,"lat":3.09911,"pop":229},{"id":2110076,"name":"Taratai Village","alt":["Taratai","Taritai"],"lon":172.99183,"lat":1.5488,"pop":203},{"id":2110257,"name":"Tarawa","alt":["Juzhnaja Tarava","South Tarawa","Sued-Tarawa","Süd-Tarawa","TRW","Tarawa Sud","Tarawa do Sul","Tarawa-Sud","Zuid-Tarawa","namtalawa","sauseutalawa","talawa","Южная Тарава","דרום טאראווה","남타라와","사우스타라와","타라와"],"lon":172.97696,"lat":1.3278,"pop":40311},{"id":2110074,"name":"Taribo","lon":176.8254,"lat":-2.64353,"pop":0},{"id":7576554,"name":"Tauma Village","lon":174.78423,"lat":-1.2379,"pop":204},{"id":7576567,"name":"Taungaeaka Village","lon":175.03271,"lat":-1.45584,"pop":117},{"id":2110070,"name":"Teaoraereke Village","alt":["Teaoraereka","Teaoraereke","Teaoraereke Mission"],"lon":173.01162,"lat":1.33309,"pop":3939},{"id":2110069,"name":"Tearinibai Village","lon":172.96973,"lat":1.59039,"pop":317},{"id":2110065,"name":"Tebakauto","lon":174.45734,"lat":-0.80815,"pop":0},{"id":2110067,"name":"Tebanga Village","alt":["Taboneaba","Tebanga"],"lon":173.00624,"lat":1.71546,"pop":287},{"id":2110068,"name":"Tebanga Village","alt":["Tebana","Tebanga"],"lon":173.93529,"lat":0.35739,"pop":246},{"id":7576840,"name":"Tebanga Village","lon":173.06392,"lat":0.96734,"pop":260},{"id":7577063,"name":"Tebangaroi Village","lon":172.98559,"lat":1.55535,"pop":34},{"id":7577007,"name":"Tebero Village","lon":173.02136,"lat":1.82077,"pop":167},{"id":2110063,"name":"Tebikerai Village","alt":["Bikerei","Tebikerai","Tebikerei"],"lon":173.00392,"lat":1.00789,"pop":75},{"id":2110060,"name":"Tebunginako Village","lon":172.94588,"lat":1.91657,"pop":358},{"id":7576843,"name":"Tebwangetua Village","lon":173.03969,"lat":0.93847,"pop":112},{"id":7576844,"name":"Teitai Village","lon":173.03587,"lat":0.93525,"pop":36},{"id":2110147,"name":"Tekabwibwi Village","lon":174.66317,"lat":-1.11824,"pop":145},{"id":7521824,"name":"Tekaitara Village","lon":-160.38724,"lat":4.69717,"pop":34},{"id":7576540,"name":"Tekaman Village","lon":174.6633,"lat":-1.13064,"pop":248},{"id":2110055,"name":"Tekarakan Village","lon":173.25191,"lat":1.99312,"pop":362},{"id":7576828,"name":"Tekaranga Village","lon":173.03198,"lat":1.00099,"pop":114},{"id":2110054,"name":"Tekatirirake Village","alt":["OSCAR WW2"],"lon":173.86667,"lat":0.46667,"pop":486},{"id":7576349,"name":"Tekawa Village","lon":175.52548,"lat":-1.80065,"pop":164},{"id":2110053,"name":"Tekuanga Village","lon":173.2855,"lat":2.03004,"pop":207},{"id":7601770,"name":"Temaiku Village","lon":173.16226,"lat":1.36292,"pop":2011},{"id":2110078,"name":"Temanoku Village","lon":174.3783,"lat":-0.59909,"pop":289},{"id":7576351,"name":"Temao Village","lon":175.54998,"lat":-1.83356,"pop":348},{"id":7576830,"name":"Tematantongo Village","lon":173.04556,"lat":0.99252,"pop":148},{"id":2110041,"name":"Temotu Village","lon":173.25847,"lat":2.03535,"pop":116},{"id":2110042,"name":"Temotu Village","lon":174.45381,"lat":-0.80552,"pop":210},{"id":7576841,"name":"Temwangaua Village","lon":173.06367,"lat":0.9642,"pop":111},{"id":7576548,"name":"Tenatorua Village","lon":174.85152,"lat":-1.34226,"pop":122},{"id":7576470,"name":"Tenenebo Village","lon":-159.3527,"lat":3.84418,"pop":461},{"id":7576854,"name":"Teraereke","lon":173.29277,"lat":1.97123,"pop":0},{"id":7521875,"name":"Tereitaki Village","lon":-159.3875,"lat":3.90365,"pop":438},{"id":7576469,"name":"Tereitannano Village","lon":-159.34753,"lat":3.83401,"pop":249},{"id":2110043,"name":"Terikiai Village","alt":["Terikai","Terikiai"],"lon":174.71881,"lat":-1.16466,"pop":255},{"id":7576853,"name":"Terokea","lon":173.29966,"lat":1.9833,"pop":0},{"id":2110061,"name":"Tetabakea","lon":174.453,"lat":-0.80034,"pop":0},{"id":2110039,"name":"Teteirio Village","lon":175.99926,"lat":-1.34313,"pop":74},{"id":2110206,"name":"Teuabu Village","lon":174.35091,"lat":-0.58113,"pop":304},{"id":2110035,"name":"Tewai Village","lon":175.01169,"lat":-1.44484,"pop":331},{"id":2110026,"name":"Toboiaki Village","alt":["Umanterwena","Umantewena"],"lon":174.45422,"lat":-0.73842,"pop":668},{"id":7576810,"name":"Tokamauea Village","lon":173.82504,"lat":0.4824,"pop":0},{"id":7576842,"name":"Toora Village","lon":173.06285,"lat":0.95956,"pop":107},{"id":2110033,"name":"Tuarabu Village","lon":173.039,"lat":1.79808,"pop":484},{"id":2110030,"name":"Ubanteman Village","lon":172.93141,"lat":1.93501,"pop":112},{"id":2110029,"name":"Ukiangang Village","lon":172.76247,"lat":3.04983,"pop":338},{"id":2110141,"name":"Umwa Village","alt":["Ooma","Uma"],"lon":169.54192,"lat":-0.87054,"pop":135},{"id":7521825,"name":"Uteute Village","lon":-160.37814,"lat":4.69384,"pop":72},{"id":2110023,"name":"Utiroa Village","lon":174.75866,"lat":-1.21424,"pop":571}]