[{"id":3580758,"name":"Banksville","lon":-79.84826,"lat":19.70113,"pop":0},{"id":3580754,"name":"Battle Ground","lon":-81.3949,"lat":19.37658,"pop":0},{"id":3580751,"name":"Belford Estates","lon":-81.2464,"lat":19.28472,"pop":0},{"id":3580743,"name":"Birch Tree Hill","lon":-81.39991,"lat":19.38478,"pop":0},{"id":3580742,"name":"Blakes","lon":-81.09753,"lat":19.30338,"pop":0},{"id":3580739,"name":"Blossom Point","lon":-80.0838,"lat":19.66673,"pop":0},{"id":3580733,"name":"Bodden Town","alt":["Bodden"],"lon":-81.2542,"lat":19.27647,"pop":14845},{"id":3580729,"name":"Botabano","lon":-81.38469,"lat":19.37709,"pop":0},{"id":3580725,"name":"Breakers","lon":-81.19844,"lat":19.2961,"pop":0},{"id":3580724,"name":"Breezy Castle","lon":-81.36068,"lat":19.29613,"pop":0},{"id":3580723,"name":"Brinkleys","lon":-81.2409,"lat":19.34909,"pop":0},{"id":3580717,"name":"Cayman Palms","lon":-81.2699,"lat":19.27759,"pop":0},{"id":3580701,"name":"Coral Gables","lon":-81.4142,"lat":19.37329,"pop":0},{"id":3580699,"name":"Cork Landing","lon":-80.03244,"lat":19.68375,"pop":0},{"id":3580692,"name":"Creek","lon":-79.76574,"lat":19.74435,"pop":0},{"id":3580686,"name":"Dog City","lon":-81.38223,"lat":19.30795,"pop":0},{"id":3580682,"name":"Driftwood Village","lon":-81.24647,"lat":19.35339,"pop":0},{"id":3580679,"name":"Dusty Place","lon":-81.39507,"lat":19.3787,"pop":0},{"id":3580678,"name":"East End","alt":["Old Isaacs"],"lon":-81.11667,"lat":19.3,"pop":1846},{"id":3580663,"name":"Frenchman’s Fort","lon":-79.87906,"lat":19.69395,"pop":0},{"id":3580661,"name":"George Town","alt":["Corctaun","Dzhordzh Taun","Dzhordzhtaun","Dzordz Taun","Dzordztaun","Dzordztaunas","Džordžtaunas","GCM","George Town pa Caymanoyane","George Town på Caymanøyane","Georgetown","Georgurbo","Georĝurbo","Tzortz Taoun","cxrc thawn","gwrg tʼwn","jarj tavun","jojitaun","jorjata'una","jwrj tawn","qiao zhi dui","qiao zhi dun","Τζωρτζ Τάουν","Џорџ Таун","Џорџтаун","Джордж Таун","Джорджтаун","Джорджтаўн","גורג טאון","جارج ٹاؤن، جزائر کیمین","جرج‌تاون، جزایر کیمن","جورج تاون","जॉर्जटाउन","ஜார்ஜ் டவுன்","จอร์จทาวน์","ჯორჯტაუნი","ジョージタウン","喬治敦","조지타운"],"lon":-81.37436,"lat":19.2866,"pop":29370},{"id":3580650,"name":"Gun Bay","alt":["Gun Bay Village"],"lon":-81.09202,"lat":19.31077,"pop":0},{"id":3580647,"name":"Half Moon Bay","lon":-81.15102,"lat":19.29689,"pop":0},{"id":3580645,"name":"Half Way Pond","lon":-81.37212,"lat":19.28687,"pop":0},{"id":3580641,"name":"Head of Bay","lon":-80.0672,"lat":19.6687,"pop":0},{"id":3580639,"name":"Hell","lon":-81.40694,"lat":19.3801,"pop":0},{"id":3580636,"name":"High Rock Estates","lon":-81.14654,"lat":19.29875,"pop":0},{"id":3580633,"name":"Hutland","lon":-81.21346,"lat":19.34922,"pop":0},{"id":3580620,"name":"Knob Hill","lon":-79.87761,"lat":19.69237,"pop":0},{"id":9294258,"name":"Little Cayman","lon":-80.10984,"lat":19.66114,"pop":0},{"id":3580601,"name":"Lower Valley","lon":-81.28431,"lat":19.2804,"pop":0},{"id":3580590,"name":"Midland Acres","lon":-81.22061,"lat":19.29862,"pop":0},{"id":3580587,"name":"Molusca Heights","lon":-79.78745,"lat":19.73232,"pop":0},{"id":3580583,"name":"Mount Pleasant","lon":-81.39137,"lat":19.38329,"pop":0},{"id":3580580,"name":"Newlands","alt":["Newland"],"lon":-81.302,"lat":19.28542,"pop":0},{"id":3580575,"name":"North Side","alt":["North Side Village"],"lon":-81.2,"lat":19.35,"pop":1902},{"id":3580572,"name":"North Sound Estates","lon":-81.30242,"lat":19.29303,"pop":0},{"id":3580571,"name":"North Ward","lon":-81.27053,"lat":19.28439,"pop":0},{"id":3580566,"name":"Old Man Bay","alt":["Old Man Village"],"lon":-81.17652,"lat":19.34419,"pop":0},{"id":3580563,"name":"Old Stores","lon":-81.39358,"lat":19.39273,"pop":0},{"id":3580562,"name":"Omega Gardens","lon":-81.32675,"lat":19.29239,"pop":0},{"id":3580557,"name":"Pease Bay","lon":-81.24166,"lat":19.28781,"pop":0},{"id":3580556,"name":"Pedro","lon":-81.27487,"lat":19.27581,"pop":0},{"id":3580553,"name":"Prospect","lon":-81.33277,"lat":19.27971,"pop":0},{"id":3580551,"name":"Prospect Park","lon":-81.3302,"lat":19.28072,"pop":0},{"id":3580547,"name":"Red Bay Estate","alt":["Red Bay"],"lon":-81.34125,"lat":19.28724,"pop":0},{"id":3580545,"name":"Rock Hole","lon":-81.37814,"lat":19.29979,"pop":0},{"id":9241039,"name":"Rum Point","lon":-81.26145,"lat":19.36415,"pop":0},{"id":3580540,"name":"Saint James","lon":-81.28887,"lat":19.26713,"pop":0},{"id":3580533,"name":"Sand Bluff","lon":-81.08802,"lat":19.31788,"pop":0},{"id":3580529,"name":"Savannah","lon":-81.29866,"lat":19.2806,"pop":0},{"id":3580528,"name":"Savannah Acres","lon":-81.29996,"lat":19.28023,"pop":0},{"id":11205015,"name":"Seven Miles","lon":-81.38062,"lat":19.33366,"pop":0},{"id":3580518,"name":"South Town","alt":["Blossom Village","South Hole"],"lon":-80.08382,"lat":19.65939,"pop":0},{"id":3580510,"name":"Spot Bay","lon":-79.74592,"lat":19.75433,"pop":0},{"id":3580506,"name":"Spotts","lon":-81.31256,"lat":19.2742,"pop":0},{"id":3580498,"name":"The Common","lon":-81.40102,"lat":19.3793,"pop":0},{"id":3580496,"name":"The Moorings","lon":-79.79411,"lat":19.73128,"pop":0},{"id":3580497,"name":"The Moorings","lon":-79.78333,"lat":19.73333,"pop":0},{"id":3580494,"name":"Tibbetts Turn","lon":-79.78374,"lat":19.73345,"pop":0},{"id":3580491,"name":"Town Hall Crescent","lon":-81.40655,"lat":19.37462,"pop":0},{"id":3580490,"name":"Tropical Gardens","lon":-81.34894,"lat":19.29124,"pop":0},{"id":3580489,"name":"Upper Land","lon":-81.38703,"lat":19.36258,"pop":0},{"id":3580488,"name":"Vicksville","lon":-81.41637,"lat":19.37754,"pop":0},{"id":3580484,"name":"Water Ground","lon":-81.40026,"lat":19.37581,"pop":0},{"id":3580477,"name":"West Bay","alt":["West End"],"lon":-81.39281,"lat":19.38197,"pop":15335},{"id":3580475,"name":"West End","lon":-79.8816,"lat":19.69192,"pop":0},{"id":3580471,"name":"Whitehall Estates","alt":["Whitehall Estate"],"lon":-81.38208,"lat":19.31313,"pop":0}]