[{"id":10366944,"name":"Allmeina","lon":9.53888,"lat":47.12998,"pop":0},{"id":10366993,"name":"Alpelti","lon":9.55838,"lat":47.12802,"pop":0},{"id":10348593,"name":"Altrütti","lon":9.52409,"lat":47.12382,"pop":0},{"id":10352194,"name":"Am Bach","lon":9.52173,"lat":47.21487,"pop":0},{"id":10347654,"name":"Aspa","lon":9.52868,"lat":47.21954,"pop":0},{"id":10352096,"name":"Au","lon":9.51124,"lat":47.22447,"pop":0},{"id":10352463,"name":"Aubünt","lon":9.52191,"lat":47.13152,"pop":0},{"id":10354893,"name":"Auli","lon":9.52473,"lat":47.1112,"pop":0},{"id":10348560,"name":"Äuli","lon":9.52058,"lat":47.13952,"pop":0},{"id":10352357,"name":"Aussernendeln","lon":9.53955,"lat":47.19636,"pop":0},{"id":10347571,"name":"Badäl","lon":9.51906,"lat":47.22944,"pop":0},{"id":10352442,"name":"Balischguad","lon":9.54292,"lat":47.12617,"pop":0},{"id":3042073,"name":"Balzers","alt":["baruzasu","バルザース"],"lon":9.50251,"lat":47.06665,"pop":4447},{"id":10366943,"name":"Bärg","lon":9.54557,"lat":47.13952,"pop":0},{"id":10348559,"name":"Bartlegrosch","lon":9.51079,"lat":47.14831,"pop":0},{"id":10352462,"name":"Bei der Kirchstrasse","lon":9.51767,"lat":47.13582,"pop":0},{"id":10367091,"name":"Bendererbünt","lon":9.50915,"lat":47.21181,"pop":0},{"id":3042072,"name":"Bendern","lon":9.50678,"lat":47.21199,"pop":0},{"id":10367031,"name":"Berg","lon":9.53871,"lat":47.22307,"pop":0},{"id":10367076,"name":"Berg","lon":9.52959,"lat":47.23439,"pop":0},{"id":10348419,"name":"Besch","lon":9.51926,"lat":47.17295,"pop":0},{"id":10347565,"name":"Betsche","lon":9.54814,"lat":47.22708,"pop":0},{"id":10347439,"name":"Betzi","lon":9.52604,"lat":47.2343,"pop":0},{"id":10352870,"name":"Bi den undera Hötta","lon":9.59886,"lat":47.10769,"pop":0},{"id":10352398,"name":"Bi der Steinmur","lon":9.5426,"lat":47.18278,"pop":0},{"id":10352441,"name":"Bim Brunna","lon":9.54598,"lat":47.12497,"pop":0},{"id":10348434,"name":"Bim Krüz","lon":9.5028,"lat":47.16774,"pop":0},{"id":10352512,"name":"Bim Krüz","lon":9.51641,"lat":47.16201,"pop":0},{"id":10352545,"name":"Bim Stall","lon":9.60064,"lat":47.13981,"pop":0},{"id":10357090,"name":"Bim Züghüsle","lon":9.50563,"lat":47.06602,"pop":0},{"id":10347505,"name":"Binza","lon":9.55372,"lat":47.22361,"pop":0},{"id":10352394,"name":"Blacha","lon":9.54519,"lat":47.18402,"pop":0},{"id":10353511,"name":"Bleika","lon":9.54457,"lat":47.12185,"pop":0},{"id":10352392,"name":"Boda","lon":9.54536,"lat":47.18716,"pop":0},{"id":10353646,"name":"Boda","lon":9.5524,"lat":47.11214,"pop":0},{"id":10353681,"name":"Böda","lon":9.54324,"lat":47.10618,"pop":0},{"id":10348232,"name":"Boia","lon":9.51704,"lat":47.21897,"pop":0},{"id":10347570,"name":"Breita","lon":9.51669,"lat":47.22599,"pop":0},{"id":10347622,"name":"Breita","lon":9.54691,"lat":47.22104,"pop":0},{"id":10348259,"name":"Breita","lon":9.51819,"lat":47.20995,"pop":0},{"id":10367094,"name":"Breita","lon":9.50641,"lat":47.21174,"pop":0},{"id":10347462,"name":"Bretscha","lon":9.54225,"lat":47.21477,"pop":0},{"id":10352094,"name":"Bretscha","lon":9.51449,"lat":47.22031,"pop":0},{"id":10348289,"name":"Brüel","lon":9.48689,"lat":47.06067,"pop":0},{"id":10353505,"name":"Buacha","lon":9.55387,"lat":47.11724,"pop":0},{"id":10355043,"name":"Büala","lon":9.61291,"lat":47.09708,"pop":0},{"id":10347590,"name":"Büel","lon":9.51317,"lat":47.22102,"pop":0},{"id":10352389,"name":"Büel","lon":9.54727,"lat":47.18773,"pop":0},{"id":10352425,"name":"Bünda","lon":9.55543,"lat":47.12374,"pop":0},{"id":10352390,"name":"Bünt","lon":9.54845,"lat":47.18693,"pop":0},{"id":10357056,"name":"Büntle","lon":9.51464,"lat":47.07569,"pop":0},{"id":10367095,"name":"Büntner","lon":9.50693,"lat":47.21267,"pop":0},{"id":10367081,"name":"Burg","lon":9.54192,"lat":47.23254,"pop":0},{"id":10353650,"name":"Burkrat","lon":9.55162,"lat":47.11087,"pop":0},{"id":10353679,"name":"Chalberrüti","lon":9.54338,"lat":47.10771,"pop":0},{"id":10355047,"name":"Chämma","lon":9.61198,"lat":47.10021,"pop":0},{"id":10366893,"name":"Chleistäg","lon":9.57793,"lat":47.10996,"pop":0},{"id":10354939,"name":"Dreiangel","lon":9.52291,"lat":47.11509,"pop":0},{"id":10348427,"name":"Dux","lon":9.51903,"lat":47.16571,"pop":0},{"id":10352513,"name":"Duxplatz","lon":9.52177,"lat":47.16597,"pop":0},{"id":3315359,"name":"Ebaholz","alt":["Ebenholz"],"lon":9.51287,"lat":47.1488,"pop":0},{"id":10348430,"name":"Egerta","lon":9.50781,"lat":47.16638,"pop":0},{"id":10352393,"name":"Egerta","lon":9.54436,"lat":47.18589,"pop":0},{"id":10351903,"name":"Egeta","lon":9.54852,"lat":47.2301,"pop":0},{"id":10353590,"name":"Egga","lon":9.54,"lat":47.12465,"pop":0},{"id":10352444,"name":"Eggalti","lon":9.54349,"lat":47.12464,"pop":0},{"id":10366936,"name":"Erbi","lon":9.53363,"lat":47.13887,"pop":0},{"id":3042068,"name":"Eschen","alt":["esshen","エッシェン"],"lon":9.52223,"lat":47.21071,"pop":4008},{"id":10367093,"name":"Fallsbretscha","lon":9.50425,"lat":47.21479,"pop":0},{"id":10347593,"name":"Fallsgass","lon":9.53412,"lat":47.21391,"pop":0},{"id":10348420,"name":"Fanal","lon":9.51529,"lat":47.16947,"pop":0},{"id":10354927,"name":"Fanola","lon":9.53344,"lat":47.10936,"pop":0},{"id":10353680,"name":"Faraboda","lon":9.54752,"lat":47.10723,"pop":0},{"id":10367049,"name":"Feld","lon":9.54485,"lat":47.19861,"pop":0},{"id":10367083,"name":"Feld","lon":9.54627,"lat":47.23329,"pop":0},{"id":10354848,"name":"Fina","lon":9.52588,"lat":47.09924,"pop":0},{"id":10348291,"name":"Finne","lon":9.49133,"lat":47.06249,"pop":0},{"id":10348138,"name":"Flux","lon":9.5195,"lat":47.2051,"pop":0},{"id":10366929,"name":"Foppa","lon":9.54322,"lat":47.13485,"pop":0},{"id":10348589,"name":"Fromahus","lon":9.53282,"lat":47.13249,"pop":0},{"id":10347358,"name":"Fuera","lon":9.53155,"lat":47.24291,"pop":0},{"id":10352445,"name":"Fuggsegga","lon":9.54679,"lat":47.12233,"pop":0},{"id":10353699,"name":"Fura","lon":9.54552,"lat":47.10468,"pop":0},{"id":10351885,"name":"Fürstafeld","lon":9.54441,"lat":47.22318,"pop":0},{"id":10352436,"name":"Gädami","lon":9.54807,"lat":47.124,"pop":0},{"id":10348455,"name":"Gafos","lon":9.52124,"lat":47.16139,"pop":0},{"id":10354953,"name":"Galga","lon":9.52449,"lat":47.12169,"pop":0},{"id":10354952,"name":"Galgateil","lon":9.52271,"lat":47.12058,"pop":0},{"id":10347461,"name":"Gampalütz","lon":9.5506,"lat":47.21996,"pop":0},{"id":3042062,"name":"Gamprin","alt":["Gambrin","Gamprin-Bendern","ganpurin","Гамприн","ガンプリン"],"lon":9.50935,"lat":47.22038,"pop":1268},{"id":10354856,"name":"Gantafies","lon":9.53063,"lat":47.10058,"pop":0},{"id":10348441,"name":"Gapetsch","lon":9.50555,"lat":47.15966,"pop":0},{"id":10354855,"name":"Gapluem","lon":9.53001,"lat":47.10423,"pop":0},{"id":10354887,"name":"Gapont","lon":9.52594,"lat":47.10683,"pop":0},{"id":10353638,"name":"Gärbi","lon":9.54224,"lat":47.11702,"pop":0},{"id":10347606,"name":"Garlanga","lon":9.53684,"lat":47.21221,"pop":0},{"id":10354860,"name":"Garnis","lon":9.53571,"lat":47.10081,"pop":0},{"id":10348428,"name":"Garsill","lon":9.51988,"lat":47.16435,"pop":0},{"id":10357093,"name":"Gässle","lon":9.50839,"lat":47.06827,"pop":0},{"id":10347440,"name":"Geisszepfel","lon":9.52465,"lat":47.23351,"pop":0},{"id":10354892,"name":"Gerbi","lon":9.52693,"lat":47.10903,"pop":0},{"id":10347450,"name":"Giessa","lon":9.52711,"lat":47.24445,"pop":0},{"id":10347607,"name":"Glenn","lon":9.53967,"lat":47.21315,"pop":0},{"id":10352351,"name":"Gmeinsgarta","lon":9.54302,"lat":47.20062,"pop":0},{"id":10352424,"name":"Gnalp","lon":9.55352,"lat":47.12286,"pop":0},{"id":10357091,"name":"Gnetsch","lon":9.50324,"lat":47.06787,"pop":0},{"id":10347576,"name":"Gölla","lon":9.50927,"lat":47.21961,"pop":0},{"id":10354933,"name":"Gossahalda","lon":9.52816,"lat":47.10744,"pop":0},{"id":10348255,"name":"Gräsgarta","lon":9.51843,"lat":47.21445,"pop":0},{"id":10354858,"name":"Grosch","lon":9.52868,"lat":47.1001,"pop":0},{"id":10366971,"name":"Grossstäg","lon":9.57136,"lat":47.11688,"pop":0},{"id":10352129,"name":"Grütt","lon":9.50881,"lat":47.21817,"pop":0},{"id":10353592,"name":"Gschind","lon":9.54068,"lat":47.12136,"pop":0},{"id":10347594,"name":"Güediga","lon":9.52991,"lat":47.21491,"pop":0},{"id":10353510,"name":"Gufer","lon":9.54587,"lat":47.11567,"pop":0},{"id":10351877,"name":"Guler","lon":9.54888,"lat":47.22355,"pop":0},{"id":10353642,"name":"Haberacher","lon":9.54997,"lat":47.11444,"pop":0},{"id":10348439,"name":"Hafner","lon":9.5075,"lat":47.16124,"pop":0},{"id":10353509,"name":"Hag","lon":9.54496,"lat":47.11662,"pop":0},{"id":10352095,"name":"Hala","lon":9.51086,"lat":47.21958,"pop":0},{"id":10357108,"name":"Hala","lon":9.53525,"lat":47.22629,"pop":0},{"id":10353600,"name":"Halda","lon":9.541,"lat":47.11975,"pop":0},{"id":10348292,"name":"Hampfländer","lon":9.48869,"lat":47.06262,"pop":0},{"id":10353666,"name":"Hega","lon":9.54145,"lat":47.11588,"pop":0},{"id":10347354,"name":"Heiligkrüz","lon":9.5255,"lat":47.24317,"pop":0},{"id":10348561,"name":"Heiligkrüz","lon":9.52172,"lat":47.13473,"pop":0},{"id":10354862,"name":"Hellabarta","lon":9.52659,"lat":47.10435,"pop":0},{"id":10347580,"name":"Hellbock","lon":9.50534,"lat":47.21637,"pop":0},{"id":10352391,"name":"Hest","lon":9.54641,"lat":47.18641,"pop":0},{"id":10354955,"name":"Hiertwes","lon":9.5288,"lat":47.12015,"pop":0},{"id":10347483,"name":"Hinderbüela","lon":9.54433,"lat":47.21673,"pop":0},{"id":10347602,"name":"Hinderdorf","lon":9.52781,"lat":47.21292,"pop":0},{"id":10353706,"name":"Hinderegga","lon":9.54324,"lat":47.10291,"pop":0},{"id":10347523,"name":"Hinderschloss","lon":9.55598,"lat":47.23234,"pop":0},{"id":10347616,"name":"Hinterer Schaanwald","lon":9.56894,"lat":47.215,"pop":0},{"id":3042060,"name":"Hinterschellenberg","alt":["Hinter-Schellenberg","Hinterer Schellenberg"],"lon":9.55879,"lat":47.24102,"pop":0},{"id":10347651,"name":"Hof","lon":9.52907,"lat":47.23518,"pop":0},{"id":10352439,"name":"Hof","lon":9.54664,"lat":47.12665,"pop":0},{"id":10352097,"name":"Höfe","lon":9.51602,"lat":47.2232,"pop":0},{"id":10352205,"name":"Höfli","lon":9.5208,"lat":47.21005,"pop":0},{"id":10351890,"name":"Höll","lon":9.54015,"lat":47.22184,"pop":0},{"id":10367084,"name":"Holzgatter","lon":9.54752,"lat":47.23111,"pop":0},{"id":10348260,"name":"Hueb","lon":9.52962,"lat":47.20936,"pop":0},{"id":10367092,"name":"Hueb","lon":9.503,"lat":47.21236,"pop":0},{"id":10353639,"name":"Hüschi","lon":9.54565,"lat":47.11946,"pop":0},{"id":10352202,"name":"Inner Hala","lon":9.51974,"lat":47.21204,"pop":0},{"id":10352359,"name":"Inner Wesa","lon":9.54149,"lat":47.19795,"pop":0},{"id":10357092,"name":"Insel","lon":9.50235,"lat":47.06948,"pop":0},{"id":10348288,"name":"Iradug","lon":9.49762,"lat":47.05932,"pop":0},{"id":10357095,"name":"Iramalin","lon":9.50049,"lat":47.06878,"pop":0},{"id":10348312,"name":"Iratell","lon":9.50696,"lat":47.0705,"pop":0},{"id":10348552,"name":"Iratetsch","lon":9.52017,"lat":47.14693,"pop":0},{"id":10355173,"name":"Jöraboda","lon":9.61005,"lat":47.10206,"pop":0},{"id":10347589,"name":"Kalchofa","lon":9.51755,"lat":47.22217,"pop":0},{"id":10352396,"name":"Kaserna","lon":9.5407,"lat":47.18305,"pop":0},{"id":10347447,"name":"Kellersfeld","lon":9.52683,"lat":47.24031,"pop":0},{"id":10347625,"name":"Klenn","lon":9.54206,"lat":47.22997,"pop":0},{"id":10348424,"name":"Klifeld","lon":9.51945,"lat":47.16877,"pop":0},{"id":10347451,"name":"Kolbafeld","lon":9.53044,"lat":47.23713,"pop":0},{"id":10348423,"name":"Kresta","lon":9.5146,"lat":47.16838,"pop":0},{"id":10354647,"name":"Krestisrütti","lon":9.52605,"lat":47.09272,"pop":0},{"id":10347481,"name":"Krummenacker","lon":9.54653,"lat":47.22357,"pop":0},{"id":10348454,"name":"Krüzbünt","lon":9.5171,"lat":47.16092,"pop":0},{"id":10347455,"name":"Lacha","lon":9.54094,"lat":47.21732,"pop":0},{"id":10347648,"name":"Langäcker","lon":9.52508,"lat":47.23712,"pop":0},{"id":7670251,"name":"Lavadina","lon":9.55545,"lat":47.11459,"pop":0},{"id":10352404,"name":"Ledi","lon":9.54569,"lat":47.18029,"pop":0},{"id":10353643,"name":"Leitawis","lon":9.5392,"lat":47.1161,"pop":0},{"id":10352395,"name":"Lett","lon":9.54175,"lat":47.18353,"pop":0},{"id":10347647,"name":"Letta","lon":9.52551,"lat":47.23899,"pop":0},{"id":10354925,"name":"Letzana","lon":9.53567,"lat":47.11197,"pop":0},{"id":10348432,"name":"Lindaplatz","lon":9.50877,"lat":47.16733,"pop":0},{"id":10353634,"name":"Litzi","lon":9.54047,"lat":47.11784,"pop":0},{"id":10347562,"name":"Loch","lon":9.53413,"lat":47.22853,"pop":0},{"id":10357153,"name":"Lowal","lon":9.51144,"lat":47.07163,"pop":0},{"id":10347566,"name":"Lums","lon":9.52606,"lat":47.22541,"pop":0},{"id":10347652,"name":"Lutzfeld","lon":9.53768,"lat":47.22049,"pop":0},{"id":10357112,"name":"Lutzfeld","lon":9.53633,"lat":47.22039,"pop":0},{"id":10348431,"name":"Malarsch","lon":9.50652,"lat":47.16967,"pop":0},{"id":6545409,"name":"Malbun","lon":9.60986,"lat":47.10139,"pop":50},{"id":3315349,"name":"Mäls","alt":["Mals"],"lon":9.49568,"lat":47.06105,"pop":0},{"id":10348290,"name":"Mälsner Dorf","lon":9.49812,"lat":47.06122,"pop":0},{"id":10348551,"name":"Maree","lon":9.52352,"lat":47.14596,"pop":0},{"id":3315356,"name":"Masescha","lon":9.54454,"lat":47.13271,"pop":0},{"id":10354937,"name":"Matschels","lon":9.52983,"lat":47.1146,"pop":0},{"id":3042055,"name":"Mauren","alt":["Mauern","Mauren FL","mauren","マウレン"],"lon":9.5442,"lat":47.21805,"pop":3626},{"id":10354936,"name":"Mazora","lon":9.53135,"lat":47.11419,"pop":0},{"id":10354954,"name":"Meierhof","lon":9.5275,"lat":47.12188,"pop":0},{"id":10354946,"name":"Messina","lon":9.51934,"lat":47.12098,"pop":0},{"id":10347591,"name":"Michel Öhri","alt":["Mechel Ohri","Mechel Öhri","Michel Ohri"],"lon":9.5234,"lat":47.22409,"pop":0},{"id":10352426,"name":"Mitätsch","lon":9.55327,"lat":47.12501,"pop":0},{"id":10347618,"name":"Mittlerer Schaanwald","lon":9.56697,"lat":47.21289,"pop":0},{"id":3042054,"name":"Mittlerer Schellenberg","alt":["Mittler-Schellenberg","Mittlerschellenberg"],"lon":9.54653,"lat":47.23148,"pop":0},{"id":10367074,"name":"Möligärta","lon":9.52332,"lat":47.24245,"pop":0},{"id":3315358,"name":"Möliholz","alt":["Moliholz","Muhleholz","Mühleholz"],"lon":9.51111,"lat":47.15569,"pop":0},{"id":10348568,"name":"Mölihölzli","lon":9.51405,"lat":47.13508,"pop":0},{"id":10348253,"name":"Mösma","lon":9.52415,"lat":47.21683,"pop":0},{"id":10355039,"name":"Musbühel","lon":9.61449,"lat":47.09976,"pop":0},{"id":10353644,"name":"Nasshagga","lon":9.53693,"lat":47.11659,"pop":0},{"id":3042052,"name":"Nendeln","lon":9.543,"lat":47.19846,"pop":0},{"id":10354590,"name":"Neugrütt","alt":["Neugrutt"],"lon":9.52337,"lat":47.08782,"pop":0},{"id":10352460,"name":"Neurütti","lon":9.51594,"lat":47.12647,"pop":0},{"id":10352397,"name":"Ob der Gass","lon":9.54334,"lat":47.18326,"pop":0},{"id":10357100,"name":"Obem Dorf","lon":9.51132,"lat":47.06971,"pop":0},{"id":10352362,"name":"Ober Bünt","lon":9.54983,"lat":47.19777,"pop":0},{"id":10352201,"name":"Ober Hala","lon":9.51731,"lat":47.21139,"pop":0},{"id":10352480,"name":"Ober Möliholz","lon":9.51285,"lat":47.15442,"pop":0},{"id":10352414,"name":"Ober Ställ","lon":9.54612,"lat":47.177,"pop":0},{"id":10351883,"name":"Obera Berg","lon":9.54291,"lat":47.22423,"pop":0},{"id":10352458,"name":"Oberau","lon":9.51969,"lat":47.12761,"pop":0},{"id":10347449,"name":"Oberdarf","lon":9.52642,"lat":47.24143,"pop":0},{"id":10352191,"name":"Oberdorf","lon":9.5234,"lat":47.21422,"pop":0},{"id":10354864,"name":"Oberdorf","lon":9.53456,"lat":47.10598,"pop":0},{"id":10366909,"name":"Oberdorf","lon":9.52158,"lat":47.14499,"pop":0},{"id":10354850,"name":"Oberfeld","lon":9.52457,"lat":47.10138,"pop":0},{"id":10352413,"name":"Oberplanken","lon":9.54585,"lat":47.17811,"pop":0},{"id":10352355,"name":"Oberstädtli","lon":9.54651,"lat":47.19894,"pop":0},{"id":10347443,"name":"Oberwiler","lon":9.52452,"lat":47.2356,"pop":0},{"id":10347373,"name":"Obrosa","lon":9.53222,"lat":47.2413,"pop":0},{"id":10347482,"name":"Oksner","lon":9.54801,"lat":47.22519,"pop":0},{"id":10353508,"name":"Ord","lon":9.55512,"lat":47.1161,"pop":0},{"id":10352200,"name":"Osser Hala","lon":9.51552,"lat":47.21041,"pop":0},{"id":10352386,"name":"Ossera","lon":9.54907,"lat":47.1892,"pop":0},{"id":10348437,"name":"Pardiel","lon":9.50448,"lat":47.16515,"pop":0},{"id":10352437,"name":"Parsüla","lon":9.55107,"lat":47.12463,"pop":0},{"id":10347626,"name":"Pfifer","lon":9.54468,"lat":47.23049,"pop":0},{"id":3042049,"name":"Planken","alt":["Blanken","puranken","Планкен","プランケン"],"lon":9.54437,"lat":47.18516,"pop":377},{"id":10351534,"name":"Platta","lon":9.50555,"lat":47.21335,"pop":0},{"id":10351912,"name":"Platta","lon":9.53945,"lat":47.22955,"pop":0},{"id":10352103,"name":"Platta","lon":9.50839,"lat":47.22059,"pop":0},{"id":10357088,"name":"Plattabach","lon":9.50463,"lat":47.06708,"pop":0},{"id":10347582,"name":"Platzbünt","lon":9.51147,"lat":47.21878,"pop":0},{"id":10347499,"name":"Popers","lon":9.53686,"lat":47.21476,"pop":0},{"id":10348558,"name":"Pradafant","lon":9.51314,"lat":47.14615,"pop":0},{"id":10348311,"name":"Prälawisch","lon":9.51184,"lat":47.06613,"pop":0},{"id":10347457,"name":"Purtscher","lon":9.54773,"lat":47.21897,"pop":0},{"id":10348440,"name":"Quader","lon":9.51138,"lat":47.16072,"pop":0},{"id":10367085,"name":"Quadera","lon":9.54118,"lat":47.22058,"pop":0},{"id":10348554,"name":"Quäderli","lon":9.51741,"lat":47.14299,"pop":0},{"id":10353637,"name":"Räckholtera","lon":9.53654,"lat":47.12012,"pop":0},{"id":10352453,"name":"Raibühel","lon":9.5359,"lat":47.1302,"pop":0},{"id":10348426,"name":"Resch","lon":9.51503,"lat":47.16547,"pop":0},{"id":10354945,"name":"Riet","lon":9.52563,"lat":47.11823,"pop":0},{"id":10353264,"name":"Riethof","lon":9.52347,"lat":47.19224,"pop":0},{"id":10357096,"name":"Rietle","lon":9.50339,"lat":47.06419,"pop":0},{"id":10353632,"name":"Rietli","lon":9.54212,"lat":47.12033,"pop":0},{"id":10348254,"name":"Rinkawingert","lon":9.51895,"lat":47.21372,"pop":0},{"id":10348256,"name":"Rofaberg","lon":9.51667,"lat":47.21264,"pop":0},{"id":10347655,"name":"Rosabüeler","lon":9.52701,"lat":47.21777,"pop":0},{"id":10348414,"name":"Rosagarta","lon":9.50691,"lat":47.17822,"pop":0},{"id":10348435,"name":"Rösle","lon":9.50357,"lat":47.16994,"pop":0},{"id":10353664,"name":"Rossboda","lon":9.54675,"lat":47.11386,"pop":0},{"id":10348429,"name":"Rossfeld","lon":9.51319,"lat":47.16606,"pop":0},{"id":10347355,"name":"Rotagass","lon":9.5306,"lat":47.24,"pop":0},{"id":3315353,"name":"Rotenboden","alt":["Rotaboda"],"lon":9.53802,"lat":47.12972,"pop":0},{"id":10355046,"name":"Rüfi","lon":9.61064,"lat":47.09952,"pop":0},{"id":3042046,"name":"Ruggell","alt":["Rugell","Ruggell'","ruggeru","Руггелль","ルッゲル"],"lon":9.5254,"lat":47.23799,"pop":1862},{"id":10354891,"name":"Runkels","lon":9.52951,"lat":47.10896,"pop":0},{"id":10353663,"name":"Rütelti","lon":9.54492,"lat":47.11265,"pop":0},{"id":10353678,"name":"Rüti","alt":["Ruti"],"lon":9.54498,"lat":47.10799,"pop":0},{"id":10352459,"name":"Rütti","lon":9.52413,"lat":47.12752,"pop":0},{"id":10352405,"name":"Rüttistein","lon":9.54885,"lat":47.18639,"pop":0},{"id":10354894,"name":"Sand","lon":9.52302,"lat":47.11318,"pop":0},{"id":10347498,"name":"Sandgrueb","lon":9.53801,"lat":47.21576,"pop":0},{"id":10354918,"name":"Sankt Mamerta","lon":9.53211,"lat":47.1079,"pop":0},{"id":10354938,"name":"Sankt Wolfgang","lon":9.52678,"lat":47.11803,"pop":0},{"id":10357175,"name":"Säss","lon":9.51063,"lat":47.06165,"pop":0},{"id":10348442,"name":"Sax","lon":9.5084,"lat":47.15999,"pop":0},{"id":10354861,"name":"Sax","lon":9.53669,"lat":47.10157,"pop":0},{"id":3042041,"name":"Schaan","alt":["Schan","Shaan","shan","Шаан","شان","シャーン"],"lon":9.50867,"lat":47.16498,"pop":5748},{"id":3042040,"name":"Schaanwald","lon":9.5624,"lat":47.21187,"pop":0},{"id":3042037,"name":"Schellenberg","alt":["sherenberuku","シェレンベルク"],"lon":9.54678,"lat":47.23123,"pop":1004},{"id":10347438,"name":"Schlatt","lon":9.521,"lat":47.23438,"pop":0},{"id":10354950,"name":"Schliessa","lon":9.51755,"lat":47.12,"pop":0},{"id":10347574,"name":"Schönabüel","lon":9.51815,"lat":47.21574,"pop":0},{"id":10348587,"name":"Schwefel","lon":9.5244,"lat":47.12997,"pop":0},{"id":10353635,"name":"Sennwis","lon":9.54516,"lat":47.11854,"pop":0},{"id":3315354,"name":"Silum","lon":9.55377,"lat":47.13183,"pop":0},{"id":10352432,"name":"Silumerbord","lon":9.55603,"lat":47.1264,"pop":0},{"id":10348563,"name":"Spania","lon":9.52364,"lat":47.13317,"pop":0},{"id":10347459,"name":"Speckemad","lon":9.55127,"lat":47.22171,"pop":0},{"id":10348422,"name":"Specki","lon":9.51035,"lat":47.16875,"pop":0},{"id":10348421,"name":"Speckibünta","lon":9.51174,"lat":47.16961,"pop":0},{"id":10353513,"name":"Spenni","lon":9.55143,"lat":47.11585,"pop":0},{"id":10354895,"name":"Spezadengla","lon":9.52742,"lat":47.11075,"pop":0},{"id":10351796,"name":"Spidach","lon":9.52786,"lat":47.23827,"pop":0},{"id":10347446,"name":"Spiegel","lon":9.52262,"lat":47.2382,"pop":0},{"id":10357097,"name":"Stadel","lon":9.50425,"lat":47.072,"pop":0},{"id":10348566,"name":"Städtli","lon":9.52275,"lat":47.1404,"pop":0},{"id":10355044,"name":"Stafel","lon":9.61159,"lat":47.09867,"pop":0},{"id":10347588,"name":"Stefas Guet","lon":9.51734,"lat":47.22146,"pop":0},{"id":6545410,"name":"Steg","lon":9.57536,"lat":47.11266,"pop":50},{"id":10348458,"name":"Stein-Egerta","lon":9.52084,"lat":47.16274,"pop":0},{"id":10353645,"name":"Steinäscht","lon":9.54802,"lat":47.11427,"pop":0},{"id":10347456,"name":"Steinbös","lon":9.53767,"lat":47.21877,"pop":0},{"id":10353647,"name":"Steinord","lon":9.54932,"lat":47.11264,"pop":0},{"id":10347575,"name":"Stelza","lon":9.50803,"lat":47.21896,"pop":0},{"id":10351901,"name":"Stotz","lon":9.54732,"lat":47.22969,"pop":0},{"id":10355175,"name":"Stubi","lon":9.60889,"lat":47.10042,"pop":0},{"id":10347583,"name":"Studaberg","lon":9.50841,"lat":47.22179,"pop":0},{"id":10354919,"name":"Sunnaberg","lon":9.53067,"lat":47.11204,"pop":0},{"id":10353677,"name":"Sütigerwis","lon":9.5447,"lat":47.11007,"pop":0},{"id":10357159,"name":"Talezze","lon":9.49777,"lat":47.06237,"pop":0},{"id":10353705,"name":"Täscherbord","lon":9.54525,"lat":47.10341,"pop":0},{"id":10353665,"name":"Täscherloch","lon":9.54491,"lat":47.11406,"pop":0},{"id":10351881,"name":"Tils","lon":9.55077,"lat":47.22606,"pop":0},{"id":10351905,"name":"Tisa","lon":9.54319,"lat":47.23131,"pop":0},{"id":10352388,"name":"Tobel","lon":9.54911,"lat":47.18825,"pop":0},{"id":10352387,"name":"Tola","lon":9.54845,"lat":47.18865,"pop":0},{"id":10348257,"name":"Tona","lon":9.52076,"lat":47.21581,"pop":0},{"id":10348564,"name":"Toniäuli","lon":9.51861,"lat":47.13765,"pop":0},{"id":3042035,"name":"Triesen","alt":["Trizen","torizen","Тризен","トリーゼン"],"lon":9.52815,"lat":47.10752,"pop":4701},{"id":3042033,"name":"Triesenberg","alt":["torizenberuku","トリーゼンベルク"],"lon":9.54197,"lat":47.11815,"pop":2689},{"id":10353593,"name":"Trischel","lon":9.5428,"lat":47.12145,"pop":0},{"id":10348413,"name":"Tröxle","lon":9.50712,"lat":47.17307,"pop":0},{"id":10353633,"name":"Üenaboda","lon":9.54119,"lat":47.11862,"pop":0},{"id":10357154,"name":"Uf da Stötz","lon":9.51118,"lat":47.07463,"pop":0},{"id":10352221,"name":"Under Atzig","lon":9.50403,"lat":47.20852,"pop":0},{"id":10357109,"name":"Under Berg","lon":9.53606,"lat":47.2217,"pop":0},{"id":10353512,"name":"Under Büal","lon":9.54978,"lat":47.122,"pop":0},{"id":10353586,"name":"Under der Gassa","lon":9.55305,"lat":47.1162,"pop":0},{"id":10352481,"name":"Under Möliholz","lon":9.50812,"lat":47.15546,"pop":0},{"id":10352412,"name":"Under Ställ","lon":9.54468,"lat":47.17932,"pop":0},{"id":10348562,"name":"Underau","lon":9.51758,"lat":47.1332,"pop":0},{"id":10347448,"name":"Underdarf","lon":9.52952,"lat":47.24285,"pop":0},{"id":10352207,"name":"Underdorf","lon":9.52301,"lat":47.2099,"pop":0},{"id":10352464,"name":"Underdorf","lon":9.51861,"lat":47.14019,"pop":0},{"id":10354889,"name":"Underdorf","lon":9.52375,"lat":47.10806,"pop":0},{"id":10366910,"name":"Underdorf","lon":9.52065,"lat":47.14109,"pop":0},{"id":10352399,"name":"Underem Rüttistein","lon":9.5478,"lat":47.18593,"pop":0},{"id":10348283,"name":"Underem Schloss","lon":9.49601,"lat":47.06397,"pop":0},{"id":10348305,"name":"Underem Stein","lon":9.48999,"lat":47.05913,"pop":0},{"id":10354863,"name":"Underfeld","lon":9.52402,"lat":47.10502,"pop":0},{"id":10352354,"name":"Unternendeln","lon":9.54546,"lat":47.19965,"pop":0},{"id":3042030,"name":"Vaduz","alt":["Bantouz","QVU","Vaduc","Vaducas","Vaduzo","fadoutsu","paducheu","vadutsi","wa dou zi","Βαντούζ","Вадуц","פאדוץ","ვადუცი","ፋዱጽ","ファドゥーツ","瓦都茲","파두츠"],"lon":9.52154,"lat":47.14151,"pop":5197},{"id":10353911,"name":"Valüna","alt":["Valuna"],"lon":9.58809,"lat":47.08488,"pop":0},{"id":10366934,"name":"Vorder Prufatscheng","lon":9.53921,"lat":47.13774,"pop":0},{"id":10352203,"name":"Vorderdorf","lon":9.52176,"lat":47.21181,"pop":0},{"id":10348131,"name":"Vorderer Schaanwald","lon":9.54673,"lat":47.20784,"pop":0},{"id":3042029,"name":"Vorderer Schellenberg","alt":["Vorder-Schellenberg","Vorderschellenberg"],"lon":9.53902,"lat":47.22802,"pop":0},{"id":10352431,"name":"Vordersilum","lon":9.55399,"lat":47.1283,"pop":0},{"id":10354898,"name":"Walcha","lon":9.52961,"lat":47.11126,"pop":0},{"id":10352356,"name":"Waldteile","lon":9.54274,"lat":47.19626,"pop":0},{"id":3315351,"name":"Wangerberg","alt":["Wangerbarg","Wangerbärg"],"lon":9.54463,"lat":47.10589,"pop":0},{"id":10347621,"name":"Weier","lon":9.54507,"lat":47.21897,"pop":0},{"id":10354583,"name":"Welda Bongert","lon":9.52791,"lat":47.08632,"pop":0},{"id":10347620,"name":"Wert","alt":["Werth"],"lon":9.54745,"lat":47.21916,"pop":0},{"id":10353313,"name":"Wesa","lon":9.49271,"lat":47.16749,"pop":0},{"id":10351529,"name":"Widau","lon":9.52745,"lat":47.24788,"pop":0},{"id":10367043,"name":"Widum","lon":9.52402,"lat":47.21776,"pop":0},{"id":10352443,"name":"Winchel","lon":9.54106,"lat":47.12571,"pop":0},{"id":10357089,"name":"Wingerta","lon":9.50838,"lat":47.06373,"pop":0},{"id":10357087,"name":"Winkel","lon":9.50691,"lat":47.06892,"pop":0},{"id":10357158,"name":"Winkel","lon":9.49508,"lat":47.0624,"pop":0},{"id":10351914,"name":"Wisleguet","lon":9.53687,"lat":47.22794,"pop":0},{"id":10366973,"name":"Wisli","lon":9.57151,"lat":47.1123,"pop":0},{"id":10348416,"name":"Zagalzel","lon":9.51476,"lat":47.17122,"pop":0},{"id":10352350,"name":"Ziegelmad","lon":9.53987,"lat":47.20055,"pop":0},{"id":10353582,"name":"Zlinerbord","lon":9.55238,"lat":47.12104,"pop":0},{"id":10348282,"name":"Zweistäpfle","lon":9.49335,"lat":47.06432,"pop":0}]