[{"id":932945,"name":"Abele","alt":["Abebe","Setleketseng"],"lon":27.6769,"lat":-29.63985,"pop":0},{"id":932943,"name":"Alwyns Kop","lon":27.62072,"lat":-30.39442,"pop":0},{"id":932937,"name":"Baroaneng","lon":27.35,"lat":-29.71667,"pop":0},{"id":932929,"name":"Berea Hills","lon":27.6103,"lat":-29.26913,"pop":0},{"id":932927,"name":"Berente","alt":["Rantolo"],"lon":27.65406,"lat":-29.89561,"pop":0},{"id":932920,"name":"Blue Gums","alt":["Blue Gums Store"],"lon":27.52884,"lat":-30.33952,"pop":0},{"id":11287587,"name":"Boinyatso","lon":28.465,"lat":-28.782,"pop":0},{"id":932914,"name":"Bokong","lon":28.46091,"lat":-29.33587,"pop":0},{"id":932907,"name":"Bolepeletsa","alt":["Tapisi"],"lon":27.60256,"lat":-30.44179,"pop":0},{"id":932901,"name":"Boqate","alt":["Bokatis Store"],"lon":27.5885,"lat":-29.3549,"pop":0},{"id":11280737,"name":"Borokhoaneng","lon":27.51447,"lat":-29.34298,"pop":0},{"id":932894,"name":"Botsabelo","alt":["Botsabelo Asylum"],"lon":27.51667,"lat":-29.26667,"pop":0},{"id":932890,"name":"Brakfontein","lon":27.43452,"lat":-30.24178,"pop":0},{"id":932886,"name":"Butha-Buthe","alt":["Buta-Buteh","Бута-Бутэ"],"lon":28.24937,"lat":-28.76659,"pop":35108},{"id":932885,"name":"Cana","lon":27.83507,"lat":-29.10911,"pop":0},{"id":932882,"name":"Chere","alt":["Cheri"],"lon":27.17003,"lat":-29.60234,"pop":0},{"id":932879,"name":"Corn Exchange","lon":27.98333,"lat":-28.98333,"pop":0},{"id":932878,"name":"Cutting Camp","lon":27.75,"lat":-30.26667,"pop":0},{"id":932865,"name":"Dilli Dilli","lon":27.67018,"lat":-30.52698,"pop":0},{"id":932861,"name":"Dinkung","alt":["Lepatsa"],"lon":28.51667,"lat":-28.61667,"pop":0},{"id":932848,"name":"Emmaus","alt":["Moklepu"],"lon":27.55,"lat":-29.76667,"pop":0},{"id":932847,"name":"Fako","alt":["Fako Store","Fako's","Fako’s"],"lon":27.80598,"lat":-29.28241,"pop":0},{"id":932839,"name":"Fort Hartley","lon":27.75,"lat":-30.33333,"pop":0},{"id":932838,"name":"Fosi","lon":27.86667,"lat":-29.43333,"pop":0},{"id":932837,"name":"Foso","lon":27.56667,"lat":-29.26667,"pop":0},{"id":932835,"name":"George","lon":27.95,"lat":-29.25,"pop":0},{"id":11428146,"name":"Ha Apeal Makhoareng","lon":28.88453,"lat":-30.03169,"pop":0},{"id":11497843,"name":"Ha Foso","lon":27.56969,"lat":-29.26121,"pop":0},{"id":11497839,"name":"Ha Fou","lon":28.51178,"lat":-29.94395,"pop":0},{"id":11395391,"name":"Ha Hoki","lon":28.076,"lat":-28.936,"pop":0},{"id":11428161,"name":"Ha Jimisi","lon":27.54175,"lat":-29.40572,"pop":0},{"id":11467770,"name":"Ha Kamoho","lon":28.2493,"lat":-28.7768,"pop":0},{"id":11281897,"name":"Ha Katu","lon":27.6039,"lat":-29.4629,"pop":0},{"id":11281613,"name":"Ha Keiso","lon":27.5326,"lat":-29.35674,"pop":0},{"id":11239009,"name":"Ha Khabele","lon":27.75357,"lat":-29.33471,"pop":0},{"id":11258455,"name":"Ha Khohlooa","lon":27.71718,"lat":-29.31567,"pop":0},{"id":11398129,"name":"Ha Khojane","lon":28.16186,"lat":-28.95397,"pop":0},{"id":11429059,"name":"Ha Khotlela","lon":27.52827,"lat":-29.78506,"pop":0},{"id":11281388,"name":"Ha Kotsane","lon":28.0815,"lat":-28.8925,"pop":0},{"id":11258600,"name":"Ha Leaoa","lon":28.57239,"lat":-29.35558,"pop":0},{"id":11287516,"name":"Ha Lehloara","lon":28.5579,"lat":-28.95,"pop":0},{"id":11205649,"name":"Ha Lejone","lon":28.0991,"lat":-28.8652,"pop":0},{"id":11427369,"name":"Ha Lekhema","lon":27.47956,"lat":-30.1282,"pop":0},{"id":11467710,"name":"Ha Leoka","lon":28.62,"lat":-29.424,"pop":0},{"id":11281900,"name":"Ha Lethokonyana","lon":27.8168,"lat":-29.1624,"pop":0},{"id":11429054,"name":"Ha Machakela","lon":27.91368,"lat":-30.15158,"pop":0},{"id":11467703,"name":"Ha Macheli","lon":27.77705,"lat":-29.54998,"pop":0},{"id":11398276,"name":"Ha Mafethe","lon":27.544,"lat":-30.174,"pop":0},{"id":11288636,"name":"Ha Mafeto","lon":27.34022,"lat":-29.69195,"pop":0},{"id":11288672,"name":"Ha Majake","lon":27.24018,"lat":-29.67838,"pop":0},{"id":11496159,"name":"Ha Majara","lon":27.99471,"lat":-30.11879,"pop":0},{"id":11497841,"name":"Ha Makhalanyane","lon":27.61514,"lat":-29.40572,"pop":0},{"id":7670817,"name":"ha Makhoroana","lon":28.03563,"lat":-29.15881,"pop":0},{"id":11282217,"name":"Ha Makuka","lon":28.26423,"lat":-28.9337,"pop":0},{"id":11496162,"name":"Ha Malephane","lon":27.8318,"lat":-30.20785,"pop":0},{"id":11280250,"name":"Ha Malibe","lon":27.64384,"lat":-30.38836,"pop":0},{"id":11287524,"name":"Ha Maqotoane","lon":28.0863,"lat":-29.1139,"pop":0},{"id":11282136,"name":"Ha Matala","lon":27.54315,"lat":-29.3755,"pop":0},{"id":11427963,"name":"Ha Matjotjo","lon":27.869,"lat":-29.228,"pop":0},{"id":11352104,"name":"Ha Mohau","lon":28.505,"lat":-29.695,"pop":0},{"id":11377081,"name":"Ha Moima","lon":27.60808,"lat":-29.67996,"pop":0},{"id":11257389,"name":"Ha Mokati","lon":27.901,"lat":-28.9628,"pop":0},{"id":11428910,"name":"Ha Molapo","lon":28.47123,"lat":-28.74618,"pop":0},{"id":11204658,"name":"Ha Molemane","lon":27.729,"lat":-29.1536,"pop":0},{"id":11427347,"name":"Ha Mosi","lon":28.28407,"lat":-30.05279,"pop":0},{"id":11280843,"name":"Ha Motjoka","lon":27.74832,"lat":-29.14329,"pop":0},{"id":11300083,"name":"Ha Motsapi","lon":27.769,"lat":-30.572,"pop":0},{"id":11103144,"name":"Ha Mpesi","lon":27.56694,"lat":-29.38444,"pop":0},{"id":11239779,"name":"Ha Mphobe","lon":27.10645,"lat":-29.6846,"pop":0},{"id":11467861,"name":"Ha Nchoba","lon":27.44174,"lat":-30.10171,"pop":0},{"id":11205631,"name":"Ha Nelese","lon":27.56052,"lat":-29.3779,"pop":0},{"id":11288678,"name":"Ha Nepe","lon":27.66,"lat":-29.119,"pop":0},{"id":932829,"name":"Ha Nohana","alt":["Na Nohama"],"lon":27.85378,"lat":-30.05371,"pop":0},{"id":11398231,"name":"Ha Ntjabane","lon":27.74135,"lat":-29.13759,"pop":0},{"id":11427991,"name":"Ha Ntsabane","lon":27.871,"lat":-29.0919,"pop":0},{"id":11237642,"name":"Ha Ntsooa","lon":28.545,"lat":-29.251,"pop":0},{"id":7670779,"name":"Ha Nyenye","lon":27.91677,"lat":-28.90405,"pop":0},{"id":11258051,"name":"Ha Paki","lon":27.5559,"lat":-29.4103,"pop":0},{"id":11258478,"name":"Ha Petje","lon":27.33575,"lat":-29.33455,"pop":0},{"id":11352302,"name":"Ha Phohleli","lon":27.63008,"lat":-29.51522,"pop":0},{"id":11467769,"name":"Ha Putsoane","lon":27.8,"lat":-30.2359,"pop":0},{"id":11497840,"name":"Ha Qacha","lon":27.81407,"lat":-30.21869,"pop":0},{"id":11405423,"name":"Ha Ramalapi","lon":28.6169,"lat":-29.57196,"pop":0},{"id":11287519,"name":"Ha Ramonaheng","lon":27.74166,"lat":-29.15139,"pop":0},{"id":11427965,"name":"Ha Ramosoeu","lon":27.525,"lat":-29.908,"pop":0},{"id":11475545,"name":"Ha Raphera","lon":27.81833,"lat":-30.43444,"pop":0},{"id":11237675,"name":"Ha Ratsoana","lon":27.4936,"lat":-29.3552,"pop":0},{"id":11258466,"name":"Ha Sankatana","lon":27.40585,"lat":-30.16897,"pop":0},{"id":11352359,"name":"Ha Sebaki","lon":27.465,"lat":-29.919,"pop":0},{"id":11352139,"name":"Ha Sejakhosi","lon":27.854,"lat":-30.407,"pop":0},{"id":11239736,"name":"Ha Sekhebetlele","lon":28.1068,"lat":-29.9581,"pop":0},{"id":11258822,"name":"Ha Seleitara","lon":27.76685,"lat":-30.29298,"pop":0},{"id":932083,"name":"Ha Senekane","alt":["Senekal","Senekals"],"lon":27.72765,"lat":-29.2554,"pop":0},{"id":11287864,"name":"Ha Setala","lon":28.81315,"lat":-29.67801,"pop":0},{"id":11427335,"name":"Ha Sikara","lon":27.7006,"lat":-30.39907,"pop":0},{"id":11205033,"name":"Ha Takalimane","lon":27.56488,"lat":-29.44309,"pop":0},{"id":11428875,"name":"Ha Thetsane","lon":27.46262,"lat":-29.33974,"pop":0},{"id":11397271,"name":"Ha Thibeli","lon":28.48071,"lat":-29.17025,"pop":0},{"id":11103074,"name":"Ha Thoso","lon":28.744,"lat":-29.405,"pop":0},{"id":11281617,"name":"Ha Tlhakanenlo","lon":27.47056,"lat":-29.59544,"pop":0},{"id":11496161,"name":"Ha Tsautse","lon":27.43486,"lat":-29.45344,"pop":0},{"id":7669374,"name":"Ha Tsolo","lon":27.46342,"lat":-29.35348,"pop":0},{"id":11428502,"name":"Ha-Nkhetheleng","lon":27.54197,"lat":-30.29446,"pop":0},{"id":11288048,"name":"Ha-Ramokoatsi","lon":27.34724,"lat":-29.7477,"pop":0},{"id":11204674,"name":"Ha-Seoli","lon":27.50813,"lat":-29.37135,"pop":0},{"id":932830,"name":"Hangers Drift","lon":27.56667,"lat":-29.2,"pop":0},{"id":932828,"name":"Helehehle","lon":27.5,"lat":-29.98333,"pop":0},{"id":932827,"name":"Helspoort","alt":["Hellspoort","Hellspoort Store"],"lon":27.4,"lat":-29.86667,"pop":0},{"id":932826,"name":"Hendriks","alt":["Masilo"],"lon":28.40448,"lat":-28.62929,"pop":0},{"id":932825,"name":"Hermon","lon":27.11191,"lat":-29.72529,"pop":0},{"id":932824,"name":"Hill Top","lon":28.8062,"lat":-30.05363,"pop":0},{"id":11205008,"name":"Hills View","lon":27.47533,"lat":-29.32699,"pop":0},{"id":932822,"name":"Hlakametsas","alt":["Hlakametas","Hlakametsa"],"lon":28.43679,"lat":-28.71234,"pop":0},{"id":7303689,"name":"Hleoheng","lon":27.87038,"lat":-28.92899,"pop":0},{"id":932816,"name":"Hlotse Camp","lon":28.07512,"lat":-28.88291,"pop":0},{"id":932814,"name":"Hobsons","lon":27.96667,"lat":-29.11667,"pop":0},{"id":932809,"name":"Jaele","alt":["Jael"],"lon":27.87387,"lat":-29.45688,"pop":0},{"id":932808,"name":"Joel","alt":["Joels"],"lon":28.28333,"lat":-28.68333,"pop":0},{"id":932807,"name":"Joels Drift","lon":28.28333,"lat":-28.7,"pop":0},{"id":932806,"name":"Jonathans","alt":["Jonathan"],"lon":28.10665,"lat":-28.8016,"pop":0},{"id":932803,"name":"Kala","alt":["Kalo"],"lon":28.33333,"lat":-28.71667,"pop":0},{"id":7303489,"name":"Kao","lon":28.62736,"lat":-29.01579,"pop":0},{"id":932802,"name":"Kaphe","alt":["Kapi"],"lon":27.64088,"lat":-29.95565,"pop":0},{"id":11288140,"name":"Katlehong","lon":27.489,"lat":-29.331,"pop":0},{"id":932800,"name":"Kelechane","alt":["Khalechane"],"lon":27.80467,"lat":-29.74481,"pop":0},{"id":932798,"name":"Kena","lon":27.65,"lat":-29.76667,"pop":0},{"id":932797,"name":"Kepi","lon":27.77199,"lat":-29.15648,"pop":0},{"id":932792,"name":"Khabos","lon":28.23333,"lat":-28.83333,"pop":0},{"id":932790,"name":"Khamolane","lon":27.73333,"lat":-29.35,"pop":0},{"id":932784,"name":"Khetisas","lon":28.16667,"lat":-28.91667,"pop":0},{"id":932780,"name":"Khitsane","lon":27.41387,"lat":-30.09214,"pop":0},{"id":932771,"name":"Khotsi","alt":["Khotsis","Rakoto"],"lon":27.93539,"lat":-29.06107,"pop":0},{"id":932766,"name":"Khukuhune","alt":["Khukhune"],"lon":28.41667,"lat":-28.71667,"pop":0},{"id":11103478,"name":"Koalabata","lon":27.55698,"lat":-29.29676,"pop":0},{"id":932764,"name":"Koali","alt":["Koadi","Makoalis"],"lon":27.76669,"lat":-29.20476,"pop":0},{"id":932760,"name":"Koeneng","alt":["Kwening"],"lon":28.01667,"lat":-29.06667,"pop":0},{"id":932761,"name":"Koeneng","lon":28,"lat":-29.03333,"pop":0},{"id":932754,"name":"Kokolia","alt":["Kokodia"],"lon":27.90831,"lat":-29.30522,"pop":0},{"id":932750,"name":"Kolo","lon":27.34835,"lat":-29.59315,"pop":0},{"id":932746,"name":"Kolonyama","alt":["Manama"],"lon":27.73308,"lat":-29.06506,"pop":0},{"id":932741,"name":"Koro-Koro","alt":["Saint Joseph's","Saint Joseph’s"],"lon":27.63333,"lat":-29.5,"pop":0},{"id":932733,"name":"Kubung","lon":28.01978,"lat":-30.09404,"pop":0},{"id":932730,"name":"Kueneng","lon":28.00787,"lat":-29.07472,"pop":0},{"id":932725,"name":"Laoti","lon":28.51667,"lat":-29.03333,"pop":0},{"id":932723,"name":"Lebingwanas Cattle Post","alt":["Ledingwana's Cattle Post","Ledingwana’s Cattle Post"],"lon":28.9,"lat":-28.91667,"pop":0},{"id":932718,"name":"Lejone","lon":28.48807,"lat":-29.10853,"pop":0},{"id":932711,"name":"Lekhooa","alt":["Lekhoa"],"lon":27.91667,"lat":-29.9,"pop":0},{"id":932710,"name":"Lekoatsa","alt":["Lekhoatsas"],"lon":27.42761,"lat":-29.90857,"pop":0},{"id":932709,"name":"Lekokoaneng","alt":["Lehlohonolo"],"lon":27.69003,"lat":-29.16433,"pop":0},{"id":932698,"name":"Leribe","alt":["Hlotse","LRB","Лерибе"],"lon":28.04501,"lat":-28.87185,"pop":38558},{"id":11429062,"name":"Leribe Moreneng","lon":28.10887,"lat":-28.79989,"pop":0},{"id":932696,"name":"Lersuelas","lon":28.1,"lat":-29.03333,"pop":0},{"id":7303401,"name":"Lesobeng","alt":["LES"],"lon":28.3589,"lat":-29.75778,"pop":0},{"id":11205012,"name":"Letlapeng","lon":28.49528,"lat":-29.37333,"pop":0},{"id":932684,"name":"Letseng-la-Terae","alt":["Letseng-la-Draai","Terae"],"lon":28.81667,"lat":-28.91667,"pop":0},{"id":932682,"name":"Letsie","lon":27.31667,"lat":-29.83333,"pop":0},{"id":932680,"name":"Letsikas","alt":["Letsika"],"lon":28.4229,"lat":-28.66502,"pop":0},{"id":932681,"name":"Letsikas","lon":28.38333,"lat":-28.63333,"pop":0},{"id":932677,"name":"Leutsoa","alt":["Loutsa"],"lon":27.51626,"lat":-29.53689,"pop":0},{"id":932676,"name":"Libono","alt":["Dibuno's","Dibuno’s","Libono's","Libono’s"],"lon":28.57097,"lat":-28.6244,"pop":0},{"id":932669,"name":"Likhakeng","alt":["Petlane"],"lon":27.31949,"lat":-29.6214,"pop":0},{"id":932663,"name":"Likhoele","lon":27.29492,"lat":-29.80693,"pop":0},{"id":11290011,"name":"Likhutlong","lon":27.482,"lat":-30.148,"pop":0},{"id":932656,"name":"Likupa","alt":["Dikupa"],"lon":27.28793,"lat":-29.7649,"pop":0},{"id":11280712,"name":"Linakeng Ha Mphosi","lon":28.78491,"lat":-29.5297,"pop":0},{"id":932644,"name":"Liphakoeng","lon":28.36484,"lat":-28.72794,"pop":0},{"id":932643,"name":"Liphateng","alt":["Mokibinyani"],"lon":27.43349,"lat":-30.03942,"pop":0},{"id":7303560,"name":"Liqhobong","lon":28.59866,"lat":-28.9876,"pop":0},{"id":932636,"name":"Lirahalibonoe","lon":27.93333,"lat":-29.45,"pop":0},{"id":11205703,"name":"Lisemeng 1","lon":28.04202,"lat":-28.87841,"pop":0},{"id":932633,"name":"Litsilong","alt":["Majatla"],"lon":27.70356,"lat":-29.22257,"pop":0},{"id":11427334,"name":"Live-Stock","lon":28.60161,"lat":-29.52915,"pop":0},{"id":932625,"name":"Lower Qeme","lon":27.49545,"lat":-29.53242,"pop":0},{"id":11282169,"name":"Lower Seoli","lon":27.52112,"lat":-29.36246,"pop":0},{"id":11405426,"name":"Lower Thamae","lon":27.5135,"lat":-29.31986,"pop":0},{"id":11237575,"name":"Mabote","lon":27.52417,"lat":-29.27861,"pop":0},{"id":932621,"name":"Mabotse","alt":["Mabotsi"],"lon":27.06723,"lat":-29.64353,"pop":0},{"id":932618,"name":"Machekoaneng","alt":["Nkata"],"lon":27.545,"lat":-29.43532,"pop":0},{"id":932614,"name":"Mafeteng","alt":["MFC"],"lon":27.23744,"lat":-29.82299,"pop":39754},{"id":11205706,"name":"Mafikeng","lon":27.71376,"lat":-29.45349,"pop":0},{"id":932610,"name":"Maghalleen","alt":["Maghaleen"],"lon":27.39565,"lat":-30.15764,"pop":0},{"id":932608,"name":"Mahatlanes","alt":["Mahatlames","Mahatlane"],"lon":27.84178,"lat":-29.20855,"pop":0},{"id":932604,"name":"Mahlatsas Nek","lon":27.98333,"lat":-29.21667,"pop":0},{"id":932603,"name":"Mahloenyeng","alt":["Lehloenyas","Lehlonia"],"lon":27.55126,"lat":-29.5689,"pop":0},{"id":11428519,"name":"Makeneng","lon":27.313,"lat":-29.821,"pop":0},{"id":932591,"name":"Makhaketsa","alt":["Makakaitsa"],"lon":27.75745,"lat":-29.00184,"pop":0},{"id":932588,"name":"Makhalanyane","alt":["Makhalanyanes"],"lon":27.61739,"lat":-29.40874,"pop":0},{"id":932586,"name":"Makhaleng","lon":27.9,"lat":-29.51667,"pop":0},{"id":932582,"name":"Makhinas","lon":27.35,"lat":-30.15,"pop":0},{"id":932579,"name":"Makhoas","lon":28.13354,"lat":-28.96386,"pop":0},{"id":932578,"name":"Makhoathi","alt":["Makhoate"],"lon":27.5998,"lat":-29.34987,"pop":0},{"id":7303607,"name":"Makhunoane","lon":28.45609,"lat":-28.62725,"pop":0},{"id":932575,"name":"Makojang","alt":["Makoyang"],"lon":27.73333,"lat":-29.93333,"pop":0},{"id":932571,"name":"Makuaes","lon":28.05757,"lat":-30.28799,"pop":0},{"id":932566,"name":"Malaleng","lon":27.33581,"lat":-29.65254,"pop":0},{"id":932564,"name":"Malealea","alt":["Kwepe"],"lon":27.56667,"lat":-29.85,"pop":0},{"id":932558,"name":"Malibe","alt":["Madibe"],"lon":27.93577,"lat":-30.24886,"pop":0},{"id":932547,"name":"Mamathes","alt":["Mamathe","Mamati","Masupha"],"lon":27.83363,"lat":-29.12636,"pop":0},{"id":11281632,"name":"Manekoleng","lon":27.76933,"lat":-30.3838,"pop":0},{"id":11352294,"name":"Mangaung","lon":29.0412,"lat":-29.2895,"pop":0},{"id":932540,"name":"Mankimane","lon":27.35,"lat":-29.85,"pop":0},{"id":11497842,"name":"Mankoaneng","lon":28.04039,"lat":-28.8687,"pop":0},{"id":932539,"name":"Mantoetsi","lon":27.9,"lat":-29.15,"pop":0},{"id":932538,"name":"Mantsa","lon":27.83799,"lat":-29.6558,"pop":0},{"id":932537,"name":"Mantsebo","lon":27.51667,"lat":-29.48333,"pop":0},{"id":7729880,"name":"Mantsonyane","lon":28.26991,"lat":-29.53317,"pop":0},{"id":932527,"name":"Maphutseng","alt":["Maputseng Store"],"lon":27.51667,"lat":-30.21667,"pop":0},{"id":932525,"name":"Mapoteng","lon":27.9741,"lat":-29.10979,"pop":0},{"id":932524,"name":"Mapotu","alt":["Mopoto"],"lon":27.22512,"lat":-29.63973,"pop":0},{"id":932521,"name":"Maputsoe","lon":27.89915,"lat":-28.8866,"pop":32117},{"id":932516,"name":"Marakabeis","alt":["Marakabei","Saint John Baptist"],"lon":28.14148,"lat":-29.54498,"pop":0},{"id":932505,"name":"Maseru","alt":["MSU","Maserou","Maseruo","Maserú","Mazerou","ma sai lu","ma se ru","ma xie lu","maceru","maselu","maseru","masrw","masyrw","msrw","Μαζέρου","Μασερού","Масеру","Մասերու","מאסערו","מסרו","ماسرو","ماسيرو","ماسیرو","ماسێرو","मासेरू","ਮਸੇਰੂ","மசேரு","มาเซรู","མ་སི་རུ།","მასერუ","መሴሩ","マセル","馬些盧","马塞卢","마세루"],"lon":27.48333,"lat":-29.31667,"pop":118355},{"id":11258821,"name":"Maseru West","lon":27.47631,"lat":-29.30468,"pop":0},{"id":932502,"name":"Mashai","lon":28.80923,"lat":-29.64512,"pop":0},{"id":932494,"name":"Masite Nek","alt":["Palama"],"lon":27.48914,"lat":-29.58838,"pop":0},{"id":932493,"name":"Masitise","lon":27.64556,"lat":-30.40404,"pop":0},{"id":932492,"name":"Massabiella","alt":["Tsiu","Tsius"],"lon":27.57716,"lat":-29.53067,"pop":0},{"id":932488,"name":"Mateka","alt":["Matekas"],"lon":27.88333,"lat":-29.23333,"pop":0},{"id":932487,"name":"Matela","alt":["Khotsa","Matelas"],"lon":27.76764,"lat":-29.37502,"pop":0},{"id":932480,"name":"Mathokoane","alt":["Peete Molapo"],"lon":28.02778,"lat":-28.97246,"pop":0},{"id":11288150,"name":"Matlapaneng","lon":27.236,"lat":-29.821,"pop":0},{"id":932474,"name":"Matsaba","alt":["John Matsaba"],"lon":27.75263,"lat":-29.65974,"pop":0},{"id":932472,"name":"Matsaile","alt":["MSG"],"lon":28.7758,"lat":-29.81867,"pop":0},{"id":932470,"name":"Matsieng","lon":27.56645,"lat":-29.61715,"pop":0},{"id":932471,"name":"Matsieng","lon":27.53333,"lat":-29.6,"pop":0},{"id":932466,"name":"Mazenod","lon":27.56893,"lat":-29.41896,"pop":0},{"id":932460,"name":"Mekaling","alt":["Mekading","Nkeleng"],"lon":27.48781,"lat":-30.29135,"pop":0},{"id":932449,"name":"Metolong","alt":["Mokotoko"],"lon":27.78338,"lat":-29.34379,"pop":0},{"id":932440,"name":"Mofokas","alt":["Mofoka"],"lon":27.59683,"lat":-29.50601,"pop":0},{"id":11204815,"name":"Mohalalitoe","lon":27.50693,"lat":-29.31537,"pop":0},{"id":932438,"name":"Mohale’s Hoek","alt":["Mohale's Hoek"],"lon":27.47691,"lat":-30.15137,"pop":40040},{"id":932436,"name":"Mohlafateng","lon":27.86667,"lat":-29.03333,"pop":0},{"id":932435,"name":"Mohlakoanas","alt":["Mahlakoanas","Mohlakwana"],"lon":27.93939,"lat":-30.21788,"pop":0},{"id":932434,"name":"Mohlanapeng","lon":28.66963,"lat":-29.59308,"pop":0},{"id":932433,"name":"Mohlehli","alt":["Bolumatau"],"lon":27.20782,"lat":-29.73885,"pop":0},{"id":932428,"name":"Moitsupelis","lon":27.76667,"lat":-29.58333,"pop":0},{"id":932427,"name":"Mojela","alt":["Lekhoa"],"lon":27.88814,"lat":-29.54875,"pop":0},{"id":932426,"name":"Mokema","alt":["Mokemas Store"],"lon":27.65,"lat":-29.46667,"pop":0},{"id":932424,"name":"Mokhalinyane","alt":["Makadinyane"],"lon":27.36667,"lat":-29.48333,"pop":0},{"id":932423,"name":"Mokhathis","alt":["Makati"],"lon":27.95,"lat":-29.11667,"pop":0},{"id":932416,"name":"Mokhotlong","alt":["MKH","Мохотлонг"],"lon":29.06751,"lat":-29.28939,"pop":8809},{"id":932411,"name":"Mokoeng","alt":["TKO","Tlokoeng"],"lon":28.90116,"lat":-29.24077,"pop":0},{"id":932409,"name":"Mokomane","lon":28.54508,"lat":-28.99637,"pop":0},{"id":932408,"name":"Mokonyane","alt":["Mokunyane"],"lon":27.85867,"lat":-29.28832,"pop":0},{"id":7669382,"name":"Mokopung","lon":28.1716,"lat":-30.0212,"pop":0},{"id":932405,"name":"Mokoroane","lon":27.21481,"lat":-29.92369,"pop":0},{"id":932400,"name":"Molefis","lon":28.28333,"lat":-28.76667,"pop":0},{"id":932399,"name":"Moletsane","alt":["Moletsane's Store","Moletsane’s Store"],"lon":27.31424,"lat":-29.92743,"pop":0},{"id":932398,"name":"Moletsanes","alt":["Moletsane's Store","Moletsane’s Store","Moletsani Store"],"lon":28.05,"lat":-29.16667,"pop":0},{"id":932396,"name":"Moliboeas","lon":28.05,"lat":-28.95,"pop":0},{"id":932397,"name":"Moliboeas","alt":["Modiboea"],"lon":28.1,"lat":-28.9,"pop":0},{"id":932394,"name":"Molomos Hoek","lon":27.48407,"lat":-29.71603,"pop":0},{"id":932391,"name":"Molumong","lon":28.98931,"lat":-29.32551,"pop":0},{"id":932390,"name":"Monaheng","lon":27.71667,"lat":-29.86667,"pop":0},{"id":932389,"name":"Monantsa","lon":28.63333,"lat":-28.56667,"pop":0},{"id":932382,"name":"Monyake","alt":["Monyaki"],"lon":27.33949,"lat":-29.97715,"pop":0},{"id":932377,"name":"Morameng","lon":27.72566,"lat":-29.08004,"pop":0},{"id":932372,"name":"Morifi","alt":["Morife","Morife Store"],"lon":27.40383,"lat":-30.30249,"pop":0},{"id":932371,"name":"Morija","lon":27.51351,"lat":-29.62982,"pop":0},{"id":932369,"name":"Morunyaneng","alt":["Matedile Store","Matelile"],"lon":27.53327,"lat":-29.8311,"pop":0},{"id":932367,"name":"Mosala","alt":["Mosalas"],"lon":27.55707,"lat":-29.72984,"pop":0},{"id":932362,"name":"Mosetlas","alt":["Mosetle"],"lon":27.75,"lat":-30.33333,"pop":0},{"id":932351,"name":"Motloang","alt":["Matbang"],"lon":27.64998,"lat":-29.32236,"pop":0},{"id":11103714,"name":"Motse-Mocha","lon":27.55235,"lat":-29.43023,"pop":0},{"id":932347,"name":"Motsekuoa","alt":["Ha Bele","Mosekuwa's Store","Mosekuwa’s Store","Motsekuoas"],"lon":27.43436,"lat":-29.70102,"pop":0},{"id":932344,"name":"Motsie","lon":28.28311,"lat":-29.92015,"pop":0},{"id":932341,"name":"Mount Moorosi","alt":["Masiribani","Mount Moroosi"],"lon":27.87076,"lat":-30.2731,"pop":0},{"id":932338,"name":"Moyeni Camp","lon":27.68333,"lat":-30.41667,"pop":0},{"id":932339,"name":"Moyeni Camp","lon":27.73333,"lat":-30.36667,"pop":0},{"id":932330,"name":"Mpharane","lon":27.55,"lat":-30.01667,"pop":0},{"id":932328,"name":"Mphoto","lon":27.58916,"lat":-29.44536,"pop":0},{"id":932327,"name":"Mpite","alt":["Mpiti"],"lon":28.62082,"lat":-30.07465,"pop":0},{"id":932326,"name":"Mpobong","lon":27.8034,"lat":-29.77818,"pop":0},{"id":932322,"name":"Mutlanyane","lon":28.45,"lat":-28.81667,"pop":0},{"id":932320,"name":"Nako","alt":["Makhalaneng","Naku"],"lon":27.76667,"lat":-29.61667,"pop":13146},{"id":932318,"name":"Neni","lon":28.35,"lat":-30.2,"pop":0},{"id":11281883,"name":"Nkaus","alt":["NKU"],"lon":28.20005,"lat":-30.03315,"pop":0},{"id":932309,"name":"Nthamaha","alt":["Umtamana"],"lon":27.91667,"lat":-29.98333,"pop":0},{"id":932308,"name":"Nthodimonate","lon":27.75,"lat":-30.48333,"pop":0},{"id":932307,"name":"Ntilane","lon":27.28333,"lat":-29.96667,"pop":0},{"id":932303,"name":"Ntlamas","alt":["Ntlama"],"lon":27.87541,"lat":-29.17442,"pop":0},{"id":932298,"name":"Ntsane","alt":["Chete"],"lon":27.80822,"lat":-29.51421,"pop":0},{"id":932297,"name":"Ntsi","lon":27.76366,"lat":-29.4002,"pop":0},{"id":932289,"name":"Numolani","lon":28.96667,"lat":-29.05,"pop":0},{"id":932288,"name":"Nyakosoba","lon":27.77324,"lat":-29.52522,"pop":0},{"id":932287,"name":"Nyane","alt":["Saint Anne of Auray"],"lon":28.23991,"lat":-29.58096,"pop":0},{"id":932286,"name":"Old Mohales Hoek","alt":["Old Mohales Hoek Store"],"lon":27.47549,"lat":-30.10729,"pop":0},{"id":932279,"name":"Patrick","alt":["Saint Patrick"],"lon":27.74409,"lat":-29.52606,"pop":0},{"id":932275,"name":"Peka","lon":27.75004,"lat":-28.96808,"pop":0},{"id":932276,"name":"Peka","alt":["Matsohani"],"lon":27.76258,"lat":-28.96883,"pop":0},{"id":932271,"name":"Phafoli","alt":["Phafudi"],"lon":27.67746,"lat":-29.80576,"pop":0},{"id":11103542,"name":"Phahameng","lon":27.4153,"lat":-30.22196,"pop":0},{"id":11281612,"name":"Phahameng","lon":27.23262,"lat":-29.82922,"pop":0},{"id":932269,"name":"Phamong","alt":["Griffiths"],"lon":27.8014,"lat":-30.24809,"pop":0},{"id":11377124,"name":"Phelandaba","lon":28.50266,"lat":-28.76322,"pop":0},{"id":932260,"name":"Phoofolo","alt":["Phoofolo's","Phoofolo’s","Pufulo"],"lon":27.81097,"lat":-29.0623,"pop":0},{"id":11427338,"name":"Phopholetsa","lon":27.52454,"lat":-29.30697,"pop":0},{"id":932248,"name":"Pitseng","lon":28.21328,"lat":-29.00699,"pop":0},{"id":932223,"name":"Qaba","alt":["Pitseng"],"lon":27.59149,"lat":-29.85897,"pop":0},{"id":932218,"name":"Qacha’s Nek","alt":["Qacha's Neck","Qacha's Nek","Qacha's Nek Residency","Qachas Nek Camp","Qachasnek Camp","Qacha’s Neck","Qacha’s Nek Residency","UNE"],"lon":28.68936,"lat":-30.11537,"pop":25573},{"id":932215,"name":"Qalaheng","lon":27.66212,"lat":-29.21295,"pop":0},{"id":11103467,"name":"Qalakheng","lon":27.47694,"lat":-30.13472,"pop":0},{"id":11280717,"name":"Qalo","lon":28.31308,"lat":-28.71895,"pop":0},{"id":932212,"name":"Qamako","alt":["Thabatsoeu"],"lon":27.40898,"lat":-29.78468,"pop":0},{"id":932196,"name":"Qiloane","lon":27.68291,"lat":-29.35115,"pop":0},{"id":932190,"name":"Qomoqomong","lon":27.73333,"lat":-30.43333,"pop":0},{"id":932183,"name":"Quthing","alt":["Cguting","Moyeni","UTG","Цгутинг"],"lon":27.70027,"lat":-30.40001,"pop":27314},{"id":932177,"name":"Rafolatsane","alt":["Rafolatsana"],"lon":29.00679,"lat":-29.34799,"pop":0},{"id":932175,"name":"Rakotoane","lon":28.55146,"lat":-29.02743,"pop":0},{"id":932173,"name":"Raleqheka","alt":["Raleqika"],"lon":27.70025,"lat":-29.67959,"pop":0},{"id":7669282,"name":"Ramabanta","lon":27.78695,"lat":-29.66732,"pop":0},{"id":932172,"name":"Ramabitsa","alt":["Motanyane"],"lon":27.71667,"lat":-29.73333,"pop":0},{"id":932171,"name":"Ramahleas","alt":["Ramahleos","Ramoihloe Store"],"lon":27.15,"lat":-29.75,"pop":0},{"id":932170,"name":"Ramapepe","lon":28.14915,"lat":-28.98999,"pop":0},{"id":932169,"name":"Ramatseliso","alt":["Ramatsediso"],"lon":28.93315,"lat":-30.04965,"pop":0},{"id":932166,"name":"Ramosoeu","alt":["Ramosueu"],"lon":27.52446,"lat":-29.90776,"pop":0},{"id":932164,"name":"Ranko","alt":["Sekameng"],"lon":27.23867,"lat":-29.56713,"pop":0},{"id":932161,"name":"Rasebetsane","alt":["Rasebetsana"],"lon":27.75,"lat":-29.85,"pop":0},{"id":932160,"name":"Rasekilas","lon":28.35,"lat":-28.75,"pop":0},{"id":932159,"name":"Ratau","alt":["Theko"],"lon":27.73457,"lat":-29.3611,"pop":0},{"id":932157,"name":"Reisi","lon":27.41523,"lat":-29.63197,"pop":0},{"id":932155,"name":"Ribaneng","alt":["Kojoa"],"lon":27.6627,"lat":-29.84425,"pop":0},{"id":932153,"name":"Richard","lon":27.61667,"lat":-29.88333,"pop":0},{"id":932152,"name":"Riet Vlei","alt":["Rietvlei Store"],"lon":27.33333,"lat":-30.01667,"pop":0},{"id":932150,"name":"Roma","alt":["Roma Mission"],"lon":27.72494,"lat":-29.46134,"pop":0},{"id":932151,"name":"Roma","lon":27.70806,"lat":-29.44667,"pop":0},{"id":932129,"name":"Schoolplaats","lon":27.5,"lat":-30.3,"pop":0},{"id":11287951,"name":"Sea-Point","lon":27.49895,"lat":-29.30766,"pop":0},{"id":932118,"name":"Seetsas","lon":28.17516,"lat":-28.90035,"pop":0},{"id":932112,"name":"Sefikeng","lon":27.80765,"lat":-29.27894,"pop":0},{"id":932111,"name":"Seforong","lon":28.24791,"lat":-30.05252,"pop":0},{"id":932110,"name":"Sehlabathebe","lon":29.05186,"lat":-29.87509,"pop":0},{"id":932106,"name":"Sehonghong","alt":["Molao","Molaoa","SHK"],"lon":28.79745,"lat":-29.77826,"pop":0},{"id":932101,"name":"Sekake","alt":["SKQ","Sekakes","Sekoke","Sikaki"],"lon":28.35,"lat":-30,"pop":0},{"id":11280733,"name":"Sekamaneng","lon":27.54444,"lat":-29.28028,"pop":0},{"id":932095,"name":"Sekoala","alt":["Sekoalas","Sekwale"],"lon":27.46667,"lat":-29.43333,"pop":0},{"id":932091,"name":"Selomas","alt":["Selomo","Selomos"],"lon":28.34329,"lat":-28.77549,"pop":0},{"id":932077,"name":"Sepechele","lon":27.36526,"lat":-29.79628,"pop":0},{"id":932076,"name":"Sephapos Gate","alt":["Sepapo's","Sepapo’s","Sepapus Gate"],"lon":27.21308,"lat":-29.95406,"pop":0},{"id":932074,"name":"Serutle","alt":["Serutli Store"],"lon":28.29942,"lat":-28.72906,"pop":0},{"id":932073,"name":"Seshophe","alt":["Likolojane","Sishupi"],"lon":27.96667,"lat":-29.03333,"pop":0},{"id":932070,"name":"Setleketseng","alt":["Nkesi"],"lon":27.7875,"lat":-29.664,"pop":0},{"id":932071,"name":"Setleketseng","alt":["Setleketsing"],"lon":28,"lat":-29.6,"pop":0},{"id":932067,"name":"Seutloali","alt":["Masoeling","Phatso"],"lon":27.95174,"lat":-29.16845,"pop":0},{"id":932065,"name":"Sibi Sibi","lon":27.82006,"lat":-29.89628,"pop":0},{"id":932061,"name":"Siloe","lon":27.28294,"lat":-29.9541,"pop":0},{"id":932058,"name":"Sinxondo","alt":["Kalokuni"],"lon":27.73333,"lat":-30.56667,"pop":0},{"id":932053,"name":"Tabola","lon":27.81928,"lat":-28.96189,"pop":0},{"id":932051,"name":"Tajane","alt":["Molomo","Tayane"],"lon":27.48341,"lat":-29.71058,"pop":0},{"id":932049,"name":"Tau","lon":28.18333,"lat":-29.01667,"pop":0},{"id":11103536,"name":"Taung","lon":27.54512,"lat":-29.41744,"pop":0},{"id":11103537,"name":"Taung","lon":27.61333,"lat":-30.365,"pop":0},{"id":932046,"name":"Teba","alt":["Qhoobeng","Theba"],"lon":27.88103,"lat":-29.96845,"pop":0},{"id":932035,"name":"Teyateyaneng","lon":27.74895,"lat":-29.14719,"pop":5115},{"id":932033,"name":"Thaba Bosigo","alt":["Thaba Bosiu"],"lon":27.67134,"lat":-29.3451,"pop":0},{"id":932012,"name":"Thaba Putsoa","lon":28.06095,"lat":-29.59367,"pop":0},{"id":1106835,"name":"Thaba-Tseka","alt":["THB","Taba-Ceka","Таба-Цека"],"lon":28.6084,"lat":-29.52204,"pop":15248},{"id":932025,"name":"Thabana Morena","lon":27.42044,"lat":-29.96008,"pop":0},{"id":932022,"name":"Thabaneng","lon":27.5,"lat":-29.81667,"pop":0},{"id":11428275,"name":"Thabong I","lon":28.5931,"lat":-29.50911,"pop":0},{"id":932009,"name":"Thakabannas","alt":["Thakabanna"],"lon":28.46443,"lat":-28.61571,"pop":0},{"id":932008,"name":"Thakabannas Cattle Post","lon":28.65,"lat":-28.75,"pop":0},{"id":932005,"name":"Theetsoa","lon":27.9,"lat":-29.71667,"pop":0},{"id":932004,"name":"Theko","alt":["Thekos"],"lon":27.76667,"lat":-29.41667,"pop":0},{"id":11257185,"name":"Thetsane West","lon":27.44698,"lat":-29.34448,"pop":0},{"id":932003,"name":"Thokoa","lon":27.7731,"lat":-29.02975,"pop":0},{"id":932002,"name":"Tholo","lon":28.51507,"lat":-29.04189,"pop":0},{"id":932000,"name":"Thulo","alt":["Tholo"],"lon":27.26008,"lat":-29.58907,"pop":0},{"id":11205084,"name":"Tikathole","alt":["Ha Leboea"],"lon":27.39704,"lat":-29.47378,"pop":0},{"id":931995,"name":"Tikoe","alt":["Leklatsa"],"lon":27.46228,"lat":-29.35656,"pop":0},{"id":931990,"name":"Tlalis","alt":["Tlali"],"lon":27.71949,"lat":-29.58803,"pop":0},{"id":931983,"name":"Tlhakanelo","alt":["Hlakanelo"],"lon":28.8,"lat":-29.71667,"pop":0},{"id":931977,"name":"Toloane","alt":["Lekhoa"],"lon":27.46809,"lat":-29.64452,"pop":0},{"id":931975,"name":"Tosing","lon":27.91471,"lat":-30.33585,"pop":0},{"id":11395540,"name":"Ts'enola","lon":27.53869,"lat":-29.30923,"pop":0},{"id":931973,"name":"Tsa Kholo","lon":27.15164,"lat":-29.66918,"pop":0},{"id":931965,"name":"Tsehlo","alt":["Sehlo","Tsehlos"],"lon":27.78333,"lat":-29.31667,"pop":0},{"id":931964,"name":"Tseka","lon":27.50984,"lat":-29.41225,"pop":0},{"id":931951,"name":"Tsiame","alt":["Likotsi","Lipolisa"],"lon":27.45833,"lat":-29.38849,"pop":0},{"id":931949,"name":"Tsikoane","lon":27.9962,"lat":-28.89379,"pop":0},{"id":931946,"name":"Tsime","lon":28.41613,"lat":-28.78831,"pop":0},{"id":931939,"name":"Tsoelike","lon":28.69723,"lat":-30.03259,"pop":0},{"id":931940,"name":"Tsoelike","lon":28.66667,"lat":-30.01667,"pop":0},{"id":11288057,"name":"Tsoilitsoili","lon":27.74361,"lat":-29.0425,"pop":0},{"id":931937,"name":"Tsoloane","alt":["Tsoloani"],"lon":27.35988,"lat":-30.01335,"pop":0},{"id":931931,"name":"Tsupane Gate","alt":["Sepanies Gate","Tsupani Gate"],"lon":27.09854,"lat":-29.7071,"pop":0},{"id":11282124,"name":"Tuke","lon":27.9999,"lat":-29.0174,"pop":0},{"id":931925,"name":"Upper Qeme","alt":["Choatlella"],"lon":27.51199,"lat":-29.50895,"pop":0},{"id":11280617,"name":"Upper Thamae","lon":27.5128,"lat":-29.33051,"pop":0},{"id":931924,"name":"Van Rooyens Gate","alt":["Van Roiyan's Gate","Van Roiyan’s Gate"],"lon":27.10929,"lat":-29.75552,"pop":0},{"id":931923,"name":"White Hill","alt":["Seapa"],"lon":28.48333,"lat":-30.05,"pop":0}]