[{"id":2960844,"name":"Abweiler","lon":6.08083,"lat":49.53361,"pop":75},{"id":2960843,"name":"Aciérie","lon":5.9,"lat":49.53333,"pop":0},{"id":2960842,"name":"Ahn","alt":["Ohn"],"lon":6.42167,"lat":49.62444,"pop":0},{"id":12035875,"name":"Al-Esch","lon":5.98391,"lat":49.49605,"pop":0},{"id":2960839,"name":"Allerborn","lon":5.87083,"lat":50.03667,"pop":59},{"id":2960838,"name":"Alscheid","alt":["Alschent"],"lon":6.00972,"lat":49.97111,"pop":50},{"id":2960836,"name":"Altlinster","lon":6.21667,"lat":49.71556,"pop":115},{"id":2960834,"name":"Altrier","alt":["Schanz"],"lon":6.32656,"lat":49.75009,"pop":190},{"id":2960833,"name":"Altwies","alt":["Altwis"],"lon":6.25722,"lat":49.51056,"pop":617},{"id":2960832,"name":"Alzingen","alt":["Altzingen","Alzeng"],"lon":6.16361,"lat":49.565,"pop":1376},{"id":2960830,"name":"Amberg","alt":["Berg"],"lon":5.86667,"lat":49.76667,"pop":0},{"id":2960829,"name":"Angelsberg","alt":["Angelsbierg"],"lon":6.16083,"lat":49.75639,"pop":292},{"id":2960828,"name":"Ansembourg","alt":["Aansebuerg","Ansemburg","Ansemburg)"],"lon":6.04333,"lat":49.7025,"pop":61},{"id":2960827,"name":"Arsdorf","alt":["Ueschdref"],"lon":5.84389,"lat":49.86139,"pop":241},{"id":2960823,"name":"Aspelt","alt":["Uespelt"],"lon":6.22472,"lat":49.52278,"pop":1013},{"id":2960822,"name":"Assel","lon":6.31583,"lat":49.55278,"pop":174},{"id":2960820,"name":"Asselborn","alt":["Aasselbuer"],"lon":5.97306,"lat":50.09722,"pop":413},{"id":2960821,"name":"Asselborn","alt":["Asselborn-les-Kehmen","Asselborn-lès-Kehmen"],"lon":6.05,"lat":49.9,"pop":0},{"id":11694426,"name":"Asselscheuer","lon":6.17478,"lat":49.69192,"pop":0},{"id":2960818,"name":"Banzelt","alt":["Maisons Banzelt","Olingerbarriere","Olingerbarriére"],"lon":6.33028,"lat":49.66833,"pop":0},{"id":2960816,"name":"Basbellain","alt":["Kierchen","Kiirchen","Niederbesslingen"],"lon":5.98389,"lat":50.14583,"pop":164},{"id":2960815,"name":"Bascharage","alt":["Niederkerschen"],"lon":5.9073,"lat":49.56727,"pop":4645},{"id":2960814,"name":"Baschleiden","alt":["Baschelt"],"lon":5.82028,"lat":49.89833,"pop":185},{"id":2960813,"name":"Bastendorf","alt":["Baastenduerf"],"lon":6.16528,"lat":49.89194,"pop":377},{"id":2960811,"name":"Bavigne","alt":["Boeven","Boewen"],"lon":5.84944,"lat":49.92194,"pop":132},{"id":2960809,"name":"Beaufort","alt":["Beefort","Befort"],"lon":6.29167,"lat":49.83583,"pop":1418},{"id":2960807,"name":"Bech","alt":["Bekh","Gemeng Bech","bk","bykh","Бех","بک","بیخ"],"lon":6.36379,"lat":49.7526,"pop":380},{"id":2960808,"name":"Bech-Kleinmacher","alt":["Bech"],"lon":6.35389,"lat":49.52806,"pop":0},{"id":3283390,"name":"Bech-Kleinmacher","alt":["Bech-Maacher","Bech-Maacher)"],"lon":6.355,"lat":49.53083,"pop":593},{"id":2960806,"name":"Beckerich","lon":5.88241,"lat":49.73114,"pop":672},{"id":2960805,"name":"Beggen","lon":6.12932,"lat":49.64506,"pop":0},{"id":2960803,"name":"Beidweiler","alt":["Beidler"],"lon":6.3025,"lat":49.72333,"pop":243},{"id":2960767,"name":"Béil","alt":["Beil","Bihl"],"lon":6.23972,"lat":49.75917,"pop":0},{"id":2960802,"name":"Beiler","lon":6.08889,"lat":50.16556,"pop":87},{"id":12035864,"name":"Belair","lon":6.10682,"lat":49.6116,"pop":0},{"id":2960801,"name":"Belval","alt":["Ernshof"],"lon":5.94361,"lat":49.51028,"pop":0},{"id":12035880,"name":"Belval","lon":5.95967,"lat":49.49828,"pop":0},{"id":2960800,"name":"Belvaux","alt":["Beles","Bieles"],"lon":5.92414,"lat":49.51014,"pop":5313},{"id":2960799,"name":"Berbourg","alt":["Berbuerg"],"lon":6.39355,"lat":49.7306,"pop":664},{"id":2960797,"name":"Berchem","alt":["Bercham","Bierchem"],"lon":6.12917,"lat":49.54028,"pop":863},{"id":2960796,"name":"Berdorf","lon":6.34945,"lat":49.82051,"pop":900},{"id":2960795,"name":"Béreldange","alt":["Baereldeng","Bereldange","Bereldingen","Bäreldeng"],"lon":6.11874,"lat":49.65507,"pop":3627},{"id":2960794,"name":"Berens","lon":6.26806,"lat":49.84361,"pop":0},{"id":2960788,"name":"Berg","alt":["Berg-sur-Syre","Bierg"],"lon":6.35776,"lat":49.68342,"pop":93},{"id":2960793,"name":"Berg","lon":6.08917,"lat":49.81361,"pop":0},{"id":2960791,"name":"Bergem","alt":["Biergem"],"lon":6.04222,"lat":49.525,"pop":1490},{"id":2960787,"name":"Beringen","alt":["Biereng"],"lon":6.11694,"lat":49.75833,"pop":956},{"id":2960785,"name":"Berlé","alt":["Baerel","Berle","Bärel"],"lon":5.85611,"lat":49.95222,"pop":110},{"id":2960784,"name":"Berschbach","alt":["Bierschbech"],"lon":6.115,"lat":49.74389,"pop":0},{"id":2960782,"name":"Bertrange","lon":6.05,"lat":49.61111,"pop":5615},{"id":2960781,"name":"Bettange-sur-Mess","alt":["Bettange","Bettange-sur-Messe","Betten op der Mess"],"lon":5.98389,"lat":49.57583,"pop":992},{"id":2960780,"name":"Bettborn","lon":5.94111,"lat":49.79528,"pop":231},{"id":2960779,"name":"Bettel","alt":["Bëttel"],"lon":6.22693,"lat":49.91575,"pop":223},{"id":2960777,"name":"Bettembourg","alt":["Beetebuerg","Betehmbur","Betemburas","Betembūras","Bettambur","Bettemburg","Gemeng Beetebuerg","btmbwrg","Беттамбур","Беттембург","Бетэмбур","Բետտամբուր","بتمبورگ"],"lon":6.10278,"lat":49.51861,"pop":7437},{"id":2960775,"name":"Bettendorf","alt":["Bettenduerf"],"lon":6.21806,"lat":49.87667,"pop":1072},{"id":2960774,"name":"Betzdorf","lon":6.35,"lat":49.68333,"pop":248},{"id":2960771,"name":"Beyren","alt":["Beyeren"],"lon":6.33694,"lat":49.62639,"pop":312},{"id":2960770,"name":"Bigelbach","lon":6.28806,"lat":49.86028,"pop":79},{"id":2960769,"name":"Bigonville","alt":["Bondorf","Bungeref"],"lon":5.79333,"lat":49.85167,"pop":475},{"id":11703838,"name":"Bigonville-Poteau","lon":5.78306,"lat":49.83818,"pop":0},{"id":2960766,"name":"Bilsdorf","alt":["Bilschdref"],"lon":5.825,"lat":49.8575,"pop":121},{"id":2960765,"name":"Binsfeld","alt":["Benzelt","Bënzelt"],"lon":6.03861,"lat":50.11889,"pop":235},{"id":2960763,"name":"Birel","alt":["Birelergrund","Birelerhof","Ferme Birel"],"lon":6.21667,"lat":49.61667,"pop":0},{"id":2960762,"name":"Birtrange","alt":["Chateau de Birtrange"],"lon":6.09139,"lat":49.82694,"pop":0},{"id":2960761,"name":"Bischenrech","lon":6,"lat":50.08333,"pop":0},{"id":2960759,"name":"Bissen","lon":6.0654,"lat":49.78733,"pop":2547},{"id":2960764,"name":"Bivange","alt":["Bivingen"],"lon":6.13778,"lat":49.54444,"pop":617},{"id":2960758,"name":"Bivels","alt":["Biwels"],"lon":6.19222,"lat":49.96028,"pop":80},{"id":2960757,"name":"Biwer","alt":["Biwerbach"],"lon":6.37201,"lat":49.70605,"pop":653},{"id":2960755,"name":"Biwisch","lon":5.97917,"lat":50.11806,"pop":103},{"id":2960754,"name":"Blaschette","alt":["Blaaschent","Blascheid"],"lon":6.16876,"lat":49.70279,"pop":465},{"id":2960752,"name":"Blumenthal","alt":["Blumenthal (Bech)"],"lon":6.26564,"lat":49.74492,"pop":0},{"id":2960750,"name":"Bockholtz","alt":["Bockholz","Bockholz-les-Hosingen","Bockholz-lès-Hosingen"],"lon":6.05278,"lat":50.01222,"pop":47},{"id":2960751,"name":"Bockholtz","alt":["Bockholtz (Goesdorf)","Bockholz-sur-Sure"],"lon":5.9975,"lat":49.92333,"pop":60},{"id":2960748,"name":"Boevange","alt":["Beigen","Boegen","Boevange-Clervaux","Boevange-les-Clervaux","Boevange-lès-Clervaux","Boewingen","Béigen","Böwingen"],"lon":5.93417,"lat":50.04639,"pop":125},{"id":2960747,"name":"Boevange-sur-Attert","alt":["Boevange","Boewingen","Bovange","Bowen an der Attert"],"lon":6.01532,"lat":49.77256,"pop":576},{"id":2960746,"name":"Bofferdange","alt":["Bofferdingen","Bouferdeng"],"lon":6.13998,"lat":49.69062,"pop":802},{"id":2960744,"name":"Bohey","alt":["Bohoey"],"lon":5.84389,"lat":49.97417,"pop":0},{"id":6696267,"name":"Bollendorf-Pont","alt":["Bollendorferbrueck","Bollendorferbrück","Bollenduerferbreck","Bollenduerferbréck"],"lon":6.35787,"lat":49.84847,"pop":0},{"id":2960743,"name":"Bombatsch","lon":6.06639,"lat":50.05833,"pop":0},{"id":2960742,"name":"Bonnal","alt":["Bommel"],"lon":5.88806,"lat":49.90361,"pop":0},{"id":2960741,"name":"Bonnevoie","lon":6.15,"lat":49.59444,"pop":0},{"id":12035867,"name":"Bonnevoie-Nord/Verlorenkost","lon":6.14187,"lat":49.60431,"pop":0},{"id":12035866,"name":"Bonnevoie-Sud","lon":6.14719,"lat":49.59679,"pop":0},{"id":2960739,"name":"Born","alt":["Bur"],"lon":6.51227,"lat":49.75928,"pop":336},{"id":2960738,"name":"Boudler","alt":["Boudeler"],"lon":6.35454,"lat":49.72276,"pop":69},{"id":2960737,"name":"Boulaide","alt":["Bauschleiden"],"lon":5.81639,"lat":49.88778,"pop":396},{"id":2960736,"name":"Bour","alt":["Bur"],"lon":6.01889,"lat":49.70139,"pop":67},{"id":2960735,"name":"Bourglinster","alt":["Buerglenster","Buerglënster","Burglinster"],"lon":6.21725,"lat":49.70306,"pop":680},{"id":2960734,"name":"Bourscheid","alt":["Bourscheid-Plage","Burscheid"],"lon":6.0675,"lat":49.90862,"pop":275},{"id":11694501,"name":"Bourscheid-Moulin","lon":6.08746,"lat":49.91108,"pop":0},{"id":11703873,"name":"Bourscheid-Plage","lon":6.08087,"lat":49.90879,"pop":0},{"id":2960733,"name":"Boursdorf","alt":["Busschdorf"],"lon":6.47861,"lat":49.75806,"pop":22},{"id":2960732,"name":"Bous","lon":6.32917,"lat":49.55389,"pop":560},{"id":2960731,"name":"Boxhorn","alt":["Boxer"],"lon":5.9925,"lat":50.08389,"pop":398},{"id":2960730,"name":"Brachtenbach","alt":["Bruechtebaach"],"lon":5.91139,"lat":50.02139,"pop":159},{"id":2960728,"name":"Brameschhaff","alt":["Brameschhof"],"lon":6.04972,"lat":49.65667,"pop":0},{"id":2960727,"name":"Brandenbourg","alt":["Brandenburg","Branebuerg"],"lon":6.1384,"lat":49.91141,"pop":193},{"id":2960725,"name":"Brattert","lon":5.90361,"lat":49.85556,"pop":0},{"id":2960723,"name":"Breidfeld","lon":6.06361,"lat":50.12417,"pop":49},{"id":2960722,"name":"Breidweiler","alt":["Breitweiler"],"lon":6.30332,"lat":49.77766,"pop":99},{"id":2960721,"name":"Breinert","lon":6.3422,"lat":49.7119,"pop":50},{"id":2960720,"name":"Bridel","alt":["Briddel"],"lon":6.07999,"lat":49.65579,"pop":2404},{"id":2960715,"name":"Brill","alt":["Bruhl"],"lon":5.90611,"lat":49.98167,"pop":0},{"id":12035885,"name":"Brill","lon":5.9783,"lat":49.49263,"pop":0},{"id":2960719,"name":"Broderbour","alt":["Seinkaul"],"lon":6.18722,"lat":49.85306,"pop":0},{"id":2960717,"name":"Brouch","alt":["Brouch (Wecker)","Brouch-les-Biwer","Brouch-lès-Biwer","Bruch"],"lon":6.33838,"lat":49.7289,"pop":52},{"id":2960718,"name":"Brouch","alt":["Bruch"],"lon":6.02306,"lat":49.73611,"pop":740},{"id":12035883,"name":"Bruch","lon":5.96729,"lat":49.50324,"pop":0},{"id":2960710,"name":"Buchholz","lon":6.36472,"lat":49.65833,"pop":0},{"id":2960709,"name":"Budersberg","alt":["Butschebuerg"],"lon":6.06944,"lat":49.49278,"pop":0},{"id":2960708,"name":"Buderscheid","alt":["Bidscht","Bitscht","Buederscheid","Büderscheid"],"lon":5.93815,"lat":49.93426,"pop":126},{"id":2960707,"name":"Burange","alt":["Bireng","Bueringen","Büringen"],"lon":6.0925,"lat":49.49111,"pop":0},{"id":2960706,"name":"Burden","alt":["Bierden","Buerden","Bürden"],"lon":6.08943,"lat":49.87987,"pop":450},{"id":2960704,"name":"Burmerange","alt":["Boermereng","Buermeringen","Bürmeringen"],"lon":6.32306,"lat":49.48528,"pop":191},{"id":2960703,"name":"Buschdorf","alt":["Beschdref","Bëschdref"],"lon":6.00833,"lat":49.75083,"pop":387},{"id":2960702,"name":"Buschrodt","alt":["Beschrued","Bëschrued"],"lon":5.93583,"lat":49.82722,"pop":118},{"id":2960705,"name":"Buurgfried","alt":["Bourgfried","Burgfried"],"lon":5.85861,"lat":49.90083,"pop":0},{"id":2960700,"name":"Calmus","alt":["Kaalmes"],"lon":5.96444,"lat":49.72556,"pop":76},{"id":2960699,"name":"Canach","alt":["Kanech"],"lon":6.32583,"lat":49.60694,"pop":1496},{"id":2960698,"name":"Cap","alt":["Kap"],"lon":5.98444,"lat":49.64444,"pop":0},{"id":2960697,"name":"Capellen","alt":["Kapellen"],"lon":5.99083,"lat":49.645,"pop":1330},{"id":12035868,"name":"Cents","lon":6.16413,"lat":49.61707,"pop":0},{"id":2960694,"name":"Cessange","alt":["Cessingen"],"lon":6.10694,"lat":49.58944,"pop":0},{"id":2960692,"name":"Château Faubourg","alt":["Chateau","Chateau Faubourg","Faubourg"],"lon":6.21667,"lat":49.93333,"pop":0},{"id":2960691,"name":"Christnach","alt":["Chreschtnech","Chrëschtnech"],"lon":6.27337,"lat":49.78805,"pop":394},{"id":2960690,"name":"Cinqfontaines","alt":["Funfbrunnen","Fünfbrunnen","Paffenmuhle","Paffenmühle"],"lon":6.00778,"lat":50.10722,"pop":13},{"id":2960689,"name":"Clairefontaine","alt":["Claire","Clairefontaines"],"lon":6.18333,"lat":49.86667,"pop":0},{"id":2960688,"name":"Clausen","lon":6.14278,"lat":49.61313,"pop":0},{"id":2960687,"name":"Clemency","alt":["Kuentzig","Kuntzig","Küntzig"],"lon":5.87583,"lat":49.59667,"pop":1821},{"id":2960684,"name":"Clervaux","alt":["Clerf","Cliarref","Cliärref","Gemeng Klierf","Kamuna Klervo","Klerf","Klervo","Klierf","klrww","Камуна Клерво","Клерво","کلروو"],"lon":6.03139,"lat":50.05472,"pop":1103},{"id":2960681,"name":"Colbette","alt":["Colbet"],"lon":6.30285,"lat":49.76843,"pop":0},{"id":2960680,"name":"Colmar","alt":["Colmar-Berg"],"lon":6.09722,"lat":49.81028,"pop":1776},{"id":11703903,"name":"Colmar-Pont","lon":6.10286,"lat":49.81489,"pop":0},{"id":2960677,"name":"Colpach-Bas","alt":["Bas-Colpach","Nidderkolpech","Niedercolpach"],"lon":5.82694,"lat":49.75833,"pop":110},{"id":2960676,"name":"Colpach-Haut","alt":["Haut-Colpach","Obercolpach","Uewerkolpech"],"lon":5.82,"lat":49.76861,"pop":152},{"id":2960675,"name":"Consdorf","alt":["Kalkesbach (Consdorf)"],"lon":6.3395,"lat":49.78018,"pop":1241},{"id":2960674,"name":"Consthum","alt":["Konstem","Konsthum"],"lon":6.05417,"lat":49.97472,"pop":207},{"id":2960673,"name":"Contern","lon":6.22667,"lat":49.58194,"pop":1083},{"id":2960672,"name":"Crauthem","alt":["Krautem","Krauthem"],"lon":6.14694,"lat":49.53556,"pop":1278},{"id":2960671,"name":"Crendal","lon":5.89806,"lat":50.05778,"pop":10},{"id":2960668,"name":"Cruchten","alt":["Kruchten","Kruuchten"],"lon":6.13235,"lat":49.79908,"pop":404},{"id":2960667,"name":"Dahl","alt":["Dol"],"lon":5.97583,"lat":49.93528,"pop":246},{"id":2960666,"name":"Dahlem","lon":5.94833,"lat":49.60222,"pop":389},{"id":2960665,"name":"Dalheim","lon":6.25972,"lat":49.54083,"pop":1364},{"id":6944716,"name":"Dasbourg-Pont","lon":6.12588,"lat":50.04922,"pop":0},{"id":2960664,"name":"Daundorf","alt":["Ferme Daundorf"],"lon":6.2875,"lat":49.5075,"pop":0},{"id":2960663,"name":"Deiffelt","alt":["Deewelt","Deifelt"],"lon":5.96389,"lat":50.06556,"pop":0},{"id":2960662,"name":"Dellen","lon":5.96139,"lat":49.85917,"pop":0},{"id":12035884,"name":"Dellhéicht","lon":5.98315,"lat":49.50132,"pop":0},{"id":2960660,"name":"Derenbach","alt":["Deierbech","Déierbech"],"lon":5.88972,"lat":50.015,"pop":287},{"id":2960659,"name":"Dickweiler","lon":6.47222,"lat":49.7775,"pop":111},{"id":2960657,"name":"Diekirch","alt":["Dikirkh","Dikrech","District de Diekirch","Dykirchas","Dzikirkh","di ji xi","dykyrsh","dyqyrk","Дзікірх","Дикирх","Дікірх","דיקירך","ديكيرش","دیکیرش","迪基希"],"lon":6.15583,"lat":49.86778,"pop":6756},{"id":2960651,"name":"Differdange","alt":["Deifferdeng","Diferdanzas","Diferdanžas","Differdanzh","Differdingen","Dziferdanzh","Déifferdeng","Gemeng Deifferdeng","Gemeng Déifferdeng","di fu dang ri","dyfrdanzh","Дзіферданж","Дифферданж","Діфферданж","دیفردانژ","迪弗當日"],"lon":5.89139,"lat":49.52417,"pop":5296},{"id":2960650,"name":"Diggel","alt":["Dideling"],"lon":5.84111,"lat":49.72611,"pop":0},{"id":2960649,"name":"Dillingen","alt":["Deiljen","Diligen","Déiljen"],"lon":6.31917,"lat":49.85361,"pop":159},{"id":2960648,"name":"Dippach","lon":5.9833,"lat":49.58701,"pop":808},{"id":2960647,"name":"Dirbach","alt":["Derbach","Dierbach","Dirbach (Goesdorf)"],"lon":6.03833,"lat":49.92111,"pop":0},{"id":2960643,"name":"Doennange","alt":["Diaenjen","Diänjen","Doeningen","Donnange","Donningen","Dönningen"],"lon":5.95583,"lat":50.06222,"pop":146},{"id":2960645,"name":"Dommeldange","alt":["Dommeldingen","Dummeldeng"],"lon":6.13864,"lat":49.63411,"pop":0},{"id":2960644,"name":"Doncols","alt":["Donkels","Donkols"],"lon":5.83722,"lat":49.97,"pop":232},{"id":11703835,"name":"Dondelange","alt":["Dondel","Dondelingen"],"lon":6.03051,"lat":49.69001,"pop":0},{"id":2960641,"name":"Dorscheid","lon":6.07139,"lat":50.03611,"pop":90},{"id":2960640,"name":"Dorscheiderhaischen","alt":["Dorscheiderhaeuschen","Dorscheiderhauschen","Dorscheiderhäuschen"],"lon":6.07972,"lat":50.03917,"pop":0},{"id":2960638,"name":"Drauffelt","alt":["Draufelt"],"lon":6.00611,"lat":50.01778,"pop":143},{"id":2960637,"name":"Dreiborn","alt":["Chateau Dreiborn"],"lon":6.39389,"lat":49.61722,"pop":0},{"id":2960636,"name":"Drinklange","alt":["Drenkelt","Drinckelt","Drinckler","Drinklingen","Drénkelt"],"lon":6.01917,"lat":50.13361,"pop":124},{"id":2960634,"name":"Dudelange","alt":["Diddeleng","Didelanzh","Diudelanzas","Diudelanžas","Djudelanzh","Dudelingen","Duedelingen","Dzjudzelanzh","Düdelingen","Gemeng Diddeleng","dwdlanzh","Дзюдзеланж","Диделанж","Дюделанж","دودلانژ"],"lon":6.0875,"lat":49.48056,"pop":18013},{"id":3285196,"name":"Dunkrodt","lon":5.87861,"lat":49.92306,"pop":0},{"id":2960630,"name":"Echternach","alt":["Echternachas","Echternak","Ehkhtehrnakh","Ehkhternakh","Ekhternakh","Iechternach","akhtrnakh","ashtrnakh","ehitanaha","ehiteonaheu","Ехтернах","Эхтернах","Эхтэрнах","اخترناخ","اشترناخ","ეხტერნახი","エヒタナハ","에히터나흐"],"lon":6.41846,"lat":49.81212,"pop":4787},{"id":2960628,"name":"Ehlange","alt":["Ehlingen","Eileng","Éiléng"],"lon":6.01694,"lat":49.54889,"pop":429},{"id":2960627,"name":"Ehlerange","alt":["Ehleringen","Eilereng","Éilereng"],"lon":5.96611,"lat":49.52417,"pop":756},{"id":2960625,"name":"Ehnen","alt":["Einen","Ennen","Ihnen","Éinen"],"lon":6.38664,"lat":49.60155,"pop":531},{"id":2960624,"name":"Ehner","lon":5.95,"lat":49.7175,"pop":13},{"id":2960622,"name":"Eich","lon":6.13194,"lat":49.62889,"pop":0},{"id":2960626,"name":"Éimeschbaach","alt":["Dehmeschbach","Ehmeschbach","Ehmeschhof","Eimeschbaach","Emeschbach","Emeschterhof"],"lon":5.95667,"lat":50.09361,"pop":0},{"id":2960618,"name":"Eischen","lon":5.87861,"lat":49.68556,"pop":1559},{"id":11496704,"name":"Eisenbach","lon":6.14166,"lat":50.00128,"pop":0},{"id":2960617,"name":"Eisenborn","alt":["Eesebur"],"lon":6.18363,"lat":49.69138,"pop":170},{"id":2960616,"name":"Ell","lon":5.85722,"lat":49.76389,"pop":359},{"id":2960615,"name":"Ellange","lon":6.29833,"lat":49.52,"pop":299},{"id":2960614,"name":"Eltz","alt":["Els","Kalkelz"],"lon":5.895,"lat":49.77833,"pop":34},{"id":2960612,"name":"Elvange","alt":["Elvange-les-Beckerich","Elvange-lès-Beckerich"],"lon":5.91778,"lat":49.72472,"pop":96},{"id":2960613,"name":"Elvange","alt":["Elvange-les-Burmerange","Elvange-lès-Burmerange","Elveng","Elvingen"],"lon":6.31639,"lat":49.50528,"pop":713},{"id":2960611,"name":"Emerange","lon":6.29167,"lat":49.48694,"pop":99},{"id":2960610,"name":"Enscherange","alt":["AEischer","Enscheringen","Äischer"],"lon":5.99278,"lat":49.99944,"pop":174},{"id":2960609,"name":"Eppeldorf","alt":["Eppelduerf"],"lon":6.24972,"lat":49.84444,"pop":181},{"id":2960608,"name":"Ermsdorf","alt":["Iermsdref"],"lon":6.22278,"lat":49.82944,"pop":228},{"id":2960607,"name":"Ernster","lon":6.24822,"lat":49.67901,"pop":350},{"id":2960605,"name":"Ernzen","lon":6.22118,"lat":49.77253,"pop":398},{"id":2960601,"name":"Erpeldange","alt":["Erpeldange-sur-Sure","Erpeldange-sur-Sûre"],"lon":6.11472,"lat":49.86472,"pop":845},{"id":2960602,"name":"Erpeldange","alt":["Erpeldange (Bous)","Erpeldange-lez-Bous"],"lon":6.3275,"lat":49.54444,"pop":359},{"id":2960603,"name":"Erpeldange","alt":["Erpeldange-les-Wiltz","Erpeldange-lès-Wiltz","Ierpeldeng"],"lon":5.94861,"lat":49.97806,"pop":202},{"id":2960600,"name":"Ersange","alt":["Ersingen","Ierseng"],"lon":6.27556,"lat":49.57444,"pop":0},{"id":2960596,"name":"Esch-sur-Alzette","alt":["Ehsh-sjur-Al'zet","Ehsh-sjur-Al'zett","Ehsh-sjur-Alzette","Es-syr-Alzet","Esas prie Alzeto","Esch","Esch an der Alzette","Esch-Uelzecht","Esch-an-der-Alzette","Esch-an-der-Alzig","Esh sir Alzet","Esh-sjur-Al'zett","Ešas prie Alzeto","a er ze te he pan ai shi","ash-swr-alzt","eshu=shuru=aruzetto","esyuswileualjeteu","Ες-συρ-Αλζέτ","Еш сир Алзет","Еш-сюр-Альзетт","Эш-сюр-Алзетте","Эш-сюр-Альзет","Эш-сюр-Альзетт","اش-سور-الزت","エシュ＝シュル＝アルゼット","阿尔泽特河畔埃施","에슈쉬르알제트"],"lon":5.98056,"lat":49.49583,"pop":28228},{"id":2960595,"name":"Esch-sur-Sûre","alt":["Ehsh-sjur-Sjur","Escch-sur-Sure","Esch","Esch-Sauer","Esch-sur-Sure","Esh-sjur-Sur","Gemeng Esch-Sauer","ash-swr-swr","Еш-сюр-Сур","Эш-сюр-Сюр","اش-سور-سور"],"lon":5.93639,"lat":49.91139,"pop":333},{"id":2960598,"name":"Eschdorf","lon":5.93421,"lat":49.8859,"pop":433},{"id":2960597,"name":"Eschette","alt":["Eischent","Éischent"],"lon":5.88833,"lat":49.82306,"pop":34},{"id":2960593,"name":"Eschweiler","alt":["Eeschweller","Eschweiler-les-Rodenbourg","Eschweiler-lès-Rodenbourg"],"lon":6.31016,"lat":49.71749,"pop":118},{"id":2960594,"name":"Eschweiler","lon":5.94889,"lat":49.99778,"pop":205},{"id":2960592,"name":"Eselborn","alt":["Eeselbur"],"lon":6.00361,"lat":50.06278,"pop":337},{"id":2960591,"name":"Essingen","lon":6.11667,"lat":49.77889,"pop":18},{"id":2960589,"name":"Ettelbruck","alt":["Ehtehl'bruk","Ehttel'brjuk","Etelbrek","Etelbriukas","Ettel'brjuk","Ettelbreck","Ettelbrueck","Ettelbréck","Ettelbrück","Ettlebruk","Gemeng Ettelbreck","Gemeng Ettelbréck","atl brwk","aytlbrwk","Етелбрек","Еттельбрюк","Эттельбрюк","Этэльбрук","إيتلبروك","اتل بروک","ایٹل برک"],"lon":6.10417,"lat":49.8475,"pop":6364},{"id":2960588,"name":"Everlange","alt":["Everlingen","Iewerleng"],"lon":5.95556,"lat":49.77417,"pop":370},{"id":2960586,"name":"Fennange","alt":["Fenneng","Fenningen","Fënnéng"],"lon":6.07833,"lat":49.51972,"pop":293},{"id":2960585,"name":"Fennbierg","alt":["Auf der Hohe","Auf der Höhe","Fennberg","Pfennberg"],"lon":6.09139,"lat":50.01278,"pop":0},{"id":2960572,"name":"Fënsterdall","alt":["Fensterdall","Finsterthal"],"lon":6.03583,"lat":49.75295,"pop":0},{"id":2960584,"name":"Fentange","alt":["Fenteng","Fentingen"],"lon":6.15389,"lat":49.56278,"pop":1302},{"id":2960581,"name":"Ferme du Flamand","lon":6.05,"lat":50.15,"pop":0},{"id":2960580,"name":"Ferme Fuhrman","alt":["Ferme Fahrman"],"lon":5.8,"lat":49.93333,"pop":0},{"id":2960579,"name":"Ferme Grossenbour","lon":6.16667,"lat":49.88333,"pop":0},{"id":2960578,"name":"Ferme Thibesart","lon":6.11667,"lat":49.81667,"pop":0},{"id":12035882,"name":"Fettmeth","lon":5.97315,"lat":49.50474,"pop":0},{"id":2960576,"name":"Filsdorf","alt":["Felschdref","Fëlschdref"],"lon":6.24833,"lat":49.5325,"pop":371},{"id":2960575,"name":"Findel","lon":6.1756,"lat":49.62456,"pop":105},{"id":2960573,"name":"Fingig","alt":["Feingig","Fengeg","Féingig","Féngeg"],"lon":5.90083,"lat":49.60361,"pop":329},{"id":2960570,"name":"Fischbach","alt":["Feschbech","Fischbach-les-Clervaux","Fischbach-lès-Clervaux","Fëschbech"],"lon":6.06889,"lat":50.07528,"pop":114},{"id":2960571,"name":"Fischbach","lon":6.18702,"lat":49.746,"pop":184},{"id":2960569,"name":"Flatzbour","alt":["Flatzbourg","Flatzbourhof","Flazbourg"],"lon":5.78766,"lat":49.83488,"pop":0},{"id":2960568,"name":"Flaxweiler","alt":["Fluessweller"],"lon":6.34321,"lat":49.66602,"pop":358},{"id":11669758,"name":"Flebour","lon":6.10788,"lat":49.91006,"pop":0},{"id":2960567,"name":"Fleibur","alt":["Flebour"],"lon":5.81278,"lat":49.89917,"pop":0},{"id":2960565,"name":"Foetz","lon":6.01083,"lat":49.52944,"pop":483},{"id":2960564,"name":"Folkendange","alt":["Ferme Folkendange"],"lon":6.20417,"lat":49.84306,"pop":21},{"id":2960563,"name":"Folschette","alt":["Foulscht"],"lon":5.87472,"lat":49.81417,"pop":289},{"id":2960561,"name":"Fouhren","alt":["Fuhren","Furen"],"lon":6.19611,"lat":49.91556,"pop":380},{"id":2960556,"name":"Frisange","alt":["Freiseng","Fréiseng"],"lon":6.18858,"lat":49.51616,"pop":1355},{"id":2960554,"name":"Fronay","alt":["Ferme Fronay","Fronayhof"],"lon":6.41667,"lat":49.66667,"pop":0},{"id":11703906,"name":"Fuussekaul","lon":5.99092,"lat":49.87775,"pop":0},{"id":2960121,"name":"Gaichel","alt":["Fisbour","Saegemuhle","Saegemühle","Sagemuhle","Sägemühle"],"lon":5.86859,"lat":49.69467,"pop":0},{"id":2960551,"name":"Gantenbeinmühle","lon":6.16667,"lat":49.6,"pop":0},{"id":12035865,"name":"Gare","lon":6.12971,"lat":49.60175,"pop":0},{"id":2960549,"name":"Garnich","alt":["Garnech"],"lon":5.9525,"lat":49.61667,"pop":824},{"id":2960548,"name":"Gasperich","alt":["Gaasperech"],"lon":6.12306,"lat":49.58556,"pop":0},{"id":2960546,"name":"Geimer","lon":6,"lat":49.75,"pop":0},{"id":2960545,"name":"Geyershaff","alt":["Geyershof","Geyershof (Bech)"],"lon":6.38754,"lat":49.76552,"pop":0},{"id":2960543,"name":"Gilsdorf","alt":["Gilsdref"],"lon":6.17979,"lat":49.86499,"pop":886},{"id":2960542,"name":"Girst","alt":["Girsterklause"],"lon":6.49889,"lat":49.76722,"pop":113},{"id":2960541,"name":"Girsterklaus","lon":6.49944,"lat":49.77778,"pop":12},{"id":2960540,"name":"Givenich","alt":["Giwenich"],"lon":6.48,"lat":49.74222,"pop":84},{"id":2960539,"name":"Godbrange","alt":["Godbringen","Guedber"],"lon":6.23238,"lat":49.73395,"pop":574},{"id":2960538,"name":"Goebelsmuhle","alt":["Giewelsmillen","Goebelsmuehle","Goebelsmühle"],"lon":6.05372,"lat":49.92139,"pop":34},{"id":2960537,"name":"Goeblange","alt":["Giewel","Goeblingen","Göblingen"],"lon":5.96528,"lat":49.66972,"pop":434},{"id":2960536,"name":"Goedange","alt":["Godange","Goedingen","Gödange"],"lon":6.01333,"lat":50.14917,"pop":45},{"id":2960535,"name":"Goeldt","alt":["Maison Goelt"],"lon":5.85583,"lat":49.82222,"pop":0},{"id":2960534,"name":"Goesdorf","alt":["Geisdref","Gosdorf","Gosdorf bei Wilz","Géisdref","Gösdorf","Gösdorf bei Wilz"],"lon":5.96601,"lat":49.92131,"pop":251},{"id":2960533,"name":"Goetzingen","alt":["Getzen","Goetzange","Gotzange","Gëtzen","Götzange","Götzingen"],"lon":5.98167,"lat":49.66028,"pop":341},{"id":2960532,"name":"Gonderange","alt":["Gonderingen","Gonnereng"],"lon":6.24577,"lat":49.69537,"pop":1735},{"id":2960531,"name":"Gosseldange","alt":["Gosseldingen","Gousseldeng"],"lon":6.11694,"lat":49.72639,"pop":458},{"id":2960530,"name":"Gostingen","alt":["Gouschtengen"],"lon":6.35444,"lat":49.61917,"pop":342},{"id":2960528,"name":"Gralingen","alt":["Grooljen"],"lon":6.10167,"lat":49.93694,"pop":142},{"id":2960526,"name":"Grass","alt":["Gras"],"lon":5.89139,"lat":49.63083,"pop":71},{"id":2960525,"name":"Graulinster","alt":["Graulinster (Bech)"],"lon":6.28757,"lat":49.74008,"pop":0},{"id":2960524,"name":"Greisch","alt":["Graeisch","Gräisch"],"lon":5.98833,"lat":49.70972,"pop":210},{"id":2960523,"name":"Greiveldange","alt":["Greiweldeng","Greiweldingen"],"lon":6.35917,"lat":49.58389,"pop":630},{"id":2960521,"name":"Grentzingen","lon":6.09306,"lat":49.83194,"pop":0},{"id":12035871,"name":"Grenz","lon":5.98118,"lat":49.47387,"pop":0},{"id":2960519,"name":"Grevels","alt":["Greiwels","Grevels-Bresil","Grevels-Brésil","Gréiwels"],"lon":5.91399,"lat":49.85138,"pop":207},{"id":2960518,"name":"Grevelscheuer","alt":["Ferme Grevelscheuer","Grevelsscheuer"],"lon":6.2,"lat":49.63333,"pop":0},{"id":2960517,"name":"Grevenknapp","alt":["Greiweknapp","Grevenknopp","Groevenknapp","Gréiweknapp"],"lon":6.03389,"lat":49.7625,"pop":0},{"id":2960515,"name":"Grevenmacher","alt":["Grehvenmakher","Greivemaacher","Greiwemaacher","Grevenmacheris","Grevenmakher","Gréivemaacher","Gréiwemaacher","Grėvenmacheris","ge lei wen ma he","geulebenmaheo","grbnmkr","grwnmakhr","gurevuenmaha","Гревенмахер","Грэвенмахер","גרבנמכר","گرونماخر","グレーヴェンマハ","格雷文马赫","그레벤마허"],"lon":6.44022,"lat":49.67751,"pop":4921},{"id":2960512,"name":"Grindhausen","lon":6.06,"lat":50.08333,"pop":25},{"id":2960510,"name":"Grosbous","lon":5.96722,"lat":49.82778,"pop":656},{"id":2960511,"name":"Gruef","alt":["Grof"],"lon":6.22194,"lat":49.88028,"pop":0},{"id":2960506,"name":"Grumelscheid","alt":["Gruemelscheid","Grummelscheid","Grümmelscheid"],"lon":5.87072,"lat":49.98343,"pop":64},{"id":2960505,"name":"Grund","alt":["Gronn"],"lon":6.13791,"lat":49.60997,"pop":0},{"id":2960504,"name":"Grundhof","alt":["Grundhof (Berdorf)"],"lon":6.33139,"lat":49.835,"pop":27},{"id":2960503,"name":"Grundmuhle","lon":5.9,"lat":49.9,"pop":0},{"id":2960501,"name":"Hachiville","alt":["Helzen","Helzingen"],"lon":5.92333,"lat":50.10806,"pop":194},{"id":2960499,"name":"Hagelsdorf","lon":6.36556,"lat":49.68778,"pop":21},{"id":2960498,"name":"Hagen","alt":["Hoen"],"lon":5.93167,"lat":49.64944,"pop":978},{"id":2960497,"name":"Haller","alt":["Haler"],"lon":6.28006,"lat":49.81982,"pop":223},{"id":2960494,"name":"Hamiville","alt":["Heesdref","Heisdorf"],"lon":5.90417,"lat":50.04611,"pop":171},{"id":2960493,"name":"Hamm","lon":6.16861,"lat":49.60694,"pop":0},{"id":2960491,"name":"Harlange","lon":5.79,"lat":49.93139,"pop":378},{"id":2960488,"name":"Hassel","alt":["Haassel"],"lon":6.20826,"lat":49.55019,"pop":436},{"id":2960487,"name":"Hau","lon":6.18667,"lat":49.52083,"pop":0},{"id":2960483,"name":"Haut-Martelange","lon":5.75111,"lat":49.825,"pop":32},{"id":2960486,"name":"Hautbellain","alt":["Beesslek","Oberbesslingen"],"lon":5.97861,"lat":50.15667,"pop":151},{"id":2960485,"name":"Hautcharage","alt":["Oberkerschen","Uewerkaeerjeng","Uewerkäerjeng"],"lon":5.9097,"lat":49.57499,"pop":1495},{"id":2960482,"name":"Heckenhof","lon":5.93333,"lat":49.68333,"pop":0},{"id":2960481,"name":"Heffingen","lon":6.24049,"lat":49.76907,"pop":623},{"id":2960478,"name":"Heiderscheid","alt":["Heischent"],"lon":5.97892,"lat":49.88734,"pop":424},{"id":2960452,"name":"Héienhaff","alt":["Heienhaff","Hoehenhof","Hohenhof","Höhenhof"],"lon":6.22083,"lat":49.6325,"pop":0},{"id":2960475,"name":"Heinerscheid","alt":["Hengescht"],"lon":6.08806,"lat":50.09611,"pop":429},{"id":2960562,"name":"Heischtergronn","alt":["Fond de Heiderscheid","Heiderscheidergrund"],"lon":5.96008,"lat":49.90188,"pop":0},{"id":2960472,"name":"Heisdorf","alt":["Heeschdref","Heeschdrëf","Heisdorf-sur-Alzette"],"lon":6.14202,"lat":49.67207,"pop":1586},{"id":2960471,"name":"Heispelt","alt":["Haispelt","Heispelt-les-Wahl","Heispelt-lès-Wahl"],"lon":5.88056,"lat":49.85722,"pop":81},{"id":2960470,"name":"Hellange","alt":["Helleng","Hellingen","Helléng"],"lon":6.14978,"lat":49.50759,"pop":629},{"id":2960469,"name":"Helmdange","alt":["Helmdingen","Hielem"],"lon":6.14166,"lat":49.69387,"pop":638},{"id":2960468,"name":"Helmsange","alt":["Helmsingen","Helsem"],"lon":6.14139,"lat":49.65278,"pop":2193},{"id":2960467,"name":"Hemstal","lon":6.33611,"lat":49.73444,"pop":79},{"id":2960465,"name":"Herborn","alt":["Hierber"],"lon":6.42778,"lat":49.74167,"pop":150},{"id":2960458,"name":"Hersberg","alt":["Heeschbreg"],"lon":6.32756,"lat":49.75629,"pop":0},{"id":2960457,"name":"Hesperange","lon":6.15139,"lat":49.56806,"pop":1937},{"id":2960416,"name":"Hëttermillen","alt":["Hettermillen","Huettermuehle","Huttermuhle","Hüttermühle"],"lon":6.37361,"lat":49.58611,"pop":0},{"id":2960462,"name":"Hierheck","alt":["Haerheck","Herheck"],"lon":5.93111,"lat":49.87306,"pop":36},{"id":2960456,"name":"Hinkel","lon":6.51528,"lat":49.77639,"pop":82},{"id":2960454,"name":"Hivange","alt":["Heiweng","Hivingen","Héiweng"],"lon":5.93222,"lat":49.60722,"pop":119},{"id":2960453,"name":"Hobscheid","alt":["Habscht"],"lon":5.91472,"lat":49.68861,"pop":1051},{"id":2960451,"name":"Hoerchen","alt":["Haertgen","Maison Hoerchen","Neulocher","Neulöcher"],"lon":5.93333,"lat":49.56667,"pop":0},{"id":2960450,"name":"Hoesdorf","alt":["Heischdref","Héischdref"],"lon":6.25806,"lat":49.88389,"pop":105},{"id":2960447,"name":"Hoffelt","lon":5.92333,"lat":50.09972,"pop":270},{"id":2960441,"name":"Hollenfels","alt":["Huelmes"],"lon":6.05083,"lat":49.71306,"pop":247},{"id":2960440,"name":"Holler","alt":["Hollermuehle","Hollermühle"],"lon":6.04944,"lat":50.12361,"pop":87},{"id":2960439,"name":"Hollerich","alt":["Hollerech"],"lon":6.11423,"lat":49.60314,"pop":0},{"id":2960438,"name":"Holtz","alt":["Holtzburg","Holz"],"lon":5.79167,"lat":49.80722,"pop":196},{"id":2960437,"name":"Holzem","lon":5.99028,"lat":49.61639,"pop":541},{"id":2960436,"name":"Holzthum","alt":["Holztem"],"lon":6.07333,"lat":49.985,"pop":294},{"id":2960434,"name":"Hondsjang","lon":6,"lat":50.08333,"pop":0},{"id":2960433,"name":"Horas","alt":["Horace","Horras","Maisons Horras"],"lon":5.91861,"lat":49.81056,"pop":0},{"id":2960432,"name":"Hoscheid","alt":["Hohscheid","Houschent"],"lon":6.08167,"lat":49.94722,"pop":319},{"id":2960431,"name":"Hoscheiderdickt","alt":["Dickt","Hoscheid-Dickt","Houschter-Deckt","Houschter-Déckt"],"lon":6.09167,"lat":49.97306,"pop":278},{"id":2960429,"name":"Hosingen","lon":6.09089,"lat":50.01218,"pop":811},{"id":2960426,"name":"Hostert","alt":["Hostert-les-Folschette","Hostert-lès-Folschette"],"lon":5.86667,"lat":49.81,"pop":360},{"id":2960427,"name":"Hostert","alt":["Hostert du-Grunenwald","Hueschtert)"],"lon":6.23268,"lat":49.65749,"pop":364},{"id":2960430,"name":"Houschterhaff","alt":["Fonkenhof","Hoscheiderhof","Hoscheidterhof","Hoschetterhof","Wiltgeshof"],"lon":6.15709,"lat":49.93531,"pop":0},{"id":2960425,"name":"Houschthauser","lon":5.8,"lat":49.95,"pop":0},{"id":2960424,"name":"Hovelange","alt":["Hovelingen","Huewel"],"lon":5.90722,"lat":49.7225,"pop":285},{"id":7290933,"name":"Howald","lon":6.14277,"lat":49.58387,"pop":0},{"id":2960423,"name":"Hubertsmuhle","lon":6.06667,"lat":50.13333,"pop":0},{"id":2960421,"name":"Huldange","alt":["Huldang","Huldingen"],"lon":6.015,"lat":50.16472,"pop":376},{"id":2960420,"name":"Huncherange","alt":["Henchereng","Huencheringen","Hëncheréng","Hüncheringen"],"lon":6.065,"lat":49.51694,"pop":615},{"id":2960419,"name":"Hunsdorf","alt":["Hensdref","Hënsdref"],"lon":6.13167,"lat":49.69667,"pop":413},{"id":2960418,"name":"Hupperdange","alt":["Hepperdang","Huepperdingen","Hëpperdang","Hüpperdingen"],"lon":6.05917,"lat":50.09611,"pop":210},{"id":2960417,"name":"Huttange","lon":5.89861,"lat":49.73611,"pop":37},{"id":2960415,"name":"Imbringen","alt":["Amber"],"lon":6.1975,"lat":49.6975,"pop":292},{"id":2960414,"name":"Ingeldorf","alt":["Angelduerf","Ingeldord"],"lon":6.13472,"lat":49.85194,"pop":833},{"id":2960413,"name":"Insenborn","alt":["Ensber","Ënsber"],"lon":5.88472,"lat":49.90167,"pop":165},{"id":2960411,"name":"Italien","alt":["Italie"],"lon":6.07944,"lat":49.47444,"pop":0},{"id":2960410,"name":"Itzig","alt":["Izeg"],"lon":6.17065,"lat":49.58769,"pop":1836},{"id":2960406,"name":"Jenkenhof","lon":5.95,"lat":49.81667,"pop":0},{"id":2960405,"name":"Jockelsmuhle","alt":["Jockesmuhle"],"lon":6.36667,"lat":49.71667,"pop":0},{"id":2960400,"name":"Junglinster","lon":6.25306,"lat":49.70722,"pop":2358},{"id":11703904,"name":"Kaesfurt","lon":6.07325,"lat":50.09253,"pop":0},{"id":2960399,"name":"Kahler","alt":["Koler"],"lon":5.91778,"lat":49.63139,"pop":192},{"id":2960398,"name":"Kalborn","alt":["Kaalber"],"lon":6.11306,"lat":50.10278,"pop":58},{"id":11669891,"name":"Kalkesbach","alt":["Kalkesbach (Berdorf)","Kalkesbach (Bergdorf)"],"lon":6.35379,"lat":49.80143,"pop":0},{"id":2960397,"name":"Kapenacker","alt":["Ferme Kapenacker"],"lon":6.35583,"lat":49.63444,"pop":0},{"id":2960396,"name":"Kapendahl","lon":6.23333,"lat":49.86667,"pop":0},{"id":2960395,"name":"Kapweiler","lon":5.97056,"lat":49.73944,"pop":30},{"id":2960394,"name":"Kaundorf","alt":["Kauneref"],"lon":5.90306,"lat":49.92139,"pop":192},{"id":2960393,"name":"Kautenbach","alt":["Kautebaach"],"lon":6.02,"lat":49.95278,"pop":126},{"id":2960391,"name":"Kayl","alt":["Gemeng Keel","Kajl'","Keel","Kejl","Kelis","kyl  lwkzambwrg","Кайль","Кейл","کیل، لوکزامبورگ"],"lon":6.03972,"lat":49.48917,"pop":4396},{"id":2960389,"name":"Kehlen","lon":6.03583,"lat":49.66833,"pop":1658},{"id":2960388,"name":"Kehmen","lon":6.03722,"lat":49.90083,"pop":0},{"id":2960383,"name":"Kéisbierg","alt":["Keisbierg","Kiesberg"],"lon":6.32056,"lat":49.67472,"pop":0},{"id":2960387,"name":"Keispelt","alt":["Keespelt"],"lon":6.06789,"lat":49.69394,"pop":567},{"id":2960380,"name":"Kirchberg","alt":["Kierchbierg","Luxembourg-Kirchberg"],"lon":6.14944,"lat":49.62389,"pop":3534},{"id":2960378,"name":"Kleinbettingen","alt":["Klengbetten"],"lon":5.91639,"lat":49.64639,"pop":872},{"id":2960376,"name":"Kleinhoscheid","lon":5.96806,"lat":50.01944,"pop":0},{"id":2960375,"name":"Kleinmacher","lon":6.35528,"lat":49.5325,"pop":0},{"id":2960373,"name":"Knaphoscheid","alt":["Meecher"],"lon":5.96472,"lat":50.01333,"pop":180},{"id":2960374,"name":"Kneppchen","alt":["Knaepchen","Knepchen"],"lon":6.01861,"lat":49.74194,"pop":0},{"id":2960372,"name":"Kobenbour","lon":6.30611,"lat":49.75028,"pop":0},{"id":2960371,"name":"Kocherei","alt":["Kocherey"],"lon":6.07056,"lat":50.06944,"pop":0},{"id":2960370,"name":"Kockelscheuer","alt":["Kockelscheier"],"lon":6.11222,"lat":49.56111,"pop":270},{"id":2960369,"name":"Koedange","lon":6.21028,"lat":49.72833,"pop":0},{"id":2960381,"name":"Koeppenhaff","alt":["Kippenhof"],"lon":6.13314,"lat":49.90313,"pop":0},{"id":2960367,"name":"Koerich","alt":["Gemeng Kaeerch","Gemeng Käerch","Kaeerch","Kerikh","Kjorikh","Kjorykh","Korich","Käerch","Körich","kwyrysh","Керіх","Кёрих","Кёрых","کوئریش"],"lon":5.95,"lat":49.67,"pop":1066},{"id":2960366,"name":"Koetschette","alt":["Kietscht"],"lon":5.84028,"lat":49.83806,"pop":125},{"id":2960363,"name":"Kopstal","lon":6.07306,"lat":49.66444,"pop":657},{"id":2960361,"name":"Kreizerbuch","alt":["Kreutzerbuch","Kreuzerbuch","Maisons Kreutzerbuch","Nikolausbuch"],"lon":5.91639,"lat":49.70167,"pop":0},{"id":2960359,"name":"Kuborn","lon":5.90306,"lat":49.87056,"pop":75},{"id":12035887,"name":"Lalleng","lon":5.99391,"lat":49.51187,"pop":0},{"id":2960358,"name":"Lamadelaine","alt":["Lamadeleine","Rolleng","Rollingen","Rolléng"],"lon":5.85639,"lat":49.54639,"pop":2428},{"id":2960356,"name":"Landscheid","lon":6.129,"lat":49.92407,"pop":76},{"id":12035874,"name":"Lankelz","lon":5.983,"lat":49.50969,"pop":0},{"id":2960352,"name":"Lannen","alt":["Maisons Lannenberg","Maisons Pieschend"],"lon":5.83972,"lat":49.78944,"pop":113},{"id":2960351,"name":"Lannenerbierg","alt":["Lannenerberg"],"lon":5.83528,"lat":49.79861,"pop":0},{"id":2960350,"name":"Larochette","alt":["Fels"],"lon":6.21891,"lat":49.78362,"pop":1410},{"id":2960349,"name":"Lasauvage","lon":5.8375,"lat":49.525,"pop":402},{"id":2960348,"name":"Lausdorn","lon":6.08333,"lat":50.11917,"pop":0},{"id":2960347,"name":"Lauterbour","alt":["Lauterborn"],"lon":6.38984,"lat":49.79684,"pop":0},{"id":2960344,"name":"Leihof","lon":6.1,"lat":49.8,"pop":0},{"id":2960343,"name":"Leithum","lon":6.10889,"lat":50.16083,"pop":78},{"id":2960338,"name":"Lellerhaff","alt":["Fermes","Lellingerhof"],"lon":6.08611,"lat":49.79944,"pop":0},{"id":2960342,"name":"Lellig","alt":["Lelleg"],"lon":6.43639,"lat":49.71611,"pop":142},{"id":2960340,"name":"Lellingen","alt":["Leltingen"],"lon":6.01444,"lat":49.98361,"pop":93},{"id":2960337,"name":"Lenningen","lon":6.36719,"lat":49.60045,"pop":338},{"id":2960336,"name":"Lentzweiler","lon":5.98051,"lat":50.0667,"pop":0},{"id":2960335,"name":"Leudelange","lon":6.06528,"lat":49.56833,"pop":1924},{"id":2960334,"name":"Levelange","lon":5.85667,"lat":49.73972,"pop":43},{"id":2960333,"name":"Liefrange","lon":5.8775,"lat":49.91,"pop":85},{"id":2960332,"name":"Lieler","alt":["Leiler","Léiler"],"lon":6.11,"lat":50.12444,"pop":179},{"id":11703905,"name":"Lilien","lon":6.3956,"lat":49.75405,"pop":0},{"id":2960331,"name":"Limpach","alt":["Lampech"],"lon":5.98056,"lat":49.55889,"pop":254},{"id":2960330,"name":"Limpertsberg","alt":["Lampertsberg","Lampertsbierg"],"lon":6.12167,"lat":49.62083,"pop":0},{"id":2960329,"name":"Linger","alt":["Lenger","Lénger"],"lon":5.88667,"lat":49.56583,"pop":591},{"id":2960328,"name":"Lintgen","lon":6.13016,"lat":49.72243,"pop":1752},{"id":2960327,"name":"Lipperscheid","alt":["Lepschent","Lëpschent"],"lon":6.08667,"lat":49.91861,"pop":294},{"id":2960326,"name":"Livange","alt":["Leiweng","Livingen","Léiweng"],"lon":6.12028,"lat":49.53028,"pop":306},{"id":2960324,"name":"Longsdorf","alt":["Longsdref"],"lon":6.20528,"lat":49.89889,"pop":80},{"id":2960321,"name":"Loorbierg","alt":["Brucherhof","Ferme Loring","Loreshof","Loringshof"],"lon":5.85111,"lat":49.85944,"pop":0},{"id":2960322,"name":"Lorentzweiler","alt":["Lorenzweiler"],"lon":6.14234,"lat":49.70131,"pop":772},{"id":2960319,"name":"Lullange","alt":["Lellgen","Lullingen","Lëllgen"],"lon":5.94194,"lat":50.06,"pop":132},{"id":2960318,"name":"Lultzhausen","lon":5.89083,"lat":49.90944,"pop":32},{"id":2960316,"name":"Luxembourg","alt":["Bandar Luxembourg","Ciudad de Luxemburgo","Ciutat de Luxemburg","Dinas Lwcsembwrg","LUX","Letzebuerg","Letzeburg","Liksanbou","Liuksemburgas","Ljuksemburg","Louxemvourgo","Lucemburk","Lucilinburhuc","Lucsamburg","Lucsemburg","Lueksemburg","Lueksemburq","Luessemburgh","Luksambuur","Luksemboarch","Luksembourg","Luksemburg","Luksemburga","Luksemburgo","Luksemburgu","Luksembùrg","Luksimbur","Lungsod ng Luksemburgo","Lusenburgo","Lussemborgh","Lussemburgo","Lussemburgu","Lussimbork veye","Luxemboerg","Luxemborg","Luxemborj","Luxembourg by","Luxemburg","Luxemburgo","Luxemburgum","Luxembuurich","Luxembôrg","Luxembörg","Luxenburgo","Lëtzebuerg","Lúksemboarch","Lúxemborg","Lüksemburg","Lüksemburq","Lüssemburgh","Rakapuo","Rakapuō","Stad Letzebuerg","Stad Lëtzebuerg","Stadt Luxemburg","Ville de Luxembourg","lak sem beirk","lakcampark","lakjhembarga","lksmbrg","lu sen bao cheng","lu sen bao shi","lugsembuleukeu","luksemaburga","luksemburgi","lwksmbwrgh","lwkzambwrg","lwqsmbwrg","rukusenburuku","Λουξεμβούργο","Луксембург","Люксембург","Лүксембург","Լյուքսեմբուրգ","לוקסמבורג","لوكسمبورغ","لوکزامبورگ","لوکسەمبورگ","ليۇكسېمبۇرگ شەھىرى","لکسمبرگ","लक्झेंबर्ग","লুক্সেমবুর্গ","லக்சம்பர்க்","ลักเซมเบิร์ก","ལུ་སེམ་བའུརག","ლუქსემბურგი","ሉክሰምበርግ","ルクセンブルク","盧森堡城","盧森堡市","룩셈부르크"],"lon":6.13,"lat":49.61167,"pop":76684},{"id":2960312,"name":"Machtum","alt":["Machum","Meechtem"],"lon":6.43599,"lat":49.65897,"pop":304},{"id":2960311,"name":"Maison Burg","lon":6.18333,"lat":49.83333,"pop":0},{"id":2960310,"name":"Maison Cronière","alt":["Bachermuhle","Bachermühle","La Croniere","La Cronière","Maison Croniere"],"lon":5.85,"lat":49.51667,"pop":0},{"id":2960308,"name":"Maison Hoffmann","lon":6.28333,"lat":49.7,"pop":0},{"id":2960307,"name":"Maison Klein","lon":5.85,"lat":49.75,"pop":0},{"id":2960306,"name":"Maison Leh","lon":6.23333,"lat":49.88333,"pop":0},{"id":2960304,"name":"Maison Peffer","lon":6.16667,"lat":49.51667,"pop":0},{"id":2960300,"name":"Maison Wangert","alt":["Wangert"],"lon":5.86667,"lat":49.8,"pop":0},{"id":2960303,"name":"Maisons Alteschmeltz","alt":["Alteschmeltz"],"lon":5.98333,"lat":49.7,"pop":0},{"id":2960302,"name":"Maisons Boussert","alt":["Boussert"],"lon":6.13333,"lat":49.73333,"pop":0},{"id":2960301,"name":"Maisons Prevent","lon":6.18333,"lat":49.71667,"pop":0},{"id":2960299,"name":"Mamer","alt":["Gemeng Mamer","Mameris","ma mo","mamr","Мамер","مامر","马默"],"lon":6.02333,"lat":49.6275,"pop":5017},{"id":2960296,"name":"Manternach","lon":6.42639,"lat":49.70278,"pop":443},{"id":2960295,"name":"Marbourg","lon":6.07472,"lat":50.05167,"pop":0},{"id":2960294,"name":"Marienthal","lon":6.06167,"lat":49.71,"pop":108},{"id":2960293,"name":"Marnach","alt":["Maarnech"],"lon":6.06194,"lat":50.05333,"pop":454},{"id":2960291,"name":"Martelinville","alt":["Ferme Martelinville","Rommeldange","Rommelerhaff","Rommelerhof"],"lon":5.77333,"lat":49.86694,"pop":0},{"id":2960290,"name":"Marxberg","lon":6.20917,"lat":49.9,"pop":0},{"id":2960289,"name":"Masseler","lon":6.03722,"lat":49.93083,"pop":36},{"id":2960288,"name":"Massen","lon":5.99278,"lat":50.1175,"pop":0},{"id":2960286,"name":"Maulin Diederich","lon":6.25,"lat":49.6,"pop":0},{"id":8714252,"name":"Maulusmühle","lon":6.02823,"lat":50.09619,"pop":0},{"id":2960284,"name":"Mecher","alt":["Mecher-lez-Clervaux","Mecher-sur-Clervaux"],"lon":6.0175,"lat":50.04083,"pop":0},{"id":2960285,"name":"Mecher","alt":["Mecher (Haute-Sure)","Mecher (Haute-Sûre)","Mecher-Dunkrodt","Meecher"],"lon":5.87222,"lat":49.92333,"pop":63},{"id":2960283,"name":"Medernach","lon":6.21521,"lat":49.80955,"pop":907},{"id":2960282,"name":"Medingen","alt":["Meidengen","Méidengen"],"lon":6.24861,"lat":49.57278,"pop":102},{"id":2960281,"name":"Meispelt","alt":["Meespelt","Meester"],"lon":6.05917,"lat":49.69111,"pop":290},{"id":2960280,"name":"Mensdorf","alt":["Menster"],"lon":6.30416,"lat":49.65467,"pop":813},{"id":2960279,"name":"Mergenhof","alt":["Frillschterhof","Stautzenhof"],"lon":5.86667,"lat":49.81667,"pop":0},{"id":2960278,"name":"Merkholz","alt":["Maeerkels","Mercols","Merkholtz","Merkols","Mäerkels"],"lon":5.98042,"lat":49.96133,"pop":94},{"id":2960277,"name":"Merl","alt":["Maerel","Märel"],"lon":6.09556,"lat":49.60333,"pop":6264},{"id":2960276,"name":"Mersch","alt":["Gemeng Miersch","Mersas","Mersh","Meršas","Miersch","Morsche","mei er shi","mrsh","Мерш","مرش","梅尔施"],"lon":6.10611,"lat":49.74889,"pop":3464},{"id":2960272,"name":"Merscheid","alt":["Merscheid-les-Heiderscheid","Merscheid-lès-Heiderscheid","Metscheed","Mëtscheed"],"lon":5.96995,"lat":49.87107,"pop":143},{"id":2960273,"name":"Merscheid","alt":["Marscheid","Merscheid-les-Putscheid","Merscheid-lès-Putscheid"],"lon":6.10694,"lat":49.95472,"pop":103},{"id":2960271,"name":"Mertert","lon":6.47966,"lat":49.70261,"pop":1163},{"id":2960270,"name":"Mertzig","alt":["Merzig"],"lon":6.0075,"lat":49.83389,"pop":1482},{"id":2960268,"name":"Meysembourg","alt":["Chateau Meysembourg"],"lon":6.18709,"lat":49.76971,"pop":0},{"id":2960267,"name":"Michelau","alt":["Mechela","Méchela"],"lon":6.09194,"lat":49.9,"pop":281},{"id":2960266,"name":"Michelbouch","alt":["Mechelbuch","Michelbuch","Michelsberg","Méchelbuch"],"lon":6.02028,"lat":49.81861,"pop":116},{"id":2960263,"name":"Misèrehof","alt":["Ferme Misere","Ferme Misère","Misere","Miserehof","Misère"],"lon":5.83333,"lat":49.86667,"pop":0},{"id":2960262,"name":"Moersdorf","alt":["Meischdref","Morsdorf","Méischdref"],"lon":6.5,"lat":49.73833,"pop":301},{"id":2960261,"name":"Moesdorf","alt":["Miesdref"],"lon":6.11667,"lat":49.76806,"pop":353},{"id":2960260,"name":"Moestroff","alt":["Meischtref","Méischtref"],"lon":6.23944,"lat":49.86778,"pop":418},{"id":2960259,"name":"Mompach","lon":6.465,"lat":49.74611,"pop":100},{"id":2960258,"name":"Mondercange","alt":["Monnerich"],"lon":5.98833,"lat":49.53306,"pop":3306},{"id":2960257,"name":"Mondorf-les-Bains","alt":["Bad Mondorf","Bains","Gemeng Munneref","Mondorf le Benas","Mondorf-le-Ben","Munneref","mondorp-le-beni","mwndwrf","Мондорф-ле-Бен","موندورف","მონდორფ-ლე-ბენი"],"lon":6.28111,"lat":49.505,"pop":3113},{"id":2960255,"name":"Moulin Colmesch","lon":6.11667,"lat":49.7,"pop":0},{"id":2960287,"name":"Moulin de Bascharage","alt":["Bascharage Moulin"],"lon":5.9,"lat":49.88333,"pop":0},{"id":2960253,"name":"Moulin Schenk","lon":6.21667,"lat":49.73333,"pop":0},{"id":2960252,"name":"Moutfort","alt":["Mutfert","Mutfort"],"lon":6.25556,"lat":49.58528,"pop":1306},{"id":2960251,"name":"Mühlenbach","alt":["Millebaach","Muehlenbach","Muhlenbach"],"lon":6.11917,"lat":49.63167,"pop":0},{"id":2960250,"name":"Müllendorf","alt":["Melleref","Muellendorf","Mullendorf","Mëllerëf"],"lon":6.13,"lat":49.68028,"pop":1024},{"id":2960249,"name":"Müllerthal","alt":["Mellerdall","Moellerdall","Muellertal","Mullerthal","Mëllerdall","Müllertal"],"lon":6.30665,"lat":49.7902,"pop":152},{"id":2960246,"name":"Münsbach","alt":["Minsbech","Muensbach","Munsbach","Musbach","Müsbach"],"lon":6.26459,"lat":49.63277,"pop":585},{"id":2960248,"name":"Münschecker","alt":["Menjecker","Munschecker","Mënjecker"],"lon":6.44222,"lat":49.69389,"pop":152},{"id":2960247,"name":"Munshausen","alt":["Munzen"],"lon":6.03861,"lat":50.03361,"pop":147},{"id":2960245,"name":"Nachtmanderscheid","alt":["Nuechtmanescht"],"lon":6.12944,"lat":49.94833,"pop":70},{"id":2960244,"name":"Nagem","alt":["Nogem","Nojem"],"lon":5.85778,"lat":49.78917,"pop":216},{"id":2960243,"name":"Neidhausen","lon":6.06667,"lat":50.02889,"pop":53},{"id":12035877,"name":"Neiduerf","lon":5.99662,"lat":49.48699,"pop":0},{"id":2960241,"name":"Neihaischen","alt":["Neuhaeusgen","Neuhäusgen"],"lon":6.23408,"lat":49.62483,"pop":239},{"id":2960235,"name":"Neimillen","alt":["Neumuhle","Neumühle"],"lon":5.92167,"lat":50.08056,"pop":0},{"id":2960242,"name":"Neudorf","lon":6.15667,"lat":49.61639,"pop":0},{"id":12035863,"name":"Neudorf/Weimershof /","lon":6.16926,"lat":49.6256,"pop":0},{"id":2960236,"name":"Neumühle","lon":5.95,"lat":49.9,"pop":0},{"id":2960237,"name":"Neumühle","lon":5.9,"lat":49.7,"pop":0},{"id":2960239,"name":"Neumühle","alt":["Neumuhle","Wolfsmuhle","Wolfsmühle"],"lon":6.23333,"lat":49.61667,"pop":0},{"id":2960234,"name":"Neunhausen","alt":["Nengsen","Néngsen"],"lon":5.88597,"lat":49.87672,"pop":65},{"id":2960227,"name":"Nieder-Merzig","alt":["Bas-Merzig"],"lon":6.01667,"lat":49.83333,"pop":0},{"id":2960231,"name":"Niederanven","alt":["Gemeng Nidderaanwen","Nidderanven","Nidehranven","Nideranven","nydranwn","Нидеранвен","Нідеранвен","Нідэранвен","نیدرآنون"],"lon":6.26199,"lat":49.65196,"pop":1508},{"id":2960228,"name":"Niedercorn","alt":["Nidderkuer","Niederkorn"],"lon":5.89306,"lat":49.53611,"pop":3164},{"id":2960229,"name":"Niederdonven","alt":["Nidderdonwen"],"lon":6.40243,"lat":49.63479,"pop":324},{"id":2960577,"name":"Niederfeulen","alt":["Feulen","Neiderfeulen"],"lon":6.04722,"lat":49.85556,"pop":1125},{"id":11703907,"name":"Niederfeulen","lon":5.99785,"lat":49.87235,"pop":0},{"id":2960226,"name":"Niederpallen","alt":["Nidderpallen"],"lon":5.91222,"lat":49.75528,"pop":374},{"id":2960225,"name":"Niederschieren","lon":6.1,"lat":49.83333,"pop":0},{"id":2960224,"name":"Niederschlinder","lon":6.06667,"lat":49.93333,"pop":0},{"id":2960223,"name":"Niederwampach","alt":["Nidderwampech"],"lon":5.84361,"lat":50.01167,"pop":0},{"id":2960222,"name":"Niederwiltz","lon":5.92306,"lat":49.96917,"pop":0},{"id":2960221,"name":"Nocher","alt":["Nacher","Nocher-Route"],"lon":5.97626,"lat":49.94653,"pop":233},{"id":11703869,"name":"Nocher-Route","alt":["Nacherstrooss","Nocherstrasse"],"lon":5.96021,"lat":49.94815,"pop":0},{"id":2960219,"name":"Noerdange","alt":["Naeerden","Noerdingen","Näerden"],"lon":5.92611,"lat":49.74222,"pop":599},{"id":2960218,"name":"Noertrange","alt":["Naeertreg","Noertringen","Näertreg"],"lon":5.91083,"lat":49.97972,"pop":274},{"id":2960217,"name":"Noertzange","alt":["Naeerzeng","Noertzingen","Näerzéng","Nörtzingen"],"lon":6.05611,"lat":49.50917,"pop":999},{"id":2960216,"name":"Nommern","lon":6.17472,"lat":49.78694,"pop":272},{"id":2960214,"name":"Nospelt","alt":["Nouspelt"],"lon":6.00889,"lat":49.67528,"pop":766},{"id":2960213,"name":"Nothum","alt":["Noutem"],"lon":5.88278,"lat":49.94139,"pop":161},{"id":2960206,"name":"Ober-Merzig","alt":["Haut-Merzig"],"lon":6.01667,"lat":49.83333,"pop":0},{"id":2960212,"name":"Oberanven","lon":6.24302,"lat":49.65743,"pop":682},{"id":2960207,"name":"Obercorn","alt":["Oberkorn"],"lon":5.89611,"lat":49.51361,"pop":4666},{"id":2960211,"name":"Oberdonven","alt":["Uewerdonwen"],"lon":6.40056,"lat":49.64667,"pop":164},{"id":2960210,"name":"Obereisenbach","lon":6.084,"lat":50.01,"pop":0},{"id":2960209,"name":"Oberfeulen","alt":["Haut-Feulen","Uewerfeelen"],"lon":6.03556,"lat":49.84806,"pop":283},{"id":2960208,"name":"Oberglabach","lon":6.15056,"lat":49.7775,"pop":0},{"id":2960205,"name":"Oberpallen","alt":["Uewerpallen"],"lon":5.84389,"lat":49.73028,"pop":397},{"id":2960204,"name":"Oberschieren","lon":6.1,"lat":49.83333,"pop":0},{"id":2960203,"name":"Oberschlinder","alt":["Haut-Schlinder"],"lon":6.06667,"lat":49.95,"pop":0},{"id":2960201,"name":"Oberwampach","alt":["Uewerwampech"],"lon":5.86083,"lat":50.01667,"pop":183},{"id":2960200,"name":"Oetrange","alt":["Eiter","Oetringen","Éiter"],"lon":6.26,"lat":49.59639,"pop":781},{"id":2960199,"name":"Ohligsmühle","lon":6.26667,"lat":49.61667,"pop":0},{"id":2960198,"name":"Olingen","alt":["Ouljen"],"lon":6.31392,"lat":49.67985,"pop":403},{"id":2960197,"name":"Olm","alt":["Ollem"],"lon":6.00028,"lat":49.65722,"pop":1459},{"id":2960195,"name":"Ospern","alt":["Osper"],"lon":5.90444,"lat":49.78389,"pop":276},{"id":2960194,"name":"Osweiler","alt":["Uesweller"],"lon":6.44254,"lat":49.78667,"pop":381},{"id":12035872,"name":"Park","lon":5.9867,"lat":49.48505,"pop":0},{"id":2960190,"name":"Peppange","alt":["Peppeng","Peppingen"],"lon":6.12972,"lat":49.52444,"pop":593},{"id":2960189,"name":"Perlé","alt":["Paerel","Perl","Perle","Pärel"],"lon":5.76583,"lat":49.81167,"pop":649},{"id":2960187,"name":"Pétange","alt":["Gemeng Peiteng","Gemeng Péiteng","Peiteng","Petange","Petanzas","Petanzh","Petanžas","Petingen","Péiteng","ptanzh","Петанж","پتانژ"],"lon":5.88056,"lat":49.55833,"pop":7187},{"id":2960185,"name":"Petit-Nobressart","lon":5.80944,"lat":49.77972,"pop":89},{"id":2960183,"name":"Pettingen","alt":["Pittange","Pittigen","Reiler"],"lon":6.10917,"lat":49.77028,"pop":206},{"id":2960181,"name":"Pfaffenthal","alt":["Pfaffental","Pfaffenthal-les-Tadler","Pfaffenthal-lès-Tadler"],"lon":6,"lat":49.91667,"pop":0},{"id":2960182,"name":"Pfaffenthal","alt":["Pafendall"],"lon":6.13333,"lat":49.61667,"pop":0},{"id":2960180,"name":"Pintsch","alt":["Pensch","Pënsch"],"lon":6.01306,"lat":49.99444,"pop":126},{"id":2960178,"name":"Pissange","lon":6.00028,"lat":49.54944,"pop":66},{"id":2960176,"name":"Platen","lon":5.93382,"lat":49.78933,"pop":541},{"id":2960035,"name":"Pommerloch","alt":["Reckingerhof","Trentelhof"],"lon":5.86083,"lat":49.96028,"pop":51},{"id":2960174,"name":"Pontpierre","alt":["Steebrecken","Steebrécken","Steinbrucken","Steinbruecken","Steinbrücken"],"lon":6.02944,"lat":49.53639,"pop":1017},{"id":2960173,"name":"Potaschberg","alt":["Grevenmacherberg","Potaschhof"],"lon":6.40083,"lat":49.67333,"pop":0},{"id":2960171,"name":"Pratz","alt":["Proz"],"lon":5.93917,"lat":49.80167,"pop":367},{"id":2960170,"name":"Prettingen","alt":["Prettange"],"lon":6.12028,"lat":49.7175,"pop":101},{"id":2960169,"name":"Pulvermühle","alt":["Polfermillen","Polvermillen","Pulvermuehle","Pulvermuhl"],"lon":6.15147,"lat":49.609,"pop":31},{"id":2960168,"name":"Putscheid","alt":["Petscht","Pëtscht"],"lon":6.14306,"lat":49.96083,"pop":38},{"id":12035878,"name":"Raemerich","lon":5.95237,"lat":49.5101,"pop":0},{"id":2960167,"name":"Rambrouch","alt":["Gemeng Rammerech","Rambruch","Rambrukh","Rambrush","Rammerech","rambrwk","Рамбрух","Рамбруш","رامبروک"],"lon":5.845,"lat":49.83083,"pop":401},{"id":2960166,"name":"Rameldange","alt":["Rammeldang","Rammeldange","Rammeldingen"],"lon":6.23238,"lat":49.66032,"pop":682},{"id":2960165,"name":"Reckange","alt":["Reckange-les-Mersch","Reckange-lès-Mersch","Recken","Reckingen"],"lon":6.08306,"lat":49.74972,"pop":611},{"id":2960164,"name":"Reckange-sur-Mess","alt":["Reckange","Reckange-sur-Messe","Reckeng op der Mess","Reckingen/Mess"],"lon":6.00889,"lat":49.5625,"pop":571},{"id":2960163,"name":"Reckingerhaff","alt":["Ferme Reckange","Reckingerhof"],"lon":6.31667,"lat":49.53333,"pop":0},{"id":2960160,"name":"Redange-sur-Attert","alt":["Redange","Redange/Attert","Redingen","Reiden","Réiden"],"lon":5.88997,"lat":49.76437,"pop":1164},{"id":2960158,"name":"Reichlange","alt":["Raeichel","Reichlingen","Räichel"],"lon":5.92806,"lat":49.77361,"pop":132},{"id":2960157,"name":"Reimberg","alt":["Remmereg","Rëmmereg"],"lon":5.95389,"lat":49.79722,"pop":182},{"id":2960156,"name":"Reisdorf","alt":["Reisduerf"],"lon":6.26778,"lat":49.86861,"pop":493},{"id":2960155,"name":"Remerschen","alt":["Rëmerschen"],"lon":6.35167,"lat":49.48861,"pop":704},{"id":2960154,"name":"Remich","alt":["Rehmikh","Reimech","Rejmekh","Remichas","Remikh","Réimech","lei mi xi","rmysh","Ремих","Реміх","Рејмех","Рэміх","رمیش","雷米希"],"lon":6.36694,"lat":49.545,"pop":3187},{"id":2960150,"name":"Reuland","alt":["Reiland"],"lon":6.2604,"lat":49.75316,"pop":196},{"id":2960149,"name":"Reuler","alt":["Reiler"],"lon":6.0375,"lat":50.05778,"pop":193},{"id":11703837,"name":"Riesenhof","alt":["Reisenhaff"],"lon":5.81481,"lat":49.83914,"pop":0},{"id":2960147,"name":"Rindschleiden","lon":5.90139,"lat":49.85028,"pop":0},{"id":2960146,"name":"Ringel","lon":6.01194,"lat":49.91694,"pop":0},{"id":2960145,"name":"Rippig","alt":["Rippeg"],"lon":6.31944,"lat":49.73417,"pop":113},{"id":2960144,"name":"Rippweiler","lon":5.9575,"lat":49.75167,"pop":153},{"id":2960143,"name":"Rodange","lon":5.84083,"lat":49.54639,"pop":5505},{"id":2960142,"name":"Rodbach","alt":["Maison Rodbach"],"lon":5.93528,"lat":49.77972,"pop":0},{"id":2960141,"name":"Rodenbourg","alt":["Rodenburg","Roudemer"],"lon":6.28939,"lat":49.68671,"pop":109},{"id":2960140,"name":"Roder","alt":["Rueder"],"lon":6.08361,"lat":50.05583,"pop":66},{"id":2960139,"name":"Rodershausen","lon":6.13111,"lat":50.03667,"pop":96},{"id":2960137,"name":"Roedgen","alt":["Riedgen"],"lon":6.03472,"lat":49.57472,"pop":337},{"id":2960136,"name":"Roedt","alt":["Rodt","Roedt-les-Trintange","Roedt-lès-Trintange","Rödt"],"lon":6.285,"lat":49.56778,"pop":0},{"id":2960135,"name":"Roeser","alt":["Gemeng Reiser","Gemeng Réiser","Reiser","Rezer","Réiser","rwzr","Резер","روزر"],"lon":6.14629,"lat":49.53721,"pop":708},{"id":2960134,"name":"Rolling","alt":["Rolleng","Rollingen"],"lon":6.31722,"lat":49.54889,"pop":117},{"id":2960133,"name":"Rollingen","alt":["Rolleng"],"lon":6.11444,"lat":49.74167,"pop":1448},{"id":2960132,"name":"Rollingergrund","alt":["Rollengergronn"],"lon":6.10778,"lat":49.62278,"pop":0},{"id":12035861,"name":"Rollingergrund / Belair-Nord","lon":6.09291,"lat":49.6332,"pop":0},{"id":2960131,"name":"Rombach-Martelange","alt":["Rombach","Rombech"],"lon":5.74278,"lat":49.83472,"pop":244},{"id":2960129,"name":"Roodt","alt":["Roddt","Roodt-Eisch","Roodt-sur-Eisch","Roodt/Eisch","Rued"],"lon":6.00222,"lat":49.69194,"pop":215},{"id":2960130,"name":"Roodt","alt":["Roodt (Ell)","Roodt-les-Ell","Roodt-lès-Ell","Rued"],"lon":5.82167,"lat":49.79444,"pop":159},{"id":2960128,"name":"Roodt-sur-Syre","alt":["Roodt","Roodt-sur-Syr","Roodt/Syre","Rued-Sir"],"lon":6.30257,"lat":49.66591,"pop":960},{"id":2960126,"name":"Roost","alt":["Roost (Bissen)","Rost"],"lon":6.09611,"lat":49.78667,"pop":0},{"id":2960127,"name":"Rosport","lon":6.50532,"lat":49.8047,"pop":681},{"id":2960583,"name":"Roudenhaff","alt":["Airsain","Ferme Airsain","Ferme Rouge","Rodenhof"],"lon":5.84722,"lat":49.53111,"pop":0},{"id":2960125,"name":"Roullingen","lon":5.92472,"lat":49.95583,"pop":0},{"id":2960123,"name":"Rumelange","alt":["Rumelingen"],"lon":6.03089,"lat":49.45964,"pop":0},{"id":2960122,"name":"Rumlange","alt":["Remeljen","Rimlingen","Rëmeljen"],"lon":5.97556,"lat":50.08,"pop":0},{"id":2960120,"name":"Saeul","alt":["Sell","Sëll"],"lon":5.98639,"lat":49.72722,"pop":316},{"id":2960117,"name":"Sandweiler","alt":["Gemeng Sandweiler","Sandvajler","Sandvejler","sndwaylr","Сандвайлер","Сандвейлер","سندوایلر"],"lon":6.22221,"lat":49.61471,"pop":2522},{"id":2960115,"name":"Sanem","alt":["Sassenheim","Suessem"],"lon":5.92889,"lat":49.54806,"pop":2489},{"id":2960114,"name":"Sassel","lon":5.9975,"lat":50.09944,"pop":45},{"id":2960112,"name":"Savelborn","lon":6.25483,"lat":49.81163,"pop":0},{"id":2960111,"name":"Schandel","lon":5.97583,"lat":49.79222,"pop":194},{"id":2960109,"name":"Scheidel","lon":6.04472,"lat":49.89361,"pop":0},{"id":2960108,"name":"Scheidgen","alt":["Scheedgen"],"lon":6.3607,"lat":49.78059,"pop":461},{"id":2960106,"name":"Scheierhaff","alt":["Scheuerhof","Scheuerhof-les-Canach","Scheuerhof-lès-Canach"],"lon":6.31611,"lat":49.59,"pop":0},{"id":2960107,"name":"Schengen","alt":["Convenio de Schengen","Gemeng Schengen","Sengen","Sengenas","Shengen","shen gen","shengen","shengeni","shngn lwkzambwrg","shynjn","sngn","syeng-gen","Şengen","Šengenas","Шенген","שנגן","شنگن لوکزامبورگ","شينجن","ෂෙන්ගන්","შენგენი","シェンゲン","申根","神根","솅겐"],"lon":6.362,"lat":49.47,"pop":470},{"id":2960104,"name":"Schieren","lon":6.09861,"lat":49.83056,"pop":1397},{"id":2960102,"name":"Schifflange","alt":["Scheffleng","Schëffleng"],"lon":6.01278,"lat":49.50639,"pop":8155},{"id":11669890,"name":"Schiltzberg","lon":6.22154,"lat":49.7384,"pop":0},{"id":2960100,"name":"Schimpach","lon":5.85222,"lat":50.01028,"pop":0},{"id":12035886,"name":"Schlassgoard","lon":5.99246,"lat":49.50339,"pop":0},{"id":2960098,"name":"Schleif","alt":["Schlief"],"lon":5.8575,"lat":49.99056,"pop":8},{"id":2960095,"name":"Schleiwenhaff","alt":["Schlevenhof","Schlewenhof"],"lon":6.05889,"lat":49.57833,"pop":0},{"id":2960094,"name":"Schlindermanderscheid","alt":["Schlennermanescht","Schlënnermanescht"],"lon":6.06361,"lat":49.93306,"pop":137},{"id":2960092,"name":"Schmëtt","alt":["Forge","Huldange-Forge","Schmett","Schmiede"],"lon":6.02528,"lat":50.18167,"pop":0},{"id":2960091,"name":"Schneideschhof","lon":5.95,"lat":49.68333,"pop":0},{"id":2960089,"name":"Schoenfels","alt":["Schendels","Schëndels"],"lon":6.09222,"lat":49.71889,"pop":216},{"id":2960088,"name":"Schoos","alt":["Schous"],"lon":6.17083,"lat":49.74417,"pop":164},{"id":2960085,"name":"Schouweiler","alt":["Schuller"],"lon":5.95639,"lat":49.5825,"pop":1090},{"id":2960084,"name":"Schrassig","alt":["Schraasseg"],"lon":6.25903,"lat":49.61014,"pop":1051},{"id":2960083,"name":"Schrondweiler","lon":6.15917,"lat":49.79778,"pop":285},{"id":2960082,"name":"Schuttrange","lon":6.26861,"lat":49.62056,"pop":841},{"id":2960081,"name":"Schwachtgesmühle","lon":6.21667,"lat":49.71667,"pop":0},{"id":2960080,"name":"Schwebach","lon":5.97194,"lat":49.74611,"pop":55},{"id":2960079,"name":"Schwebsange","alt":["Schwebsingen","Schweidsbengen","Schwéidsbengen"],"lon":6.35694,"lat":49.51167,"pop":307},{"id":2960078,"name":"Schweich","alt":["Schweech"],"lon":5.9275,"lat":49.72278,"pop":194},{"id":2960076,"name":"Schwidelbrouch","alt":["Schwiddelbrouch","Schwiedelbrouch"],"lon":5.85444,"lat":49.83056,"pop":0},{"id":2960075,"name":"Scierie Schleif","alt":["Schleif"],"lon":6.13333,"lat":49.71667,"pop":0},{"id":2960073,"name":"Selscheid","lon":5.94889,"lat":50.01806,"pop":59},{"id":2960072,"name":"Senningen","alt":["Senneng"],"lon":6.23927,"lat":49.64535,"pop":378},{"id":6696266,"name":"Senningerberg","alt":["Sennengerbierg"],"lon":6.22607,"lat":49.64907,"pop":1663},{"id":2960070,"name":"Septfontaines","alt":["Siebenborn","Simmern"],"lon":5.96722,"lat":49.70111,"pop":363},{"id":2960071,"name":"Septfontaines","alt":["Siebenbrunnen"],"lon":6.10444,"lat":49.62806,"pop":0},{"id":2960068,"name":"Siebenaler","alt":["Siwwenaler"],"lon":6.02667,"lat":50.01056,"pop":56},{"id":11694485,"name":"Simmerfarm","lon":5.98566,"lat":49.69326,"pop":0},{"id":11695670,"name":"Simmerschmelz","lon":5.98982,"lat":49.69745,"pop":0},{"id":2960067,"name":"Soleuvre","alt":["Zolver","Zolwer"],"lon":5.93781,"lat":49.52148,"pop":4988},{"id":12035888,"name":"Sommet","lon":5.96358,"lat":49.50971,"pop":0},{"id":2960066,"name":"Sonlez","alt":["Soller"],"lon":5.82667,"lat":49.965,"pop":41},{"id":2960065,"name":"Sprinkange","alt":["Sprenkeng","Sprinkingen","Sprénkeng"],"lon":5.96493,"lat":49.58049,"pop":0},{"id":2960063,"name":"Stadtbredimus","lon":6.36444,"lat":49.56278,"pop":749},{"id":2960059,"name":"Staekaul","alt":["Steinkaul"],"lon":5.92028,"lat":49.69611,"pop":0},{"id":2960062,"name":"Stegen","lon":6.17194,"lat":49.83,"pop":406},{"id":2960061,"name":"Steinfort","alt":["Stengefort"],"lon":5.91917,"lat":49.66139,"pop":2225},{"id":2960060,"name":"Steinheim","alt":["Steenem"],"lon":6.47713,"lat":49.81794,"pop":550},{"id":2960058,"name":"Steinsel","lon":6.12389,"lat":49.67694,"pop":1879},{"id":2960056,"name":"Stockem","alt":["Stackem"],"lon":5.95806,"lat":50.07889,"pop":119},{"id":2960055,"name":"Stolzembourg","alt":["Stolzebuerg","Stolzemburg"],"lon":6.16745,"lat":49.96549,"pop":183},{"id":2960054,"name":"Strassen","lon":6.07333,"lat":49.62056,"pop":6006},{"id":2960050,"name":"Surré","alt":["Sir","Surre","Syr"],"lon":5.78,"lat":49.90306,"pop":190},{"id":2960047,"name":"Syren","alt":["Siren"],"lon":6.22167,"lat":49.56194,"pop":423},{"id":2960046,"name":"Tadler","lon":5.99556,"lat":49.91139,"pop":0},{"id":2960045,"name":"Tandel","lon":6.18333,"lat":49.8975,"pop":89},{"id":2960044,"name":"Tarchamps","alt":["Eschpelt","Heispelt","Iischpelt","Ischpelt","Ischspelt"],"lon":5.79611,"lat":49.95056,"pop":294},{"id":2960042,"name":"Tétange","alt":["Teiteng","Tetange","Tetingen","Téiteng"],"lon":6.04222,"lat":49.47583,"pop":2929},{"id":2960040,"name":"Thillen","lon":6.43333,"lat":49.7,"pop":0},{"id":2960037,"name":"Tockmuhle","alt":["Tockenmuhle","Tockenmühle"],"lon":5.78333,"lat":49.91667,"pop":0},{"id":2960039,"name":"Tomm","alt":["Thom"],"lon":6.16361,"lat":49.89444,"pop":0},{"id":2960034,"name":"Trintange","alt":["Trenteng","Trintingen","Trënteng"],"lon":6.28056,"lat":49.57083,"pop":289},{"id":2960033,"name":"Troine","alt":["Tratten","Trotten"],"lon":5.88306,"lat":50.06444,"pop":0},{"id":2960817,"name":"Troine-Route","alt":["Baraques de Troine","Troine-Baraques"],"lon":5.87806,"lat":50.04611,"pop":0},{"id":2960030,"name":"Troisvierges","alt":["Elwen","Gemeng Elwen","Gemeng Ëlwen","Troavjerzh","Truav'erzh","Truaverzh","Ulflingen","torowavuieruju","trwawyrzh","Ëlwen","Троавјерж","Труавьерж","Труавєрж","ترواویرژ","トロワヴィエルジュ"],"lon":6.00028,"lat":50.12111,"pop":1457},{"id":2960027,"name":"Tuntange","alt":["Tenten","Tuntingen","Tënten"],"lon":6.01028,"lat":49.71778,"pop":605},{"id":2960026,"name":"Uebersyren","alt":["Iwwersiren"],"lon":6.2771,"lat":49.6319,"pop":4144},{"id":12035873,"name":"Uecht","lon":5.9745,"lat":49.49682,"pop":0},{"id":12035876,"name":"Universitéit","lon":5.94975,"lat":49.50439,"pop":0},{"id":2960025,"name":"Untereisenbach","alt":["Eesbech","Ennereesbech","Ënnereesbech"],"lon":6.14556,"lat":50.00167,"pop":0},{"id":2960023,"name":"Urspelt","alt":["Ischpelt"],"lon":6.04667,"lat":50.07556,"pop":54},{"id":2960022,"name":"Useldange","alt":["Useldeng"],"lon":5.98222,"lat":49.76972,"pop":657},{"id":2960582,"name":"Vesquenhaff","alt":["Ferme Vesque","Ferme de Vesque","Festenhof","Vesquehof","Westenhof"],"lon":5.87389,"lat":49.51111,"pop":0},{"id":2960021,"name":"Vianden","alt":["Veianen","Vijandehn","Vijanden","wei an deng","wyandn","Вианден","Вијанден","Віанден","Віяндэн","ویاندن","維安登"],"lon":6.20889,"lat":49.935,"pop":1626},{"id":2960019,"name":"Vichten","alt":["Viichten"],"lon":6,"lat":49.80306,"pop":764},{"id":12035862,"name":"Ville-Haute","lon":6.12648,"lat":49.61173,"pop":0},{"id":2960017,"name":"Wahl","alt":["Wal"],"lon":5.90639,"lat":49.83667,"pop":235},{"id":2960016,"name":"Wahlhausen","alt":["Wahlhousen","Wuelessen"],"lon":6.12667,"lat":49.98528,"pop":465},{"id":2960015,"name":"Wakelterhof","lon":6.3,"lat":49.81667,"pop":0},{"id":2960014,"name":"Waldbillig","lon":6.28431,"lat":49.79636,"pop":408},{"id":2960013,"name":"Waldbredimus","lon":6.28789,"lat":49.55676,"pop":416},{"id":2960010,"name":"Walferdange","alt":["Walfer","Walferdingen"],"lon":6.13224,"lat":49.66321,"pop":740},{"id":6691847,"name":"Wallendorf-Pont","alt":["Wallendorferbrueck","Wallendorferbrück","Wallenduerfer-Breck","Wallenduerfer-Bréck"],"lon":6.28674,"lat":49.8739,"pop":0},{"id":2960011,"name":"Walsdorf","alt":["Waldsdorf"],"lon":6.17361,"lat":49.92667,"pop":68},{"id":2960008,"name":"Warken","alt":["Waarken"],"lon":6.08415,"lat":49.85918,"pop":1188},{"id":2960007,"name":"Wasserbillig","lon":6.49861,"lat":49.71534,"pop":2327},{"id":2960006,"name":"Watrange","alt":["Walter"],"lon":5.78583,"lat":49.94417,"pop":92},{"id":2960004,"name":"Webershof","alt":["Weberhof"],"lon":6.25,"lat":49.81667,"pop":0},{"id":2960003,"name":"Wecker","alt":["Wecker-Gare"],"lon":6.38525,"lat":49.69473,"pop":667},{"id":11703836,"name":"Wecker-Gare","lon":6.38688,"lat":49.70125,"pop":0},{"id":2960002,"name":"Weicherdange","alt":["Waeicherdang","Weicherdingen","Wäicherdang"],"lon":5.98944,"lat":50.03833,"pop":220},{"id":2960000,"name":"Weidingen","alt":["Wegdichen"],"lon":5.93884,"lat":49.97068,"pop":0},{"id":2959995,"name":"Weiler","alt":["Weiler-les-Putscheid","Weiler-lès-Putscheid"],"lon":6.12417,"lat":49.96361,"pop":153},{"id":2959998,"name":"Weiler","lon":5.94611,"lat":50.10444,"pop":44},{"id":2959996,"name":"Weiler-la-Tour","lon":6.20083,"lat":49.54083,"pop":484},{"id":2959997,"name":"Weilerbach","alt":["Weilerbaach"],"lon":6.38278,"lat":49.83333,"pop":274},{"id":2959994,"name":"Weileschbach","alt":["Steinescht","Weilesbach"],"lon":6.21667,"lat":49.86667,"pop":0},{"id":2959993,"name":"Weimershof","lon":6.15,"lat":49.6,"pop":0},{"id":2959992,"name":"Weimerskirch","alt":["Neimersk","Waymersk","Weimeschkierch","Wimerskirch"],"lon":6.13639,"lat":49.62361,"pop":0},{"id":2959991,"name":"Weissenhof","lon":6.11667,"lat":49.56667,"pop":0},{"id":2959989,"name":"Weiswampach","lon":6.075,"lat":50.13722,"pop":691},{"id":2959988,"name":"Welfrange","alt":["Welfreng","Welfringen"],"lon":6.28417,"lat":49.53806,"pop":154},{"id":2959987,"name":"Wellenstein","alt":["Wellesteen"],"lon":6.34222,"lat":49.52389,"pop":499},{"id":2959985,"name":"Welscheid","alt":["Welschent"],"lon":6.06778,"lat":49.88806,"pop":149},{"id":2959984,"name":"Welsdorf","lon":6.08677,"lat":49.81727,"pop":0},{"id":2959983,"name":"Wemperhardt","alt":["Wemperhaard","Wemperhart"],"lon":6.05333,"lat":50.15556,"pop":0},{"id":11694463,"name":"Weydig","lon":6.3303,"lat":49.7165,"pop":0},{"id":2959982,"name":"Weyer","lon":6.2,"lat":49.71972,"pop":0},{"id":2959981,"name":"Wickelscheid","alt":["Ferme Wickelescht"],"lon":6.2,"lat":49.75,"pop":0},{"id":2959980,"name":"Wickrange","alt":["Wickreng","Wickringen"],"lon":6.02167,"lat":49.54139,"pop":111},{"id":2959979,"name":"Wilmeshof","lon":6.11667,"lat":49.85,"pop":0},{"id":2959977,"name":"Wiltz","alt":["Vil'c","Vilc","Vilcas","Wilz","Wolz","wyltz","Вилц","Вильц","Вільц","ویلتز"],"lon":5.9339,"lat":49.96547,"pop":4816},{"id":2959974,"name":"Wiltzermühle","alt":["Ferrantsmuhle","Ferrantsmühle","Wiltzermuhle","Wilzermuhle","Wilzermühle"],"lon":6.05,"lat":49.65,"pop":0},{"id":2959973,"name":"Wilwerdange","alt":["Wilwerdang","Wilwerdingen"],"lon":6.02389,"lat":50.14056,"pop":268},{"id":2959972,"name":"Wilwerwiltz","alt":["Wilwerwilz"],"lon":5.99917,"lat":49.98889,"pop":249},{"id":2959971,"name":"Wincrange","alt":["Wenerange","Wintger"],"lon":5.91917,"lat":50.05333,"pop":210},{"id":11694425,"name":"Windhof","alt":["Windhof (Koerich)"],"lon":5.95755,"lat":49.64635,"pop":0},{"id":2959968,"name":"Winseler","alt":["Gemeng Wanseler","Vinseler","Vinzeler","Wanseler","wynzlr","Винзелер","Вінселер","وینزلر"],"lon":5.89028,"lat":49.96778,"pop":126},{"id":2959967,"name":"Wintrange","alt":["Wentreng","Wintringen","Wëntreng"],"lon":6.35278,"lat":49.50139,"pop":384},{"id":12035881,"name":"Wobrecken","lon":5.9798,"lat":49.50393,"pop":0},{"id":2959965,"name":"Wolfsmuhle","alt":["Wolfsmuhle-les-Ellange","Wolfsmuhle-lès-Ellange","Wolfsmühle"],"lon":6.31667,"lat":49.53333,"pop":0},{"id":2959966,"name":"Wollefsmillen","alt":["Wolfsmuhle","Wolfsmuhle les Wasserbillig","Wolfsmuhle lès Wasserbillig","Wolfsmühle"],"lon":6.49,"lat":49.71639,"pop":0},{"id":2959964,"name":"Wolpert","alt":["Maisons Wolper","Wolper"],"lon":6.3536,"lat":49.76421,"pop":0},{"id":2959961,"name":"Wolwelange","alt":["Wolwelingen","Wolwen"],"lon":5.76472,"lat":49.82861,"pop":358},{"id":2959959,"name":"Wormeldange","alt":["Wormeldingen","Wuermeldeng"],"lon":6.40546,"lat":49.61114,"pop":786},{"id":11670382,"name":"Wormeldange-Haut","alt":["Oberwormeldingen","Uewerwuermeldeng","Wormerberreg","Wuermer Bierg"],"lon":6.39999,"lat":49.60983,"pop":0},{"id":3263885,"name":"Woulkeschdall","lon":6.09778,"lat":49.48472,"pop":0},{"id":2959960,"name":"Wues","alt":["Woos"],"lon":6.15556,"lat":49.79667,"pop":0},{"id":12035879,"name":"Zaepert","lon":5.97288,"lat":49.5094,"pop":0},{"id":2959958,"name":"Zittig","lon":6.345,"lat":49.73889,"pop":38}]