[{"id":89126,"name":"‘Ā’ilat Lamwīs","lon":20.22918,"lat":32.13416,"pop":0},{"id":89096,"name":"‘Akramah","alt":["Acroma","`Akramah","`Ikrimah","‘Ikrimah"],"lon":23.68333,"lat":32.03333,"pop":0},{"id":2219543,"name":"‘Aqqār","alt":["Aggar","`Aqqar"],"lon":13.53139,"lat":25.96333,"pop":0},{"id":2219034,"name":"‘Ayn al Ghazāyā","alt":["Ain Ghezaia","`Ayn Ghazayah","`Ayn al Ghazaya","‘Ayn Ghazāyah"],"lon":10.81064,"lat":31.904,"pop":0},{"id":88498,"name":"‘Ayn Mārrah","alt":["Ain Mara","Anmara Mudr","Ein Mara","`Ayn Marrah"],"lon":22.38333,"lat":32.75,"pop":0},{"id":2219021,"name":"‘Ayn Zārah","alt":["Ain Zara","Miani","`Ayn Zarah","ʿyn zart","عين زارة"],"lon":13.26972,"lat":32.81333,"pop":0},{"id":2217665,"name":"‘Eoj Wāhş","lon":19.76667,"lat":22.28333,"pop":0},{"id":8615562,"name":"‘Imārāt as Sīratī","alt":["`Imarat as Sirati","ʿmarat alsyrty","عمارات السيرتي"],"lon":20.12219,"lat":32.11703,"pop":0},{"id":2209071,"name":"‘Uwaynāt Wanīn","lon":12.7,"lat":28.5,"pop":0},{"id":2220468,"name":"Abū ‘Īsá","alt":["Abu `Isa","Bu Isa","Bu Ísa"],"lon":12.63105,"lat":32.75306,"pop":0},{"id":2220508,"name":"Abū ar Rīsh","alt":["Abu ar Rish","abw alrysh","أبو الريش"],"lon":12.4964,"lat":32.72844,"pop":0},{"id":2220480,"name":"Abū Ghaylān","lon":13.01667,"lat":32.26667,"pop":0},{"id":2220457,"name":"Abū Kammāsh","alt":["Abu Kammash","Bu Chemmasc","Bu Kammash","Bu Kemmesh","Bū Kammāsh","Pisida","abw kmash","bw kmash","أبو كماش","بو كماش"],"lon":11.73633,"lat":33.0739,"pop":0},{"id":2220399,"name":"Abū Salīm","alt":["Abu Salim","Buslim","Būslīm","abw slym","أبو سليم"],"lon":13.17093,"lat":32.84264,"pop":0},{"id":2220368,"name":"Abū Zayyān","alt":["Abu Zayyan","Abu Ziyyan","Abū Ziyyān","Bu Zaian","Bu Zaián","Bu Zayyan","Bu Zeian","Bū Zayyān"],"lon":12.97861,"lat":32.09972,"pop":0},{"id":2220347,"name":"Abyār as Sabābīl","alt":["Ab'ar as Sababil","Abyar as Sababil","Ab’ar as Sabābīl","abyar alsbabyl","أبيار السبابيل"],"lon":13.44194,"lat":32.85139,"pop":0},{"id":2220336,"name":"Ad Dāfīnah","alt":["Ad Dafinah","Ad Dafiniyah","Ad Dafinīyah","Ad Dafniyah","Ad Dafnīyah","aldafynt","aldfynyt","الدافينة","الدفينية"],"lon":14.79297,"lat":32.41343,"pop":0},{"id":2220326,"name":"Ad Dāwūn","lon":13.46667,"lat":32.43333,"pop":0},{"id":2220325,"name":"Ad Dayāsīr","alt":["Ad Dayasir","Al Dayasir","Al Dayāsīr","Ed Diasir","Ed Diasìr","Ed-Dtasir"],"lon":12.98722,"lat":32.14556,"pop":0},{"id":11814204,"name":"Ad Dīsah","alt":["Ad Disah","aldyst","الديسة"],"lon":12.81707,"lat":26.58755,"pop":0},{"id":8615291,"name":"Ad Durāwī","alt":["Ad Durawi","aldrawy","الدراوي"],"lon":20.06272,"lat":32.11817,"pop":0},{"id":2220318,"name":"Ad Duwaysah","alt":["Dissa","Duesa","Duésa","Ed-Duesa","Ed-Duésa","aldwyst","الدويسة"],"lon":13.96365,"lat":27.50251,"pop":0},{"id":2220286,"name":"Ahl al Wādī","lon":12.46976,"lat":32.00451,"pop":0},{"id":89147,"name":"Aḩqāf al Jabbārāt","alt":["Ahqaf al Jabbarat"],"lon":21.91099,"lat":32.68328,"pop":0},{"id":89146,"name":"Aḩqāf al Jabhīyah","alt":["Ahqaf al Jabhiyah","Ahqaf al Jabhiyh","Aḩqāf al Jabhīyh","Caf el-Gebeihia","Caf el-Gebeihìa"],"lon":21.72139,"lat":32.72417,"pop":0},{"id":89144,"name":"Aḩqāf ar Rūzāt","alt":["Ahqaf ar Ruzat"],"lon":21.90478,"lat":32.83172,"pop":0},{"id":89113,"name":"Ajdabiya","alt":["AEcdabiya","Adjadabia","Adschdabiya","Adzdabija","Adzedabija","Adzhdabija","Adzsdabija","Adzsdábija","Adżdabija","Adždabija","Adžedábíja","Agdabija","Agedabia","Ajdabiyah","Ajdābiyah","Ajdābiyā","Aĝdabija","Corniclanum","Ecdebiye","Laecdabiaen","Läcdabiän","QGG","ai ji da bi ye","ajdabia","ajdabya","ajidabiya","ajudabiya","Äcdabiya","Адждабия","Адждабія","Аџдабија","אגדאביא","أجدابيا","اجدابیا","شعبية إجدابيا","აჯდაბია","アジュダービヤー","艾季达比耶","아지다비야"],"lon":20.22625,"lat":30.75545,"pop":416000},{"id":11669894,"name":"Akar Etba","alt":["Agar Otba"],"lon":13.55683,"lat":26.09371,"pop":0},{"id":8615287,"name":"Akhraybīsh","alt":["Akhraybish","akhrybysh","أخريبيش"],"lon":20.06594,"lat":32.12595,"pop":0},{"id":89085,"name":"Al ‘Adam","alt":["Al `Adam","Al `Adm","Al ‘Aḑm","El Adem","العدم"],"lon":23.92577,"lat":31.86644,"pop":0},{"id":2220189,"name":"Al ‘Alāwinah","alt":["Al `Alawinah","`Aawinah","‘Aāwinah"],"lon":12.56972,"lat":32.05333,"pop":0},{"id":2220181,"name":"Al ‘Amāmirah","lon":14.10694,"lat":32.45472,"pop":0},{"id":2220151,"name":"Al ‘Assah","alt":["Al `Assah","El Assa","alʿst","العسة"],"lon":11.62926,"lat":32.82995,"pop":0},{"id":2219689,"name":"Al ‘Awinat","alt":["Al Awaynat","Al `Uwaynat","Al ‘Uwaynāt","Aouinet","El-Auenat","El-Auénat","Sardalas","Sardalis","Sardalīs","Serdeles"],"lon":10.56133,"lat":25.78123,"pop":0},{"id":2220139,"name":"Al ‘Azīzīyah","alt":["Al `Aziziyah","Azizia","El Azizia","العَزيزية"],"lon":13.0175,"lat":32.53194,"pop":4000},{"id":88968,"name":"Al ‘Izzīyāt","lon":20.06667,"lat":32.25,"pop":0},{"id":2219703,"name":"Al ‘Ubayyāt","lon":12.69528,"lat":32.08306,"pop":0},{"id":2219698,"name":"Al ‘Uqaylah","alt":["Agheila","Aghéila","Al `Uqaylah","Anabucis","El Agheila","alʿqylt","العقيلة"],"lon":19.20098,"lat":30.25711,"pop":0},{"id":2219696,"name":"Al ‘Urbān","lon":13.15,"lat":32.16667,"pop":0},{"id":2219694,"name":"Al ‘Urqūb","lon":12.21795,"lat":31.94645,"pop":0},{"id":88823,"name":"Al ‘Urūbah","alt":["Al `Urubah","alʿrwbt","العروبة"],"lon":20.12927,"lat":32.11766,"pop":0},{"id":88819,"name":"Al ‘Uwaylīyah ash Sharqīyah","alt":["Al Awiliah al Sharqiyah","Al Awiliah al Sharqīyah","Al `Uwayliyah ash Sharqiyah"],"lon":21.03333,"lat":32.56667,"pop":0},{"id":88818,"name":"Al ‘Uwaynāt","alt":["Al `Awaynat","Al `Uwaynat","Al ‘Awaynāt"],"lon":24.83333,"lat":21.56667,"pop":0},{"id":89090,"name":"Al Abraq","alt":["Al Labrag","Al Labraq","Al Lazraq","El-Abragh","El-Abràgh","Luigi di Savoia","alabrq","الأبرق"],"lon":22.0005,"lat":32.78991,"pop":0},{"id":2220194,"name":"Al Abyaḑ","alt":["Al Abyad","El Abiad","alabyd","الأبيض"],"lon":13.99826,"lat":26.75777,"pop":0},{"id":89087,"name":"Al Abyār","alt":["Alabia","El Abiar","Madirat al Abyar","Madīrat al Abyār","alabyar‎","الأبيار‎"],"lon":20.59653,"lat":32.19,"pop":32563},{"id":2219701,"name":"Al Ajaylat","alt":["Agelat","Agelát","Al `Ajaylat","Al `Ujaylat","Al ‘Ajaylāt","Al ‘Ujaylāt","El Agelat","El Ajelat","alʿjylat","العجيلات"],"lon":12.37633,"lat":32.75718,"pop":130546},{"id":2220153,"name":"Al Aşābi‘ah","alt":["Al Asabi`ah","Asabaa","Asábaa","El-Asabaa","El-Asábaa"],"lon":12.86667,"lat":32.03333,"pop":0},{"id":89070,"name":"Al Ashhab","alt":["El Ascehab","alashhb","الأشهب"],"lon":24.65719,"lat":31.8887,"pop":0},{"id":89069,"name":"Al Athrūn","alt":["Al Athrun","Al-Atrun","El Atrun","El Atrùn","Lathrun","Latroun","Latrun","alathrwn","الأثرون"],"lon":22.27866,"lat":32.86666,"pop":0},{"id":8615228,"name":"Al Babsá","alt":["Al Babsa","albbsy","الببسى"],"lon":20.07872,"lat":32.08121,"pop":0},{"id":2220133,"name":"Al Bakhābikhah","lon":12.54548,"lat":32.06647,"pop":0},{"id":2220132,"name":"Al Bakkī","alt":["Al Bakki","El Bacchi","albky","البكي"],"lon":14.57917,"lat":24.92764,"pop":0},{"id":2220128,"name":"Al Barāhimah","alt":["Al Barahimah","El-Brahma","El-Bráhma"],"lon":12.18333,"lat":31.93333,"pop":0},{"id":2220109,"name":"Al Barakāt","alt":["Al Barakat","Al Barkat","Al Barkāt","Al Birkah","El Barka","Elbarcat","albrkat","البركات"],"lon":10.18336,"lat":24.894,"pop":0},{"id":80509,"name":"Al Bardīyah","alt":["Al Bardiyah","Bardia","Bardiyah","Bardīyah","Bordi Sleman","Bórdi Slemán","Petras Maior","albrdyt","brdyt","البردية","بردية"],"lon":25.0853,"lat":31.75601,"pop":9149},{"id":2220116,"name":"Al Bayāţinah","alt":["Al Bayatinah","Al Biyatinah","Al Biyāţinah"],"lon":12.52614,"lat":32.03392,"pop":0},{"id":89055,"name":"Al Bayḑā’","alt":["Al Bayda'","Al-Baida","Az Zawiyah al Bayda'","Az Zāwiyah al Bayḑā’","Baida","Balagrae","Balis","Bayda","Beda","Beida","El Beida","LAQ","White Monastery","Zauia el Beda","Zawiat al-Baida","Zawiyat al Bayda'","Zawiyat el-Beda'","Zāwiyat al Bayḑā’","Zāwiyat el-Bēḑā’","البيضاء"],"lon":21.75506,"lat":32.76272,"pop":74594},{"id":2220114,"name":"Al Bayḑān","alt":["Al Baydan","Bedan","Bedán","El Bedan"],"lon":14.21306,"lat":25.83806,"pop":0},{"id":89048,"name":"Al Birkah","alt":["Al Berka","Barka","Berka","El Berca","Sidi Dawud","albrkt","البركة"],"lon":20.08172,"lat":32.09999,"pop":0},{"id":2220135,"name":"Al Budayr","alt":["Al Badr","El Bder","albdyr","البدير"],"lon":14.84785,"lat":26.15897,"pop":0},{"id":2220107,"name":"Al Buḩūr","lon":12.56318,"lat":32.05478,"pop":0},{"id":88329,"name":"Al Būmbah","alt":["Al Bumbah","Bamba","Bambā","albwmbt","البومبة"],"lon":23.06723,"lat":32.43861,"pop":0},{"id":2215210,"name":"Al Burayqah","alt":["El-Brega","LMQ","Marsa Brega","Marsa Bregha","Marsa al Burayqah","Marsa el Brega","Marsá al Burayqah","Port Brega","Qasr al Buraygah","Qasr al Burayqah","Qaşr al Burayqah","albryqt","mrsy albryqt","qsr albryqt","البريقة","قصر البريقة","مرسى البريقة"],"lon":19.57386,"lat":30.40624,"pop":13780},{"id":2220100,"name":"Al Burayqah","lon":19.38333,"lat":30.4,"pop":0},{"id":89043,"name":"Al Burdī","alt":["Al Bardi","Al Bardī","Al Burdi"],"lon":25.08333,"lat":31.76667,"pop":0},{"id":11258326,"name":"Al Dahra","alt":["alzhrt","الظهرة"],"lon":13.19286,"lat":32.89159,"pop":0},{"id":89038,"name":"Al Fājir","alt":["Al Fajir","Alba","El-Fager","El-Fàger"],"lon":22.2,"lat":32.88333,"pop":0},{"id":12128548,"name":"Al Farnaj","alt":["alfrnaj","الفرناج"],"lon":13.23823,"lat":32.85135,"pop":0},{"id":2220089,"name":"Al Fātiḩ","alt":["Al Fatih","Al Furnaj","alfath","الفاتح"],"lon":13.25333,"lat":32.83222,"pop":0},{"id":2220088,"name":"Al Fawāḑil","alt":["Al Fawadil","Baldat at Fawadil","Baldat at Fawāḑil","El-Fuadel","El-Fuádel"],"lon":12.30551,"lat":32.00934,"pop":0},{"id":2220087,"name":"Al Fawātīr","alt":["Al Fawatir","El-Fuatir","El-Fuatír"],"lon":14.5638,"lat":32.45079,"pop":0},{"id":2220085,"name":"Al Fujayj","alt":["El-Fgeg","alfjyj","الفجيج"],"lon":13.31586,"lat":26.54243,"pop":0},{"id":2220081,"name":"Al Fuqahā’","alt":["Al Fuqaha'","El Fogha","El Fógha","Faga"],"lon":14.05,"lat":31.78333,"pop":0},{"id":2220083,"name":"Al Fuqahā’","alt":["Al Fuqaha'","Al-Foqaha'","Al-Foqahā’","El Fogaha","Fogaha","Fógaha","alfqhaʾ","الفقهاء"],"lon":16.38953,"lat":27.81099,"pop":0},{"id":2220080,"name":"Al Fuqar","alt":["El-Fogar","El-Fogàr"],"lon":13.16667,"lat":26.56667,"pop":0},{"id":8615225,"name":"Al Fuwayhāt al Gharbīyah","alt":["Al Fuwayhat","Al Fuwayhat al Gharbiyah","Al Fuwayhāt","alfwyhat","alfwyhat alghrbyt","الفويهات","الفويهات الغربية"],"lon":20.08059,"lat":32.06496,"pop":0},{"id":11867582,"name":"Al Ghazālah","alt":["Al Ghazalah","alghzalt","الغزالة"],"lon":23.35691,"lat":32.14617,"pop":0},{"id":2220068,"name":"Al Ghīrān","alt":["Al Ghiran","El Ghiran","El-Gheran","El-Gheràn"],"lon":15.03333,"lat":32.35,"pop":0},{"id":2220063,"name":"Al Ghuraybāt","alt":["Al Ghuraybat","El-Greibat","El-Greibát"],"lon":13.56667,"lat":26.6,"pop":0},{"id":2220061,"name":"Al Ghurayfah","alt":["alghryft","الغريفة"],"lon":13.01072,"lat":26.52161,"pop":0},{"id":2220054,"name":"Al Hadāri‘ah","alt":["Al Hadari`ah","Al Ḩadāri‘ah","الهدارعة"],"lon":15.17891,"lat":32.01072,"pop":0},{"id":2220051,"name":"Al Ḩajarah","alt":["Al Hajarah","El Hagera","El Hàgera"],"lon":12.96778,"lat":32.12028,"pop":0},{"id":2220048,"name":"Al Ḩalamah","alt":["Al Halamah","El-Helma","El-Hélma"],"lon":14.01806,"lat":31.75583,"pop":0},{"id":83468,"name":"Al Ḩamāmah","alt":["Al Hamamah","Ra's al Hamamah","Ra’s al Ḩamāmah","alhmamt","الحمامة"],"lon":21.63243,"lat":32.91532,"pop":0},{"id":2220043,"name":"Al Ḩamīdīyah","alt":["Al Hamidiyah","Ed-Dachla","Lahmidiyah","Laḩmīdīyah","alhmydyt","الحميدية"],"lon":13.39083,"lat":32.88444,"pop":0},{"id":2220038,"name":"Al Ḩamrā’","alt":["Al Hamra'","El Hamra","الحمراء"],"lon":13.8769,"lat":26.71115,"pop":0},{"id":89012,"name":"Al Ḩanīyah","alt":["Al Haniyah","El-Hania","El-Hanía","alhnyt","الحنية"],"lon":21.52086,"lat":32.84099,"pop":0},{"id":2220031,"name":"Al Hanshīr","alt":["Al Hanshir","Al Hinshir","Al Hinshīr","alhnshyr","الهنشير"],"lon":13.23756,"lat":32.89762,"pop":0},{"id":2220029,"name":"Al Ḩarābah","alt":["Al Harabah","Al Haraibah","Al Harayibah","Al Ḩarāibah","Al Ḩarāyibah","El-Haraba"],"lon":11.54361,"lat":31.77389,"pop":0},{"id":2220020,"name":"Al Ḩāshiyah al Ḩamrā’","lon":12.56085,"lat":32.73217,"pop":0},{"id":2220015,"name":"Al Ḩaţīyah","alt":["Al Hatiyah","El-Hatia","El-Hatía","alhtyt","الحطية"],"lon":12.9165,"lat":26.57415,"pop":0},{"id":11828488,"name":"Al Ḩaţīyah","alt":["Al Hatiyah","alhtyt","الحطية"],"lon":13.54597,"lat":27.55775,"pop":0},{"id":2220013,"name":"Al Ḩawāmid","lon":11.16222,"lat":31.97528,"pop":0},{"id":8615565,"name":"Al Hawary","alt":["Al Hawwari","Al Hawwārī","alhwary","الهواري"],"lon":20.14933,"lat":32.06478,"pop":0},{"id":89005,"name":"Al Hawwārī","lon":23.16667,"lat":24.31667,"pop":0},{"id":11846280,"name":"Al Hilāl","alt":["Al Hilal","alhlal","الهلال"],"lon":22.18422,"lat":32.88452,"pop":0},{"id":89004,"name":"Al Ḩimādah","alt":["Al Himadah","alhmadt","الحمادة"],"lon":20.61255,"lat":32.42317,"pop":0},{"id":88999,"name":"Al Hīrī","alt":["Al Hiri","El-Hiri"],"lon":21.51667,"lat":29.05,"pop":0},{"id":2220007,"name":"Al Hīshah","alt":["Al Hayshah","Al Hishah","El Hescia","El Hissa","alhysht","الهيشة"],"lon":15.27599,"lat":31.64827,"pop":0},{"id":2216651,"name":"Al Ḩummayrah","alt":["Al Hummayrah","Hammera","Hamméra","Hummayrah","alhmyrt","الحميرة","Ḩummayrah"],"lon":14.80913,"lat":26.1136,"pop":0},{"id":2219994,"name":"Al Ḩurshah","alt":["Al Hurshah","alhrsht","الحرشة"],"lon":12.67389,"lat":32.76472,"pop":0},{"id":2219992,"name":"Al Ḩuwayjāt","lon":14.59117,"lat":32.36755,"pop":0},{"id":2219961,"name":"Al Ja‘āfirah","alt":["Al Ja`afirah","El Giaafra"],"lon":13.28333,"lat":32.15,"pop":0},{"id":2219960,"name":"Al Jadīd","alt":["Al Jadid","Al'-Dzhadid","El-Gedid","El-Gedíd","aljdyd","Аль-Джадид","الجديد"],"lon":14.4,"lat":27.05,"pop":126386},{"id":88967,"name":"Al Jaghbūb","alt":["Al Jaghbub","El-Giagbub","El-Giagbúb","Giarabub","Jaghbub","Jaghbūb"],"lon":24.51676,"lat":29.74262,"pop":2768},{"id":2219954,"name":"Al Jawāhilīyah","alt":["Al Jawahiliyah","Al Jawahiliyyah","Al Jawāhilīyyah"],"lon":13.0375,"lat":32.20986,"pop":0},{"id":88962,"name":"Al Jawf","alt":["AKF","Al Gawf","Al Ğawf","Al-Jof","Ehl'-Dzhauf","El Giof","aljaupeu","aljwf","jaufu","jiao fu","Эль-Джауф","الجوف","ジャウフ","焦夫","알자우프"],"lon":23.29093,"lat":24.1989,"pop":17320},{"id":2219953,"name":"Al Jawsh","alt":["Al Giosh","Giosc","Jawsh","aljwsh","الجوش"],"lon":11.66667,"lat":32,"pop":0},{"id":2219952,"name":"Al Jawsh al Kabīr","alt":["Al Jawsh al Kabir","El-Chebir"],"lon":11.66085,"lat":31.99443,"pop":0},{"id":2219951,"name":"Al Jawsh aş Şaghīr","alt":["Al Jawsh as Saghir","Es-Seghir","Es-Seghìr"],"lon":11.67894,"lat":31.99456,"pop":0},{"id":9407607,"name":"Al Jazeera","lon":15.03709,"lat":32.4054,"pop":0},{"id":8615247,"name":"Al Jazīrah","alt":["Al Jazirah","Jalyanah","Jalyānah","Juliyana","Juliyānā","aljzyrt","jlyana","الجزيرة","جليانا"],"lon":20.05754,"lat":32.08937,"pop":0},{"id":2219941,"name":"Al Juḩaysh","alt":["Al Juhaysh","El-Gehesc","El-Gehésc","Gehesc","Gehésc"],"lon":12.65417,"lat":32.1375,"pop":0},{"id":2219936,"name":"Al Jumayl","alt":["Al Jamil","Al Jamīl","El-Gemil","El-Gemìl","aljmyl","الجميل"],"lon":12.0612,"lat":32.85286,"pop":102000},{"id":2219928,"name":"Al Karārīm","alt":["Al Kararim","Gioda","alkrarym","الكراريم"],"lon":15.0571,"lat":32.39221,"pop":0},{"id":2219925,"name":"Al Karmah","alt":["Borium","Carmet Decheilalla","Càrmet Decheilàlla","Karmat Dukhayl Allah","Karmat Dukhayl Allāh","Qaryat al Karmah"],"lon":19.99598,"lat":31.98024,"pop":0},{"id":2219922,"name":"Al Kashālifah","alt":["Al Kashalifab","Al Kashalifah","Al Kashālifab"],"lon":13.02583,"lat":32.11972,"pop":0},{"id":2219918,"name":"Al Khaḑrā’","alt":["Al Khadra'","Breviglieri","الخضراء"],"lon":13.76735,"lat":32.44403,"pop":0},{"id":2219917,"name":"Al Khalā’ifah","alt":["Al Khala'ifah","El-Chlaifa","El-Chláifa","Qaryat al Halayifah","Qaryat al Halāyifah"],"lon":12.47915,"lat":32.01098,"pop":0},{"id":2219915,"name":"Al Kharā’iq","alt":["Al Khara'iq","El Charaigh","El Charáigh","El-Caraigh","El-Caràigh"],"lon":13.18333,"lat":26.55,"pop":0},{"id":2219911,"name":"Al Khazūr","alt":["Al Khazur","El Gsir","El-Chzur"],"lon":12.62661,"lat":32.09243,"pop":0},{"id":2219910,"name":"Al Khirbah","alt":["El-Cherba","El-Chérba","alkhrbt","الخربة"],"lon":11.15002,"lat":31.84157,"pop":0},{"id":2219905,"name":"Al Khums","alt":["Al Hums","Al Ĥums","Al'-Khums","Al-Chums","Al-Khums","El Choms","Homs","Humsas","Khoms","Khums","Kums","Labdah","Lebda","alkhms","alkhms  lyby","alkhums","el-khumsi","fumusu","hu mu si","humseu","khms  lybya","Аль-Хумс","Хомс","Хумс","אל-חומס","الخمس","الخمس، لیبی","الخُمس","خمس، لیبیا","ელ-ხუმსი","フムス","胡姆斯","훔스"],"lon":14.26191,"lat":32.64861,"pop":201943},{"id":8615229,"name":"Al Kish Number 1","alt":["Sha`biyat al Kish Raqm Wahid","Sha‘bīyat al Kīsh Raqm Wāḩid","shʿbyt alkysh rqm 1","شعبية الكيش رقم 1"],"lon":20.0692,"lat":32.0832,"pop":0},{"id":8615230,"name":"Al Kish Number 2","alt":["Sha`biyat al Kish Raqam Ithnayn","Sha‘bīyat al Kīsh Raqam Ithnayn","shʿbyt alkysh rqm 2","شعبية الكيش رقم 2"],"lon":20.07762,"lat":32.08721,"pop":0},{"id":2219896,"name":"Al Kulaybah","alt":["El-Culeba"],"lon":13.00389,"lat":32.0475,"pop":0},{"id":88926,"name":"Al Kuwayfīyah","alt":["Al Kuwayfiyah","Al-Kuwaifia","Coefia","Coèfia","El-Coefia","El-Coèfia","alkwyfyt","الكويفية"],"lon":20.16907,"lat":32.20164,"pop":0},{"id":2219891,"name":"Al La‘āqīb","lon":12.67639,"lat":32.06778,"pop":0},{"id":88925,"name":"Al Labbah","alt":["El-Lebba"],"lon":21.56667,"lat":29.03333,"pop":0},{"id":2219890,"name":"Al Lamāmīsh","alt":["Al Lamamish","El-Lamamisc","El-Lamamìsc"],"lon":13.07863,"lat":32.17855,"pop":0},{"id":88923,"name":"Al Lathāmah","alt":["Al Lathamah","allthamt","اللثامة"],"lon":20.09109,"lat":32.14593,"pop":0},{"id":8615330,"name":"Al Laythī","alt":["Al Laythi","Al Layti","Al Laytī","allythy","الليثي"],"lon":20.12919,"lat":32.09709,"pop":0},{"id":2219847,"name":"Al Ma‘mūrah","alt":["Al Ma`murah","Maamura"],"lon":12.85694,"lat":32.71917,"pop":0},{"id":2219848,"name":"Al Ma‘mūrah","alt":["Al Ma`murah","El-Maamura","El-Maamùra"],"lon":12.57306,"lat":32.02833,"pop":0},{"id":2219849,"name":"Al Ma‘mūrah","lon":12.55925,"lat":32.02966,"pop":0},{"id":88920,"name":"Al Mabnī","alt":["Al Mabni","El-Mebni","El-Mébni","almbny","المبني"],"lon":20.45002,"lat":32.42792,"pop":0},{"id":8615564,"name":"Al Madīnah al Qadīmah","alt":["Al Madinah al Qadimah","almdynt alqdymt","المدينة القديمة"],"lon":20.06692,"lat":32.12105,"pop":0},{"id":10367000,"name":"Al Madīnah al Qadīmah","alt":["Al Madinah al Qadimah","almdynt alqdymt","المدينة القديمة"],"lon":13.17518,"lat":32.89695,"pop":0},{"id":8615249,"name":"Al Madinah ar Riyaddiyyah","alt":["Al Madinah ar Riyadiyah","Al Madīnah ar Riyäddiyyah","Al Madīnah ar Riyāḑīyah","Benghazi Sports City","almdynt alryadyt","المدينة الرياضية"],"lon":20.06906,"lat":32.10015,"pop":0},{"id":2219877,"name":"Al Maghāribah","alt":["Al Magharibah","El-Magarba","El-Magárba","El-Mugarba","El-Mugārba"],"lon":12.97306,"lat":32.08694,"pop":0},{"id":2219876,"name":"Al Maghāsil","alt":["Al Maghasil","almghasl","المغاسل"],"lon":14.18158,"lat":32.57773,"pop":0},{"id":2219870,"name":"Al Maḩjūb","alt":["Al Mahjub","Qaryat al Mahjub","Qaryat al Maḩjūb"],"lon":14.98333,"lat":32.43333,"pop":0},{"id":2219867,"name":"Al Maḩrūqah","alt":["Al Mahruqah","El Maharuga","almhrwqt","المحروقة"],"lon":14.01355,"lat":27.50506,"pop":0},{"id":2219864,"name":"Al Majābirah","alt":["Al Majabirah","El-Magiabra","El-Magiábra"],"lon":11.15917,"lat":31.86,"pop":0},{"id":2219857,"name":"Al Malāqī","alt":["Al Malaqi","El-Melachi","El-Melaghi","El-Meláchi","El-Melághi","Melaki"],"lon":15.5,"lat":23.33333,"pop":0},{"id":2219853,"name":"Al Mallāḩah al Baḩrīyah","lon":12.06667,"lat":30.68333,"pop":0},{"id":2219852,"name":"Al Mallāḩah al Gharbīyah","lon":11.93333,"lat":30.45,"pop":0},{"id":2219844,"name":"Al Manāşīr","lon":12.83167,"lat":32.16139,"pop":0},{"id":11814010,"name":"Al Manşūr","alt":["Al Mansur","almnswr","المنصور"],"lon":13.02811,"lat":27.48939,"pop":0},{"id":88908,"name":"Al Maqārīn","alt":["Al Maqarin","almqaryn","المقارين"],"lon":20.13673,"lat":32.15556,"pop":0},{"id":2219840,"name":"Al Maqāşibah al Baḩrīyah","alt":["Al Magasibah al Bahriyah","Al Magāsibah al Baḩrīyah","Al Maqasibah al Bahriyah"],"lon":15.10241,"lat":32.35757,"pop":0},{"id":2219839,"name":"Al Maqāşibah al Qiblīyah","alt":["Al Maqasibah al Qibliyah","almqasbt alqblyt","المقاصبة القبلية"],"lon":15.10358,"lat":32.34225,"pop":0},{"id":88906,"name":"Al Maqrūn","alt":["Al Magrun","Al Maqrun","El Magrun","Magrun","Sidi Abd el Magrun","Sidi Ahmad al Maqrun","Sidi Ahmed el-Magrun","Sidi Amed el Magrun","Sidi Améd el Magrún","Sidi Magrun","Sidi Magrùn","Sīdī Aḩmad al Maqrūn","almqrwn","المقرون"],"lon":20.15118,"lat":31.44111,"pop":0},{"id":88903,"name":"Al Marj","alt":["Al'-Mardzh","El Merj","Maerciaen","Märciän","almrj","Аль-Мардж","المرج","شعبية المرج"],"lon":20.82909,"lat":32.49257,"pop":85315},{"id":11845471,"name":"Al Marj al Jadīdah","alt":["Al Marj al Jadidah","almrj aljdydt","المرج الجديدة"],"lon":20.83826,"lat":32.4882,"pop":0},{"id":8615344,"name":"Al Masākin Bū ‘Aţanī","alt":["Al Masakin Bu `Atani","almsakn bw ʿtny","المساكن بو عطني"],"lon":20.14902,"lat":32.11488,"pop":0},{"id":2219823,"name":"Al Mashāshiţah","alt":["Al Mashashitah","El-Masciasta","El-Masciásta","Qabilat al Mashashitah","Qabilat al Mishashtah","Qabīlat al Mashāshiţah","Qabīlat al Mishāshţah"],"lon":12.99914,"lat":32.79842,"pop":0},{"id":2219821,"name":"Al Mashwashīn","alt":["Al Mashwashin","Al Mashwushin","Al Mashwushīn"],"lon":12.53039,"lat":32.06205,"pop":0},{"id":88898,"name":"Al Masīl","lon":20.96667,"lat":32.26667,"pop":0},{"id":2219819,"name":"Al Masūfīyīn","alt":["Al Masufiyin","Al Masufiyun","Al Masūfīyūn","Al-Msufiyin","Al-Msūfīyīn","El-Msufiin","El-Msufiín","El-Msufun","El-Msufùn","Masufin","Masūfīn"],"lon":12.99132,"lat":32.05614,"pop":0},{"id":88893,"name":"Al Mawāḩī","alt":["Al Mawahi"],"lon":22.48333,"lat":29.48333,"pop":0},{"id":2219812,"name":"Al Māyah","alt":["Al Mayah","Lamayah","Lamāyah","Lmaia","Lmáia","Oasi di Lmaia","Oasi di Lmàia","almayt","الماية"],"lon":12.87917,"lat":32.80194,"pop":0},{"id":88888,"name":"Al Milayţānīyah","lon":20.63333,"lat":32.36667,"pop":0},{"id":88918,"name":"Al Muḩayshī","alt":["Al Mahdawi","Al Mahdawī","Al Mhayshi","Al Muhayshi","Al Wuhayshi","Al Wuḩayshī","El-Medui","El-Mehdui","El-Mèdui","almhyshy","alwhyshy","المحيشي","الوحيشي"],"lon":20.11781,"lat":32.13767,"pop":0},{"id":88873,"name":"Al Mukhaylī","lon":22.2,"lat":32.15,"pop":0},{"id":2219773,"name":"Al Muţrad","alt":["Al Mutrad","Al Muttrad","Al Muţţrad","almtrd","المطرد"],"lon":12.61583,"lat":32.76167,"pop":0},{"id":88852,"name":"Al Qa‘rah","alt":["Al Qa`rah","القعرة"],"lon":24.20218,"lat":31.95389,"pop":0},{"id":2219769,"name":"Al Qābil","lon":13.02694,"lat":32.19472,"pop":0},{"id":88857,"name":"Al Qadhādhimah","lon":20.13333,"lat":31.63333,"pop":0},{"id":2219765,"name":"Al Qaḩāşāt","alt":["Al Qahasat","El-Gahasat","El-Gahasát","Gahasat","Gahasát"],"lon":13.01667,"lat":32.11667,"pop":0},{"id":2219760,"name":"Al Qal‘ah","lon":12.56027,"lat":32.04924,"pop":0},{"id":2219755,"name":"Al Qanāfidh","alt":["Al Qanafidh","El-Ghnafid","El-Ghnafíd"],"lon":11.83043,"lat":31.84092,"pop":0},{"id":2219750,"name":"Al Qarāyā","alt":["Al Qaraya","El-Gheraia","El-Gheràia"],"lon":13.36667,"lat":26.53333,"pop":0},{"id":2219748,"name":"Al Qaryāt al Gharbīyah","alt":["Al Qaryah al Gharbiyah","Al Qaryah al Gharbīyah","Al Qaryat al Gharbiyah","Al Qaryat al Gharbīyah","El-Gheria el-Garbia","El-Ghéria el-Garbía","Gheria el Garbia","alqryat alghrbyt","القريات الغربية"],"lon":13.41853,"lat":30.41241,"pop":0},{"id":2219747,"name":"Al Qaryāt ash Sharqīyah","alt":["Al Qaryah ash Sharqiyah","Al Qaryah ash Sharqīyah","Al Qaryat ash Sharqiyah","Al Qaryat ash Sharqīyah","El Gheria esc-Scerghia","El Gheriat esc Scerghia","El Ghéria esc-Scerghía","Gheria esc-Scerghia","Gheriat","Ghéria esc-Scerghia","alqryat alshrqyt","alqryt alshrqyt","القريات الشرقية","القرية الشرقية"],"lon":13.58027,"lat":30.38803,"pop":0},{"id":88849,"name":"Al Qarz̧abah","alt":["Al Qardabah","Al Qarzabah","Al Qarḑabah","alqrzbt","القرظبة"],"lon":23.48047,"lat":32.1375,"pop":0},{"id":2219746,"name":"Al Qaşabāt","alt":["Al Kussabat","Al Qasabat","Al Qusbat","Al Quşbāt","Cussabat","Cussabàt","El-Gusbat","El-Gusbát","alqsbat","القصبات"],"lon":14.03933,"lat":32.58597,"pop":0},{"id":2219739,"name":"Al Qaţrūn","alt":["Al Gatrun","Al Katrun","Al Qatrun","El Gatrun","alqtrwn","القطرون"],"lon":14.64861,"lat":24.95139,"pop":4500},{"id":2219736,"name":"Al Qawāsim","alt":["Al Qawasim","El-Guasem","El-Guásem","Guasem","Guassem","Guásem","Qaryat al Qawasim","Qaryat al Qawāsim"],"lon":13.06045,"lat":32.18418,"pop":0},{"id":2219735,"name":"Al Qawātī","alt":["Al Qawati","El-Aauati","El-Aauàti"],"lon":12.67222,"lat":32.09889,"pop":0},{"id":88838,"name":"Al Qayqab","alt":["El-Ghegab","El-Ghégab","Ghoigah","Mintaqat al Qayqab","Minţaqat al Qayqab","alqyqb","القيقب"],"lon":22.02061,"lat":32.72581,"pop":0},{"id":88835,"name":"Al Qubbah","alt":["Al Gubbah","Berta","El-Gubba","El-Gúbba","Giovanni Berta","Gubba","alqbt","القبة"],"lon":22.24106,"lat":32.75684,"pop":24631},{"id":2219719,"name":"Al Qurādīyīn","alt":["Al Qaradin","Al Qarādīn","Al Quradiyin","El-Goradiin","El-Goradiìn","El-Goradun"],"lon":12.545,"lat":32.06389,"pop":0},{"id":2219716,"name":"Al Qurḑah","alt":["Al Qurdah","El Gordah","El Górdah","El-Gorda","Gorda","Gurda","alqrdt","القرضة"],"lon":13.97288,"lat":27.4928,"pop":0},{"id":2219706,"name":"Al Quşayr","lon":12.54765,"lat":32.07153,"pop":0},{"id":2219707,"name":"Al Quşayr","alt":["Al Qusayr","El Gsir","Ghesir"],"lon":12.02126,"lat":31.96216,"pop":0},{"id":2219676,"name":"Al Wāţīyah","alt":["Al Uotia","Al Wati'ah","Al Watiyah","Al Watyah","Al Waţyah","Al Waţī’ah","alwatyt","الواطية"],"lon":11.7679,"lat":32.47636,"pop":0},{"id":2219675,"name":"Al Wīgh","alt":["Al Wigh","Al Wyg"],"lon":14.54859,"lat":24.19074,"pop":0},{"id":8615290,"name":"Al Wuḩayshī","alt":["Al Wuhayshi","alwhyshy","الوحيشي"],"lon":20.06471,"lat":32.11925,"pop":0},{"id":2219669,"name":"Al Ya‘āqīb","alt":["Al A`aqib","Al A‘āqīb","Al Ya`aqib","El Aaghib","El-Aghib","El-Aghíb","El-Iaaghub","El-Iagghib","El-Iagghìb"],"lon":12.94528,"lat":32.12861,"pop":0},{"id":11961846,"name":"Al Zramga","alt":["alzramqt","الزرامقة"],"lon":12.40871,"lat":32.75783,"pop":0},{"id":8615255,"name":"Al-Fatih Neighborhood","alt":["Hayy al Fatih","hy alfath","حي الفاتح","Ḩayy al Fātiḩ"],"lon":20.10869,"lat":32.10382,"pop":0},{"id":11258324,"name":"Alhadba Alkhadra","lon":13.19123,"lat":32.84372,"pop":0},{"id":2214708,"name":"Amḩayyah","alt":["Ambayyah","Amhayyah","Muhayyah","Muḩayyah","amhyt","أمحية"],"lon":13.55386,"lat":32.40335,"pop":0},{"id":2219612,"name":"Amzīr","lon":12.69417,"lat":32.06944,"pop":0},{"id":2219596,"name":"An Nakhlayn","lon":13.04499,"lat":32.20292,"pop":0},{"id":2219592,"name":"An Nāqūr","alt":["An Naqur","Nagur","Nagùr"],"lon":12.65722,"lat":32.04611,"pop":0},{"id":2219591,"name":"An Nāşirīyah","alt":["An Nasariya","An Nasiriyah","Giordani","Jurdani","Jurdānī"],"lon":12.87361,"lat":32.63278,"pop":0},{"id":2219589,"name":"An Nawfalīyah","alt":["An Nawfaliyah","An Nufaliyah","An Nūfalīyah","El Noflia","En-Nofilia","En-Nofilía","Nofilia","Nofilía","Nufilia","Zauia-en-Nofilia","Zauiet en-Nofilia","alnwflyt","النوفلية"],"lon":17.83544,"lat":30.77784,"pop":0},{"id":88766,"name":"An Nawwāqīyah","alt":["An Nawwaqiyah","En Nauaghia","En Nauuaghia","alnwaqyt","النواقية"],"lon":20.16865,"lat":31.92741,"pop":0},{"id":2219586,"name":"An Nuşf","alt":["An Nusf","En-Nuss","alnsf","النصف"],"lon":14.25998,"lat":27.53723,"pop":0},{"id":382004,"name":"Antalāt","lon":20.60111,"lat":31.13556,"pop":0},{"id":2219572,"name":"Anzū","alt":["Anzu","Enzu"],"lon":12.66444,"lat":32.05306,"pop":0},{"id":2219563,"name":"Āqār","alt":["Agar","Aqar","aqar","آقار"],"lon":14.16251,"lat":27.53914,"pop":0},{"id":2219560,"name":"Āqār al ‘Atabah","alt":["Aqar `Atabah","Aqar al `Atabah","Āqār ‘Atabah","آقار العتبة"],"lon":13.5566,"lat":26.09589,"pop":0},{"id":2219491,"name":"Ar Rābiţah","alt":["Ar Rabitah","Rapta"],"lon":12.56667,"lat":32.23333,"pop":0},{"id":88666,"name":"Ar Rajmah","alt":["Er Regema","Er Rejima","Er-Regima","Er-Régima","Regima","alrjmt","الرجمة"],"lon":20.34167,"lat":32.07155,"pop":0},{"id":2219485,"name":"Ar Rajūbāt","alt":["Ar Rajabat","Ar Rajabāt","Ar Rajubat"],"lon":15.1,"lat":32.35,"pop":0},{"id":2219478,"name":"Ar Raqabah","lon":13.63333,"lat":26.63333,"pop":0},{"id":2219487,"name":"Ar Raqabah","alt":["Ar Raheba","Ar Rahèba","Er Raheba","Er Rahèba","alrqbt","الرقبة"],"lon":13.55843,"lat":26.59802,"pop":0},{"id":2219471,"name":"Ar Rayāyinah","alt":["Ar Rayayinah","Er-Riaina","Qabilat Awlad Bu Husayn","Qabīlat Awlād Bū Ḩusayn","Riaina"],"lon":12.35643,"lat":32.02684,"pop":0},{"id":2219465,"name":"Ar Ruḩaybāt","alt":["Ar Rahibat","Ar Raḩībāt","Ar Ruhabat","Ar Ruhaybat","Ar Ruhaybiyat","Ar Ruḩabāt","Ar Ruḩaybīyāt","Er Rehibat","Er-Reihibat","alrhybat","الرحيبات"],"lon":11.87,"lat":31.75722,"pop":0},{"id":2219463,"name":"Ar Rujbān","lon":12.16667,"lat":31.95,"pop":0},{"id":2219457,"name":"Ar Rūmīyah","alt":["Ar Rumiyah","Er-Rumia","Er-Rumía","Rumia"],"lon":12.51667,"lat":32.01667,"pop":0},{"id":8615281,"name":"Ar Ruwaysāt","alt":["Ar Ruwaysat","alrwysat","الرويسات"],"lon":20.0858,"lat":32.10183,"pop":0},{"id":8615493,"name":"Arḑ ash Sharīf","alt":["Ard ash Sharif","ard alshryf","أرض الشريف"],"lon":20.11965,"lat":32.1234,"pop":0},{"id":8615492,"name":"Arḑ Shabnah","alt":["Ard Shabnah","ard shbnt","أرض شبنة"],"lon":20.12612,"lat":32.13697,"pop":0},{"id":8615563,"name":"Ard Zwawa al Bahria","alt":["Ard az Zawawah","Arḑ az Zawāwah","ard alzwawt","أرض الزواوة"],"lon":20.09615,"lat":32.13319,"pop":0},{"id":88609,"name":"Aş Şābirī al Gharbī","alt":["As Sabiri","As Sabiri al Gharbi","As Sabri","As Sābrī","Assabri","Aş Şābirī","Es-Sabri","Es-Sábri","Sabri","Sàbri","alsabry alghrby","الصابري الغربي"],"lon":20.07848,"lat":32.13581,"pop":0},{"id":83291,"name":"Aş Şābirī ash Sharqī","alt":["As Sabiri ash Sharqi","Mintaqat as Sabiri","Minţaqat aş Şābirī","alsabry alshrqy","الصابري الشرقي"],"lon":20.08993,"lat":32.13082,"pop":0},{"id":2219380,"name":"Aş Şābirīyah","alt":["As Sabiriyah","alsabryt","الصابرية"],"lon":12.64111,"lat":32.72833,"pop":0},{"id":88603,"name":"Aş Şafşāf","alt":["As Safsaf","Aş Şafşaf","alsfsaf","الصفصاف"],"lon":21.94976,"lat":32.77967,"pop":0},{"id":2219367,"name":"As Salāmāt","alt":["As Salamat","Es Stamat","Es-Slamat","Es-Slamát","Slamat","Slamát"],"lon":11.78028,"lat":31.87689,"pop":0},{"id":2219368,"name":"Aş Şāliḩāt","alt":["As Salahat","As Salihat","Aş Şalāḩāt","Es-Slahat","Es-Slahát","Esc-Slahat","Esc-Slahàt","alsalhat","الصالحات"],"lon":13.1,"lat":32.12722,"pop":0},{"id":83150,"name":"As Salmānī al Gharbī","alt":["As Salmani al Gharbi","As Sulmani","As Sulmānī","Mintaqat as Salmani","Minţaqat as Salmānī","alslmany alghrby","السلماني الغربي"],"lon":20.09098,"lat":32.11337,"pop":0},{"id":8615494,"name":"As Salmānī ash Sharqī","alt":["As Salmani ash Sharqi","Mintaqat as Salmani","Minţaqat as Salmānī","alslmany alshrqy","السلماني الشرقي"],"lon":20.1023,"lat":32.1235,"pop":0},{"id":88599,"name":"Aş Şaq‘ābī","lon":20.13757,"lat":32.17026,"pop":0},{"id":2219364,"name":"As Saqā’if","lon":13.02889,"lat":32.15083,"pop":0},{"id":2219358,"name":"As Sawā‘idīyah","alt":["Al Wa`diyah","Al Wa‘dīyah","As Sawa`idiyah","Es-Suaadia","Es-Suaadìa","Es-Suadia","Es-Suadía"],"lon":13.08278,"lat":32.22028,"pop":0},{"id":2219359,"name":"As Sawādinah","alt":["As Sawadinah","Es-Suadna","Es-Suádna"],"lon":12.66667,"lat":32.03333,"pop":0},{"id":2219356,"name":"As Sawānī","lon":13.06667,"lat":32.71667,"pop":0},{"id":2219376,"name":"As Sidādah","alt":["As Saddadah","As Saddādah","As Sidadah","Sedada","alsdadt","السدادة"],"lon":14.75498,"lat":31.5175,"pop":0},{"id":2219340,"name":"As Sidrah","lon":18.36667,"lat":30.65,"pop":0},{"id":2219333,"name":"As Subayţāt","alt":["As Shetat","As Shetát","As Subaytat","Es-Sbetat","Es-Sbetàt","alsbytat","السبيطات"],"lon":13.693,"lat":26.09763,"pop":0},{"id":2219329,"name":"As Sulţān","alt":["As Sultan","Es Sultan","Sultan"],"lon":17.15018,"lat":31.11445,"pop":0},{"id":2219438,"name":"Asbī‘ah","lon":13.16667,"lat":32.51667,"pop":0},{"id":2219424,"name":"Ash Sha‘binīyah","alt":["As Sha`biniyah","As Sha‘bīnīyah","Ash Sha`biniyah"],"lon":12.23742,"lat":31.95131,"pop":0},{"id":2219426,"name":"Ash Shabārī","alt":["Ash Shabari","Ash Shabbri","Ouchebari","Uscbari"],"lon":12.01909,"lat":31.96291,"pop":0},{"id":8615284,"name":"Ash Shābī","alt":["Ash Shabi","alshaby","الشابي"],"lon":20.05307,"lat":32.11971,"pop":0},{"id":2219418,"name":"Ash Shaqārinah","alt":["Ash Saqarinah","Ash Saqārinah","Ash Shaqarinah","Esc Sciagarna","Scegarna","Scegárna"],"lon":12.52278,"lat":32.07278,"pop":0},{"id":2219417,"name":"Ash Shaqqī","alt":["Ash Shaqqi","Scefi","Scefí"],"lon":12.08309,"lat":31.99652,"pop":0},{"id":8615288,"name":"Ash Sharīf","alt":["Ash Sharif","alshryf","الشريف"],"lon":20.0672,"lat":32.12273,"pop":0},{"id":2219414,"name":"Ash Sharshārah","lon":13.61667,"lat":32.46667,"pop":0},{"id":88635,"name":"Ash Shawāshinah","alt":["Ash Shawashinah","El Shawashna","Esc-Sciuascena","Esc-Sciuáscena"],"lon":21.29417,"lat":29.17167,"pop":0},{"id":2219411,"name":"Ash Shawāţī","alt":["Ash Shawati","Ash Shuwati","Ash Shuwaţī","Suad"],"lon":15.16549,"lat":32.3755,"pop":0},{"id":2219408,"name":"Ash Shaykh Bū ‘Ujaylah","alt":["Ash Shaykh Bu `Ujaylah","Esc-Scech Bu Agela","Esc-Scech Bu Agéla","Sidi Bu Agela","Sidi Bu Agēla"],"lon":12.395,"lat":32.73389,"pop":0},{"id":2219406,"name":"Ash Shi‘āfīyīn","alt":["Ash Sha`afiyin","Ash Sha‘āfīyīn","Ash Shi`afiyin"],"lon":13.86997,"lat":32.59222,"pop":0},{"id":2219403,"name":"Ash Shi‘tāf","alt":["Ash Shi`taf","Esc-Sciaatan"],"lon":13.02,"lat":32.07806,"pop":0},{"id":2219402,"name":"Ash Shiyāb","alt":["As Shiyab","As Shīyāb","Ash Shiyab","Esc-Sceiab","Esc-Sceiāb","Esc-Sciiab"],"lon":11.79186,"lat":31.88323,"pop":0},{"id":11739598,"name":"Ash Shuqayqah","alt":["alshqyqt","الشقيقة"],"lon":12.80686,"lat":31.63974,"pop":0},{"id":88626,"name":"Ash Shurraf","alt":["Esc Scerruf"],"lon":21.51667,"lat":29.05,"pop":0},{"id":2219398,"name":"Ash Shurūf","alt":["Ash Shurraf","Ash Shuruf","Esc-Sciurruf","Esc-Sciúrruf"],"lon":13.95,"lat":32.58333,"pop":0},{"id":2219396,"name":"Ash Shuwayrif","alt":["Ash Shurayf","Ash-Shuwairif","Bi'r ash Shuwayrif","Bir esc-Sciueref","Bi’r ash Shuwayrif","Esc Sciuere","Esc Sciueref","Esc Sciuère","Sciuref","alshwyrf","الشويرف"],"lon":14.26667,"lat":29.98333,"pop":0},{"id":2219431,"name":"Ashkidah","alt":["Ashkada","Ashkida","Ashkudah","Esc'chida","ashkdt","Ésc’chida","أشكدة"],"lon":14.44858,"lat":27.56061,"pop":0},{"id":2219313,"name":"Asyādī al ‘Amārīyīn","lon":13.83183,"lat":32.65648,"pop":0},{"id":88563,"name":"At Tabān","alt":["At Taban"],"lon":21.51218,"lat":32.20575,"pop":0},{"id":88562,"name":"At Tāj","alt":["At Taj","Et Tag"],"lon":23.2857,"lat":24.20487,"pop":46050},{"id":2219271,"name":"Aţ Ţalā’i‘īyah","alt":["At Tala'i`iyah","At Talayi`iyah","At Ţalāyi‘īyah"],"lon":12.88194,"lat":32.03806,"pop":0},{"id":88559,"name":"Aţ Ţallāb","alt":["At Tallab","altlab","الطلاب"],"lon":23.16667,"lat":24.01667,"pop":0},{"id":88558,"name":"At Tamīmī","alt":["At Tahimi","At Tamimi","At Taḩīmī","Sidi el-Tmimi","Tmimi","Tmìmi","altmymy","التميمي"],"lon":23.05758,"lat":32.33637,"pop":0},{"id":2219267,"name":"At Taribjah","alt":["Qaryat at Taribjah","Qaryat aţ Ţaribjah"],"lon":19.94959,"lat":31.87383,"pop":0},{"id":2219258,"name":"Aţ Ţuwaybīyah","alt":["At Tuwaybiyah","Et-Tuebia","Et-Tuébia"],"lon":12.83939,"lat":32.76867,"pop":0},{"id":88533,"name":"Awjilah","alt":["Augila","Wajilah","awjlt","أوجلة"],"lon":21.28694,"lat":29.10806,"pop":6610},{"id":2219220,"name":"Awlād ‘Abd ad Dā’im","lon":12.25229,"lat":31.95441,"pop":0},{"id":2219219,"name":"Awlād ‘Abd al ‘Azīz ‘Inān","lon":12.31508,"lat":32.0032,"pop":0},{"id":2219217,"name":"Awlād ‘Abd al Jalīl","alt":["Awlad `Abd al Jalil","Ulad Abd el-Gelil","Ulad Abd el-Gelíl"],"lon":12.13333,"lat":31.95,"pop":0},{"id":2219214,"name":"Awlād ‘Abd al Mawlá","alt":["Awlad `Abd al Mawla","Ulad Abd el-Mola","Ulad Abd el-Móla"],"lon":12.6319,"lat":32.08299,"pop":0},{"id":2219215,"name":"Awlād ‘Abd Allāh","lon":12.57685,"lat":32.05022,"pop":0},{"id":2219197,"name":"Awlād ‘Alī","lon":13.00417,"lat":32.15917,"pop":0},{"id":2219198,"name":"Awlād ‘Alī","alt":["Awlad `Ali","Baldat Awlad `Ali","Baldat Awlād ‘Alī","Ulad Ali","Ulad Alí"],"lon":12.37154,"lat":32.01579,"pop":0},{"id":2219191,"name":"Awlād ‘Alī Bū al Qāsim","lon":12.57234,"lat":32.04628,"pop":0},{"id":2219179,"name":"Awlād ‘Aţīyah","alt":["Awlad `Atiyah","Ulad Atia","Ulad Atía"],"lon":12.16667,"lat":31.93333,"pop":0},{"id":2219174,"name":"Awlād ‘Azzām","lon":13.00831,"lat":32.14461,"pop":0},{"id":2219140,"name":"Awlād ‘Inān","alt":["Awlad `Inan","Ulad Anan","Ulàd Anan"],"lon":12.13971,"lat":31.97823,"pop":0},{"id":2219137,"name":"Awlād ‘Īsá","alt":["Awlad `Isa","Ulad Isa","Ulád Ísa"],"lon":12.68944,"lat":32.07583,"pop":0},{"id":2219138,"name":"Awlād ‘Īsá","alt":["Awlad `Isa","Ulad Isa","Ulàd Isa"],"lon":12.23807,"lat":31.93766,"pop":0},{"id":2219209,"name":"Awlād Abū Salāmah","alt":["Awlad Abu Salamah","Awlad Abu Slamah","Awlād Abū Slāmah"],"lon":13.03333,"lat":32.25,"pop":0},{"id":2219208,"name":"Awlād Abū Suhayyirah","lon":12.75,"lat":32.76667,"pop":0},{"id":2219173,"name":"Awlād Badr","lon":11.96722,"lat":32.01887,"pop":0},{"id":2219169,"name":"Awlād Bin Aḩmad","lon":13.11667,"lat":32.83333,"pop":0},{"id":2219168,"name":"Awlād Bin Ya‘qūb","alt":["Awlad Bin Ya`qub","Ben Iaagub"],"lon":12.99365,"lat":32.15102,"pop":0},{"id":2219166,"name":"Awlād Bū Jadīd","lon":11.88881,"lat":31.8718,"pop":0},{"id":2219162,"name":"Awlād Bū Ra’s","alt":["Awlad Abu Ras","Awlad Bu Ra's","Awlād Abu Rās","Ulad Bu Ras","Ulàd Bu Ras"],"lon":13.07155,"lat":32.1836,"pop":0},{"id":2219155,"name":"Awlād Ḩamad","lon":12.52278,"lat":32.03528,"pop":0},{"id":2219152,"name":"Awlād Ḩāmid","lon":12.23153,"lat":31.95375,"pop":0},{"id":2219130,"name":"Awlād Jābir","alt":["Awlad Jabir","Ulad Giaber","Ulad Giáber"],"lon":12.15422,"lat":31.94911,"pop":0},{"id":2219125,"name":"Awlād Jarbū‘","lon":13.08316,"lat":32.18013,"pop":0},{"id":2219122,"name":"Awlād Khalaf Allāh","alt":["Awlad Khalaf Allah","Ulad Chalfalla","Ulàd Chalfàlla"],"lon":12.51773,"lat":32.03841,"pop":0},{"id":2219120,"name":"Awlād Khalīfah","lon":12.52389,"lat":32.04194,"pop":0},{"id":2219121,"name":"Awlād Khalīfah","alt":["Awlad Khalifah","Ulad Chalifa","Ulad Chalífa","Ulad Chlifa","Ulád Chlifa"],"lon":12.25418,"lat":31.95326,"pop":0},{"id":2219114,"name":"Awlād Maḩmūd","alt":["Awlad Mahmud","El Haouamed","Ulad Mahmud","Ulád Mahmúd","awlad mhmwd","أولاد محمود"],"lon":11.04706,"lat":31.82785,"pop":0},{"id":2219109,"name":"Awlād Manşūr","lon":13.04833,"lat":32.20639,"pop":0},{"id":2219110,"name":"Awlād Manşūr","lon":12.47771,"lat":32.00938,"pop":0},{"id":2219108,"name":"Awlād Mas‘ūd","alt":["Awlad Mas`ud","Ulad Masaud","Ulàd Masaùd"],"lon":12.12198,"lat":31.9724,"pop":0},{"id":2219103,"name":"Awlād Muḑīf","alt":["Ar Rabitah ash Sharqiyah","Ar Rābiţah ash Sharqīyah","Awlad Madif","Awlad Mudif","Awlad Mudrif","Awlād Maḑīf","Awlād Muḑrīf","Er-Rabta esc-Scerghia","Er-Rábta esc-Scerghía"],"lon":12.86389,"lat":32.17417,"pop":0},{"id":2219098,"name":"Awlād Mūshād","lon":12.8975,"lat":32.08778,"pop":0},{"id":2219094,"name":"Awlād Qalāsī","alt":["Awlad Qalasi","Ulad Glali","Ulàd Glàli"],"lon":12.68917,"lat":32.07917,"pop":0},{"id":2219092,"name":"Awlād Rayyān","alt":["Awlad Rayyan","Ulad Rian","Ulad Riàn"],"lon":12.3,"lat":31.98333,"pop":0},{"id":2219090,"name":"Awlād Sa‘īd","alt":["Awlad Sa`id","Ulad Said"],"lon":12.66902,"lat":32.08309,"pop":0},{"id":2219091,"name":"Awlād Sa‘īd","lon":12.51468,"lat":32.05714,"pop":0},{"id":2219088,"name":"Awlād Sālim","alt":["Awlad Salim","Ulad Salem","Ulad Sàlem"],"lon":13.04833,"lat":32.20917,"pop":0},{"id":2219082,"name":"Awlād Sīdī Khalīfah","alt":["Awlad Si Khalifah","Awlad Sidi Khalifah","Awlād Sī Khalīfah"],"lon":12.23595,"lat":31.94886,"pop":0},{"id":2219065,"name":"Awlād Yaḩyá","lon":12.51771,"lat":32.01652,"pop":0},{"id":2219066,"name":"Awlād Yaḩyá","lon":12.52136,"lat":32.0226,"pop":0},{"id":2219064,"name":"Awlād Yūsuf","alt":["Awlad Yusuf","Ulad Iusef","Ulàd Iúsef"],"lon":12.68194,"lat":32.07056,"pop":0},{"id":2218983,"name":"Az Zahrā’","alt":["Az Zahra'","Bianchi"],"lon":12.87327,"lat":32.67889,"pop":0},{"id":2218978,"name":"Az Zamāmiqah","lon":13.03694,"lat":32.24806,"pop":0},{"id":2220070,"name":"Az Zaram","alt":["Al Ghazzabiyah","Al Ghazzābīyah","Algahazaya","alzrm","الزرم"],"lon":10.83529,"lat":32.002,"pop":0},{"id":2218975,"name":"Az Zarqān","alt":["Az Zarqan","Ez Zergan","alzrqan","الزرقان"],"lon":13.795,"lat":25.97583,"pop":0},{"id":12041965,"name":"Az Zatārinah","alt":["Az Zatarinah","Az Zatarnah","Az Zatārnah","alztarnt","الزطارنة"],"lon":13.47644,"lat":32.70431,"pop":0},{"id":88386,"name":"Az Zāwiyah","alt":["Az Zawiyah","Zauiet Gianzur","Zauiet di Gianzur","Zavia Gianzur","Zavia Jiantsur","Zt. D Gianzur","Zàvia Gianzur","alzawyt","الزاوية"],"lon":24.6572,"lat":31.9811,"pop":0},{"id":2218970,"name":"Az Zāwīyah","alt":["Az Zawiyah","Az Zawiyah al Gherbiyah","Az Zāwiyah al Gherbīyah","Ez Zauia","Zauia","Zavia","Zawia","alzawyt","الزاوية"],"lon":12.72764,"lat":32.7571,"pop":200000},{"id":2218968,"name":"Az Zaytūnah","alt":["Az Zaytunah","Ez Zituna","alzytwnt","الزيتونة"],"lon":14.53333,"lat":25.95,"pop":0},{"id":2218966,"name":"Az Zīghan","alt":["Az Zighan","Ez Zighen","Zighen","Zíghen","alzyghn","الزيغن"],"lon":14.90786,"lat":27.36853,"pop":0},{"id":2218957,"name":"Az Zurqān","alt":["Az Zurqan","Ez-Zorgan","Ez-Zorgàn","Qaryat az Zargan","Qaryat az Zargān","Zurgan","Zurgán","Zurqan","Zurqān"],"lon":12.50851,"lat":32.01588,"pop":0},{"id":88380,"name":"Az Zuwaytīnah","alt":["Az Zuwaytinah","Ez Zuetina","Ez Zuetína","Marsa Uasili","Qaryat az Zuwaytinah","Qaryat az Zuwaytīnah","Zueitina","Zuetina","Zweytinah","alzwytynt","الزويتينة"],"lon":20.12022,"lat":30.9522,"pop":21015},{"id":2218954,"name":"Az Zuwayyah","alt":["Az Zawiyyah","Az Zawīyyah","Ez-Zueia","Ez-Zuéia"],"lon":13.02222,"lat":32.10861,"pop":0},{"id":8615246,"name":"Azzytun Neighborhood","alt":["Hayy Sha`abiyat az Zaytun","hy alzytwn","hy shʿbyt alzytwn","حي الزيتون","حي شعبية الزيتون","Ḩayy Sha‘abīyat az Zaytūn"],"lon":20.08592,"lat":32.0863,"pop":0},{"id":2218949,"name":"Bāb ‘Akkārah","alt":["Bab `Akkarah","bab ʿkart","باب عكّارة"],"lon":13.18158,"lat":32.8766,"pop":0},{"id":10354749,"name":"Bāb al ‘Amrūş","alt":["Bab al `Amrus","bab alʿmrws","باب العمروس"],"lon":13.21993,"lat":32.89685,"pop":0},{"id":2214813,"name":"Bāb al ‘Azīzīyah","alt":["Bab `Aziziyah","Bab al 'Aziziyah","Bab al-Azizia","Bāb ‘Azīzīyah","Mu`askar al `Aziziyah","Mu‘askar al ‘Azīzīyah","bab alʿzyzyt","باب العزيزية"],"lon":13.16822,"lat":32.87814,"pop":0},{"id":10352485,"name":"Bāb al Farnaj","alt":["Bab al Farnaj","bab alfrnaj","باب الفرناج"],"lon":13.21879,"lat":32.87403,"pop":0},{"id":10354750,"name":"Bāb Ban Ghashīr","alt":["Bab Ban Ghashir","bab bn ghshyr","باب بن غشير"],"lon":13.19407,"lat":32.87772,"pop":0},{"id":2218942,"name":"Bāb Qarqārish","alt":["Bab Gargaresh","Bab Qaraqarish","Bab Qarqarish","Bāb Qaraqārish","Tarabulus Bab Qarqarish"],"lon":13.155,"lat":32.88194,"pop":0},{"id":10402872,"name":"Bāb Ta’ Jūra‘","alt":["Bab Najura","Bab Ta' Jura`","Bab Taguira","Bab Tajura'","Bāb Nājurā","Bāb Taguira","Bāb Tājūrā’","bab tajwraʾ","باب تاجوراء"],"lon":13.22537,"lat":32.89381,"pop":0},{"id":10354577,"name":"Bāb Tarhūnah","alt":["Bab Tarhunah","bab trhwnt","باب ترهونة"],"lon":13.22403,"lat":32.88465,"pop":0},{"id":2218875,"name":"Baldat ad Duwayb","alt":["Ulad Duib","Ulàd Duib"],"lon":12.23178,"lat":31.93235,"pop":0},{"id":2218872,"name":"Baldat al ‘Umyān","alt":["Baldat al `Umyan","El-Amian","El-Amìan"],"lon":12.2231,"lat":31.92095,"pop":0},{"id":2218871,"name":"Baldat al ‘Uqaybah","alt":["Al `Uqaybah","Al ‘Uqaybah","Baldat `Uqaybah","Baldat al `Uqaybah","Baldat ‘Uqaybah","El-Agheiba","El-Aghiba","El-Aghíba"],"lon":12.30433,"lat":31.99477,"pop":0},{"id":2218874,"name":"Baldat al Kurūmah","alt":["Al Kurumah","Al Kurūmah","Baldat al Kurumah","El-Croma","El-Cróma"],"lon":11.88729,"lat":31.86348,"pop":0},{"id":2218873,"name":"Baldat al Qawāsim","alt":["Baldat Qawasim","Baldat Qawāsim","Baldat al Qawasim","El Guasem","El Guàsem"],"lon":12.21667,"lat":31.85,"pop":0},{"id":2218870,"name":"Baldat Awlād Mīlād","lon":12.21679,"lat":31.92954,"pop":0},{"id":2218869,"name":"Baldat Diqqī","alt":["Baldat Diqqi","Daqqi","Daqqī","Degghi"],"lon":11.66972,"lat":31.94611,"pop":0},{"id":2218867,"name":"Baldat Jurayjin","alt":["Baldat Jarjin","Baldat Jarjīn","Gerigen","Gerígen","Jarijan","Jarījan"],"lon":11.60619,"lat":31.87991,"pop":0},{"id":2218866,"name":"Baldat Raqraq","alt":["Raqraq","Regreg","Regregh"],"lon":11.9568,"lat":31.92191,"pop":0},{"id":8615286,"name":"Bālkhayr","alt":["Balkhayr","balkhyr","بالخير"],"lon":20.06272,"lat":32.12306,"pop":0},{"id":11258323,"name":"Ballouzah District","lon":13.18492,"lat":32.84776,"pop":0},{"id":2218840,"name":"Bani Walid","alt":["Baeni Vaelid","Bani Ualid","Bani Valid","Bani Validas","Bani Valíd","Baní Walíd","Banī Walīd","Beni Ulid","Beni Valid","Beni-Valid","Beniulid","Bäni Välid","Gasr Beni Ulid","Gasr Béni Ulíd","QBL","Qasr Bani Walid","Qaşr Banī Walīd","bai ni wo li de","bani-validi","baniwallideu","baniwarido","bny wlyd","bny‌wlyd","qsr bny wlyd","Бани Валид","Бани Уалид","Бени-Валид","Бені-Валід","بني وليد","بنی ولید","بنی‌ولید","قصر بني وليد","ბანი-ვალიდი","バニワリード","拜尼沃利德","바니왈리드"],"lon":13.98354,"lat":31.74554,"pop":46350},{"id":2218837,"name":"Banī Wazīr","alt":["Bani Wazir","Beni Uzir"],"lon":12.98472,"lat":32.08583,"pop":0},{"id":2218836,"name":"Banī Yakhlaf","alt":["Bani Yakhif","Bani Yakhlaf","Bani Yakhlif","Banī Yakhif","Banī Yakhlif","Beni Iechlef","Bèni Iechlef"],"lon":13.01,"lat":32.23278,"pop":0},{"id":2591263,"name":"Banī Yakhlif","lon":13.03861,"lat":32.23278,"pop":0},{"id":2218811,"name":"Baqqālah","alt":["Baqalah","Baqqalah","Beggala","Beggála","Reggala","Reggāla"],"lon":11.5844,"lat":31.84623,"pop":0},{"id":2218791,"name":"Barāshīn","lon":13.02044,"lat":32.14062,"pop":0},{"id":2218763,"name":"Barqāwī","alt":["Barqawi","Bergaui","Bergáui","brqawy","برقاوي"],"lon":14.23328,"lat":27.57493,"pop":0},{"id":2218761,"name":"Barqin","alt":["Berghin","brqn","برقن"],"lon":13.62914,"lat":27.54801,"pop":0},{"id":8615320,"name":"Beloun","alt":["Bal`awn","Bal‘awn","blʿwn","بلعون"],"lon":20.09273,"lat":32.06939,"pop":0},{"id":88319,"name":"Benghazi","alt":["BEN","Baengasi","Banghazi","Banghāzī","Bengasi","Bengaze","Bengazi","Bengazis","Bengazy","Benghasi","Benghází","Bengázi","Bengāzī","Benqazi","Berenice","Bingazi","Binghazi","Binghāzī","Bängasi","Bèngasi","Hesperides","Vilojati Bengazi","ban jia xi","banagazi","ben ka si","benagajhi","beng-gaji","bengaji","benghazi","bnghazy","pankaci","Βεγγάζη","Бенгази","Бенгазі","Вилояти Бенғази","Բենղազի","בנגאזי","بنغازى","بنغازي","بنغازی","बेनगाझी","ਬਨਗ਼ਾਜ਼ੀ","பங்காசி","เบนกาซี","ბენღაზი","ベンガジ","班加西","벵가지"],"lon":20.06859,"lat":32.11486,"pop":807250},{"id":88314,"name":"Benina","alt":["BEN","Baninah","Banīnah"],"lon":20.25699,"lat":32.08556,"pop":0},{"id":2218464,"name":"Bi’r ‘Ayyād","lon":12.46454,"lat":32.13173,"pop":0},{"id":2218481,"name":"Bi’r Abū al Ghurāb","lon":13.6,"lat":30.63333,"pop":0},{"id":88102,"name":"Bi’r al Ashhab","alt":["Bi'r al Ashhab"],"lon":24.7,"lat":31.91667,"pop":0},{"id":2218475,"name":"Bi’r al Ghanam","alt":["Bi'r al Ghanam","Bir Ghnem","Bir el-Ghnem","byr alghnm","بئر الغنم"],"lon":12.56935,"lat":32.30912,"pop":0},{"id":88093,"name":"Bi’r Bin Ghunaymah","alt":["Bi'r Bin Ghunaymah"],"lon":21.88333,"lat":31.18333,"pop":0},{"id":2218459,"name":"Bi’r Dūfān","lon":14.60216,"lat":31.96841,"pop":0},{"id":8615289,"name":"Bin ‘Īsá","alt":["Bin `Isa","bn ʿysy","بن عيسى"],"lon":20.06612,"lat":32.11974,"pop":0},{"id":2218587,"name":"Bin Ghashīr","alt":["Bin Ghashir","Castel Benito","Fondugh Ben Gascir","Funduq Ben Ghashir","Funduq Ben Ghashīr","Funduq Bin Ghashir","Funduq Bin Ghashīr","Fóndugh Ben Gascír"],"lon":13.17389,"lat":32.68778,"pop":0},{"id":11828300,"name":"Bin Ḩārith","alt":["Bin Harith","bn harth","بن حارث"],"lon":13.94502,"lat":26.74765,"pop":0},{"id":2218562,"name":"Bin Jawwād","alt":["Bin Jawwad","Bin Quwad","Qaryat Wadi Bin Quwwad","Qaryat Wādī Bin Quwwād","bn jwad","بن جواد"],"lon":18.0772,"lat":30.80418,"pop":0},{"id":2218494,"name":"Bin Yaḩyá","lon":13.00667,"lat":32.12806,"pop":0},{"id":8615282,"name":"Bin Yunus","alt":["bn ywns","بن يونس"],"lon":20.09605,"lat":32.11258,"pop":0},{"id":2213610,"name":"Bint Bayyah","alt":["Bent Baya","Bint Baya","Gasr Beadebeia","Gasr Beadebéia","Gasr Bendbeia","Qasr Bin Dubay`ah","Qasr Bint Bayyah","Qaşr Bin Ḑubay‘ah","Qaşr Bint Bayyah","bnt byt","بنت بية"],"lon":13.65246,"lat":26.64549,"pop":0},{"id":2218431,"name":"Bishr","lon":19.21667,"lat":30.3,"pop":0},{"id":2218478,"name":"Brak","alt":["BCQ","Birak","Birāk","Brach","bi la ke","bilakeu","brak","براك","比拉克","비라크"],"lon":14.27139,"lat":27.54956,"pop":39444},{"id":2218413,"name":"Bū al Ashhar","alt":["Belascehar","Billashhir","Bu al Ashhar","abw alashhr","أبو الأشهر"],"lon":13.31667,"lat":32.88333,"pop":0},{"id":87897,"name":"Bū ath Thāmir","alt":["Bu at Tamir","Bu ath Thamir","Bū at Tāmir"],"lon":22.30387,"lat":32.78838,"pop":0},{"id":2218279,"name":"Bū Ghaylān","alt":["Bu Ghaylan","Bu Gheilan","Bulis Abu Ghaylah","Būlīs Abū Ghaylāh","Markaz Bu Ghaylan","bw ghylan","بو غيلان"],"lon":13.02909,"lat":32.27363,"pop":0},{"id":2218242,"name":"Bū Jabalayn","lon":12.01825,"lat":31.96917,"pop":0},{"id":87649,"name":"Bū Maryam","alt":["Bu Maryam","bw mrym","بو مريم"],"lon":20.50745,"lat":32.14437,"pop":0},{"id":2218077,"name":"Bū Sittah","alt":["Bu Sittah","Busetta"],"lon":13.21944,"lat":32.89972,"pop":0},{"id":8615323,"name":"Buhidima","alt":["Hayy Bu Hadimah","hy bw hdymt","حي بو هديمة","Ḩayy Bū Hadīmah"],"lon":20.12066,"lat":32.07612,"pop":0},{"id":2218176,"name":"Buqayqīlah","alt":["Bghighila","Buqayqilah"],"lon":11.58398,"lat":31.86168,"pop":0},{"id":2218137,"name":"Burayk","alt":["Brech","Brèch","bryk","بريك"],"lon":13.11418,"lat":26.5528,"pop":0},{"id":2218319,"name":"Buwayrāt al Ḩasūn","alt":["Al Bu'ayrat","Al Bu’ayrāt","Bu'ayrat al Hasun","Buerat","Buerat al-Hsun","Buerat el-Hsun","Bueràt al-Hsun","Buerát","Buerát el-Hsun","Buwayrat al Hassun","Buwayrat al Hasun","Buwayrāt al Ḩassūn","Bu’ayrāt al Ḩasūn","albwyrat","bwyrat alhswn","البؤيرات","بويرات الحسون"],"lon":15.72576,"lat":31.39937,"pop":0},{"id":88147,"name":"Buzaymah","alt":["Bazimah","Bazīmah","Bzema","bzymt","بزيمة"],"lon":22.03333,"lat":24.91667,"pop":0},{"id":2218026,"name":"Curni Ebredaa","alt":["Curni Eberbeidiaa","Kaurni Ebere Dea","Kourni Ebere Dea"],"lon":15.4,"lat":23.36667,"pop":0},{"id":82972,"name":"Cyrene","alt":["Cirene","Cyrena","Cyrène","Grennah","Gureine","Kyrene","qyrnh","shhat","swst","xi lan ni","קירנה","سوسة","شحات","昔兰尼"],"lon":21.86222,"lat":32.82778,"pop":0},{"id":2218007,"name":"Dabdab","alt":["Debdeb","dbdb","دبدب"],"lon":14.41828,"lat":27.58626,"pop":0},{"id":2217952,"name":"Dahmān","lon":12.51528,"lat":32.78583,"pop":0},{"id":87261,"name":"Dakākīn Ḩamīd","alt":["Dakakin Hamid","Dakakin Humayd","Dakākin Ḩumayd","Ed-Dacachin","dkakyn hmyd","دكاكين حميد"],"lon":20.08097,"lat":32.13784,"pop":0},{"id":2217915,"name":"Dannūn","alt":["Dannun","Dennun","Dennún"],"lon":12.9369,"lat":32.11327,"pop":0},{"id":87218,"name":"Dār al Kīsh","alt":["Al Kish","Al Kīsh","Dar al Kish","Dar el-Kish","Dar el-Kìsh","alkysh","dar alkysh","الكيش","دار الكيش"],"lon":20.07105,"lat":32.09407,"pop":0},{"id":2217774,"name":"Daraj","alt":["Baldat Daraj","Berdj","Derg","Derj","Dirj","drj","درج"],"lon":10.45804,"lat":30.16502,"pop":0},{"id":87205,"name":"Darnah","alt":["DNF","Daernae","Darnis","Derna","Därnä","Dérna","drnh","drnt","דרנה","درنة"],"lon":22.63669,"lat":32.76704,"pop":78782},{"id":87192,"name":"Daryānah","alt":["Daryanah","Driana","Driyanah","Driyānah","Driána","Hadrianopolis","Mantigat Daryanah","Mantiqat Daryanah","Manţigat Daryānah","Manţiqat Daryānah","Zauiet Driana","Záuiet Driana","dryant","دريانة"],"lon":20.30933,"lat":32.34751,"pop":0},{"id":2217876,"name":"Dashrah","lon":11.77241,"lat":31.87067,"pop":0},{"id":8615252,"name":"Dāwūd al Baḩrī","alt":["Dawud al Bahri","dawd albhry","داود البحري"],"lon":20.09378,"lat":32.10748,"pop":0},{"id":8615245,"name":"Dāwūd al Gharbī","alt":["Dawud al Gharbi","Sayidi Dawid al Gharbi","Sayidī Dāwid al Gharbī","Western Dawud","dawd alghrby","داود الغربي"],"lon":20.07589,"lat":32.08756,"pop":0},{"id":8615251,"name":"Dāwūd al Qiblī","alt":["Dawud al Qibli","dawd alqbly","داود القبلي"],"lon":20.0929,"lat":32.10383,"pop":0},{"id":2217742,"name":"Dūjāl","alt":["Dugial","Dujal","dwjal","دوجال"],"lon":13.69412,"lat":26.12682,"pop":0},{"id":2217739,"name":"Dulaym","alt":["Dlem"],"lon":14.06667,"lat":25.94306,"pop":0},{"id":2217702,"name":"Dūshīn","alt":["Dusein","Dushin"],"lon":11.8224,"lat":31.86431,"pop":0},{"id":89027,"name":"Eastern Al Fuwayhāt","alt":["Al Fuwayhat","Al Fuwayhat ash Sharqiyah","Al Fuwayhāt","Al Fuwayhāt ash Sharqīyah","Eastern Fwayhat","El Fueihat","El-Fuehat","El-Fuehát","Fuehat","Fuwaihat","alfwyhat alshrqyt","الفويهات الشرقية"],"lon":20.11539,"lat":32.09812,"pop":0},{"id":8615250,"name":"Eastern Dawud","alt":["Sayedi Dawid","Sayedī Dāwid"],"lon":20.09026,"lat":32.10301,"pop":0},{"id":2217667,"name":"Emi Madema","lon":15.3,"lat":23.75,"pop":0},{"id":87022,"name":"Farzūghah","alt":["Baracca","Farzughah","Farzughan","frzwght","فرزوغة"],"lon":20.70297,"lat":32.49929,"pop":0},{"id":2217559,"name":"Faşātah","alt":["Farsatta","Farsaţţá","Fasatah","Fasatan","Faşātan","Forsatta","Forsetta","Forsátta","Forsétta","Saniet Forsatta","Saniyat Farsatta","Sāniyat Farsaţţá"],"lon":11.37944,"lat":31.86417,"pop":0},{"id":2217518,"name":"Fayşalān","lon":13.01361,"lat":32.095,"pop":0},{"id":11814599,"name":"Faywīt","alt":["Faywit","fywyt","فيويت"],"lon":10.08141,"lat":24.95062,"pop":0},{"id":8615327,"name":"Fīllāt al Khalīj","alt":["Fillat al Khalij","fylat alkhlyj","فيلات الخليج"],"lon":20.13005,"lat":32.08654,"pop":0},{"id":8615283,"name":"Fīllāt al Malik Idrīs","alt":["Fillat al Malik Idris","fylat almlk adrys","فيلات الملك إدريس"],"lon":20.11228,"lat":32.11089,"pop":0},{"id":2217475,"name":"Funduq al ‘Allūş","alt":["Fondugh el-Allus","Fundug al `Allus","Fundug al ‘Allūş","Funduq al `Allus","Fóndugh el-Allús","فندق العلوص"],"lon":13.94002,"lat":32.7094,"pop":0},{"id":2217474,"name":"Funduq al Jaḩsh","alt":["Fondugh el-Giahsc","Fonduk el Jiask","Funduq al Jahsh","Fóndugh el-Giahsc"],"lon":13.83333,"lat":32.73333,"pop":0},{"id":2217472,"name":"Funduq an Naqqāzah","alt":["Fondugh en-Naggaza","Funduq an Naqqazah","Fóndugh en-Naggáza"],"lon":14.06667,"lat":32.7,"pop":0},{"id":2217470,"name":"Funduq ash Shaybānī","alt":["Fondugh esc-Scebani","Funduq ash Shaybani","Fóndugh esc-Scebáni"],"lon":13.05,"lat":32.38333,"pop":0},{"id":2217468,"name":"Funduq Tarbānah","alt":["Fondugh Terbana","Fondugh Terbána","Funduq Tarbanah"],"lon":14.23333,"lat":32.56667,"pop":0},{"id":2217467,"name":"Funqul","alt":["Fongul"],"lon":14.25,"lat":25.96667,"pop":0},{"id":86941,"name":"Garden City","alt":["Hayy al Hada'iq","hy alhdayq","حي الحدائق","Ḩayy al Ḩadā’iq"],"lon":20.10844,"lat":32.0864,"pop":0},{"id":2217440,"name":"Ghadāmis","alt":["Gadames","Gadamis","Gadamés","Ghadames","Ghadamis","Ghudamis","Ghudāmis","LTD","Rhadames","ghdams","Гадамес","غدامس"],"lon":9.50072,"lat":30.13366,"pop":7000},{"id":2217434,"name":"Ghaddūwah","alt":["Ghadduwah","Goddua","ghdwt","غدوة"],"lon":14.27584,"lat":26.43628,"pop":0},{"id":2217362,"name":"Gharyan","alt":["Garian","Gasr Garian","Gasr Gariàn","Gharyān","QGH","ghryan","غريان"],"lon":13.02028,"lat":32.17222,"pop":85219},{"id":2217351,"name":"Ghat","alt":["GHT","Gat","Ghāt","Rhat","ghat","Гат","غات"],"lon":10.18003,"lat":24.96334,"pop":24347},{"id":2217346,"name":"Ghawāţ","alt":["Gauat","Ghawat"],"lon":14.01667,"lat":25.9,"pop":0},{"id":86870,"name":"Ghawţ al Ḩişān","lon":20.61535,"lat":32.18658,"pop":0},{"id":2217252,"name":"Ghurām","lon":12.57311,"lat":32.05565,"pop":0},{"id":8615292,"name":"Ghuraybīl","alt":["Ghuraybil","ghrybyl","غريبيل"],"lon":20.06063,"lat":32.11726,"pop":0},{"id":2216859,"name":"Ḩarqah","alt":["Giarfet","Giàrfet","Harqah"],"lon":12.70256,"lat":32.05613,"pop":0},{"id":2216785,"name":"Ḩawsh ash Shuwayyim","alt":["Hawsh as Suwaym","Hawsh ash Shuwayyim","Ḩawsh as Suwaym"],"lon":19.97362,"lat":31.92239,"pop":0},{"id":86420,"name":"Ḩawsh Barjī","lon":20.21667,"lat":32.28333,"pop":0},{"id":2216780,"name":"Ḩawsh Wārid","alt":["Hawsh Warid","Hosc Uared","Hosc Uáred"],"lon":19.98517,"lat":31.91319,"pop":0},{"id":11258325,"name":"Hay Demsheq","alt":["hy dmshq","حي دمشق"],"lon":13.19896,"lat":32.85508,"pop":0},{"id":2216764,"name":"Hayy al Andalus","alt":["Hay al Andalus","hy alandls","حي الأندلس","Ḩay al Andalus"],"lon":13.11667,"lat":32.86667,"pop":0},{"id":8615490,"name":"Ḩayy as Salām","alt":["Hayy as Salam","hy alslam","حي السلام"],"lon":20.11527,"lat":32.14628,"pop":0},{"id":12088840,"name":"Hayy as Sina'i","alt":["alhy alsnaʿy","الحي الصناعي"],"lon":13.23787,"lat":32.41162,"pop":0},{"id":8615343,"name":"Ḩayy Barzakh Lāyira’","alt":["Hayy Barzakh Layira'","hy brzkh layrʾ","حي برزخ لايرء"],"lon":20.13674,"lat":32.11046,"pop":0},{"id":8615491,"name":"Ḩayy Sīdī Yūnus","alt":["Hayy Sidi Yunus","hy sydy ywns","حي سيدي يونس"],"lon":20.10514,"lat":32.13868,"pop":0},{"id":2216750,"name":"Heg’ Hagel","alt":["Heg' Agel","Heg' Hagel","Heg’ Agél"],"lon":14.03806,"lat":25.92861,"pop":0},{"id":2216746,"name":"Ḩijārah","alt":["Hagiara","Hagiára","Hijarah","alhjart‎","الحجارة‎"],"lon":14.45642,"lat":27.02301,"pop":0},{"id":86345,"name":"Ḩīshān ‘Ā’ilat Bāqī","lon":20.2046,"lat":32.26786,"pop":0},{"id":86344,"name":"Ḩīshān al ‘Arabāt","alt":["Hishan al `Arabat","Hishan al `Aribat","Ḩīshān al ‘Aribāt"],"lon":20.23691,"lat":32.28985,"pop":0},{"id":86343,"name":"Ḩīshān al ‘Aryāt","alt":["Hishan al `Aryat","hyshan alʿrybat","حيشان العريبات"],"lon":20.23114,"lat":32.28238,"pop":0},{"id":2216645,"name":"Hūn","alt":["HUQ","Hon","Hun","Madinat Hun","Madīnat Hūn","hwn","mdynt hwn","مدينة هون","هون"],"lon":15.94772,"lat":29.12684,"pop":18878},{"id":2220309,"name":"Idrī","alt":["Adiri","Adri","Adrī","Adīrī","Ederi","Edri","Idri","adry","أدري","إدري"],"lon":13.05173,"lat":27.44707,"pop":4611},{"id":2216531,"name":"Īnīr","alt":["Iner","Inir","Iniyah","Īnīyah"],"lon":11.94667,"lat":31.92222,"pop":0},{"id":2216523,"name":"Irmābḩat az Zintān","lon":12.25891,"lat":31.11256,"pop":0},{"id":2216463,"name":"Jaddā’im","alt":["Dara Geddaim","Geddaim","Geddàim","Jadda'im","Jud Da'im","Jūd Dā’im","Oasi di Geddaim","Oasi di Geddàim","Oliveti","jwdaym","جودائم"],"lon":12.78278,"lat":32.78,"pop":0},{"id":2216432,"name":"Jādū","alt":["Giado","Jadu","jadw","جادو"],"lon":12.02901,"lat":31.95506,"pop":6013},{"id":86068,"name":"Jakharrah","lon":21.56667,"lat":29.21667,"pop":0},{"id":86049,"name":"Jālū","alt":["Gialo","Jalu"],"lon":21.55,"lat":29.03333,"pop":3334},{"id":2216358,"name":"Jammārah","alt":["Djemmari","Gemmari","Gemmart","Jamarah","Jammarah","Jamārah","Jummari","Jummārī"],"lon":11.9958,"lat":31.93674,"pop":0},{"id":2216356,"name":"Jandūbah","alt":["Genduba","Jandubah"],"lon":12.68167,"lat":32.10083,"pop":0},{"id":2216352,"name":"Jannāwan","alt":["Djennaouen","Gennauen","Gennaun","Gennáun","Jannawan","Jinawin","Jināwin"],"lon":12.00614,"lat":31.96399,"pop":0},{"id":2216349,"name":"Janzūr","alt":["Janzur","Zanzur","Zanzūr","jnzwr","جنزور"],"lon":13.01727,"lat":32.81868,"pop":0},{"id":86002,"name":"Jardas al ‘Abīd","alt":["Gerdes el-Abid","Gerdes el-Abíd","Jardas al `Abid","Jerdes el Abid","jrds alʿbyd","جردس العبيد"],"lon":20.98615,"lat":32.30337,"pop":0},{"id":86001,"name":"Jardas al Aḩrār","lon":20.98333,"lat":32.28333,"pop":0},{"id":2216319,"name":"Jarmah","alt":["Germa"],"lon":13.06667,"lat":26.53333,"pop":0},{"id":85946,"name":"Jikharrah","alt":["Gicherra","Gichérra","Jiharrah","Jikheira","Jiḩarrah"],"lon":21.63333,"lat":29.28333,"pop":0},{"id":2216155,"name":"Kābāw","alt":["Cabao","Kabaw","kabaw","كاباو"],"lon":11.33055,"lat":31.84724,"pop":0},{"id":85840,"name":"Kāf Miyās","alt":["Caf Meias","Kaf Miyas","Kahf Miyas","Kahf Miyās"],"lon":21.70278,"lat":32.72222,"pop":0},{"id":85820,"name":"Kamb al ‘Ajjāj","alt":["Kamb al `Ajjaj","Qartah"],"lon":20.25659,"lat":32.09727,"pop":0},{"id":85819,"name":"Kambūt","alt":["Gambut","Gasr Cambut","Gasr Cambút","Gasr Gambut","Kambut","Qasr Kunbuth","Qaşr Kunbūth","kmbwt","كمبوت"],"lon":24.4784,"lat":31.90434,"pop":0},{"id":2216097,"name":"Kammūn","alt":["Cammun","Cammún","Kammun","Kamun","Kamūn"],"lon":13.03196,"lat":32.13621,"pop":0},{"id":85771,"name":"Karsah","alt":["Chersa","Chèrsa","Kirissah","krst","كرسة"],"lon":22.4199,"lat":32.8472,"pop":0},{"id":9295787,"name":"Karzaz","lon":15.08637,"lat":32.32261,"pop":0},{"id":85738,"name":"Khaḑrā’","alt":["Chadra","Khadra'","Verde"],"lon":21.78232,"lat":32.55083,"pop":0},{"id":12041966,"name":"Khallat al Qamūdī","alt":["khlt alqmwdy","خلة القمودي"],"lon":13.44762,"lat":32.68942,"pop":0},{"id":85585,"name":"Khīshān al Budūr","lon":20.00756,"lat":31.69744,"pop":0},{"id":2215810,"name":"Khulayf","alt":["khlyf","خليف"],"lon":13.82223,"lat":26.69439,"pop":0},{"id":2215764,"name":"Ki‘ām","lon":14.43802,"lat":32.52278,"pop":0},{"id":2215765,"name":"Ki‘ām","alt":["Ka`am","Ka‘am","Ki`am"],"lon":13.00611,"lat":32.11028,"pop":0},{"id":2215758,"name":"Kiklah","alt":["Chicla"],"lon":12.7,"lat":32.08333,"pop":0},{"id":12060328,"name":"Kontangyi","lon":21.14356,"lat":21.14356,"pop":0},{"id":85496,"name":"Kuhūf Bū Qalbūţ","lon":22.24884,"lat":32.7599,"pop":0},{"id":85495,"name":"Kuhūf Tuḩūdīyah","alt":["Ghawt wa Kuhuf Tuhudiyah","Ghawţ wa Kuhūf Tuḩūdīyah","Kuhuf Tuhudiyah"],"lon":21.87127,"lat":32.71614,"pop":0},{"id":85483,"name":"Kurkūrah","alt":["Carcura","Drepanun","Karkurah","Karkūrah","Kurkurah"],"lon":20.02685,"lat":31.4261,"pop":0},{"id":85446,"name":"Lamlūdah","alt":["Lamludah","lmlwdt","لملودة"],"lon":22.14291,"lat":32.78072,"pop":0},{"id":2215552,"name":"Ma‘fan","alt":["Ma`fan","Maafen"],"lon":14.48333,"lat":25.91667,"pop":0},{"id":84997,"name":"Ma‘tan as Sārah","lon":21.86667,"lat":21.68333,"pop":0},{"id":85350,"name":"Madīnat Bayāḑ","alt":["Madinat Bayad","mdynt byad","مدينة بياض"],"lon":23.97753,"lat":32.00911,"pop":0},{"id":89183,"name":"Madīnat Ţulmaythah","alt":["Ad Dirsiyah","Ad Dirsīyah","Madinat Tilmitah","Madinat Tulmaythah","Madīnat Ţilmītah","Ptolemais","Tolemaide","Tolmeita","Tolmeta","Tolmetta","Tolméta","Tulmalhah","Tulmaylhah","Tulmaythah","mdynt tlmytht","tlmytht","Ţulmalḩah","Ţulmaythah","طلميثة","مدينة طلميثة"],"lon":20.93868,"lat":32.70359,"pop":0},{"id":2215556,"name":"Madrūsah","alt":["Madrusah","Medrusa","mdrwst","مدروسة"],"lon":14.53204,"lat":24.78538,"pop":0},{"id":2215532,"name":"Maghwah","alt":["Magua"],"lon":14.56905,"lat":25.90133,"pop":0},{"id":2215453,"name":"Majdūl","alt":["Magedul","Majdul","mjdwl","مجدول"],"lon":15.11167,"lat":25.86472,"pop":0},{"id":11869850,"name":"Mallūk","alt":["Malluk","mlwk","ملوك"],"lon":15.03875,"lat":32.01634,"pop":0},{"id":85176,"name":"Manşūrah","alt":["Mansura","Mansurah","Vittoriosa"],"lon":21.85,"lat":32.83333,"pop":0},{"id":2215282,"name":"Marādah","alt":["Marada","Maradah","mradt","مرادة"],"lon":19.20454,"lat":29.22054,"pop":2229},{"id":85110,"name":"Marāwah","alt":["Maraua","Marawah","Maráua","mrawt","مراوة"],"lon":21.40958,"lat":32.48573,"pop":0},{"id":85074,"name":"Martūbah","alt":["Martuba","Martubah","Martúba","mrtwbt","مرتوبة"],"lon":22.76353,"lat":32.57421,"pop":0},{"id":2215190,"name":"Māryān","lon":12.56167,"lat":32.05751,"pop":0},{"id":2215163,"name":"Masallātah","lon":14,"lat":32.61667,"pop":23702},{"id":85030,"name":"Maslīwah","alt":["Masliwah","Mesliua"],"lon":21.5,"lat":29.05,"pop":0},{"id":85026,"name":"Massah","alt":["Luigi Razza","Messa","Méssa","Māssah","Razza","mast","mst","ماسة","مسة"],"lon":21.62807,"lat":32.75249,"pop":0},{"id":11796162,"name":"Mātris","alt":["Matiris","Matris","Mātiris","matrs","ماترس"],"lon":10.36534,"lat":30.19251,"pop":0},{"id":2214984,"name":"Mazra‘at Katarīllā","alt":["Concessione Catarella","Mazra`at Kataraylla","Mazra`at Katarilla","Mazra‘at Katarayllā","مزرعة كتريلا"],"lon":13.71598,"lat":32.46544,"pop":0},{"id":2214982,"name":"Mazra‘at Sāqīl","lon":13.70465,"lat":32.46454,"pop":0},{"id":2214983,"name":"Mazra‘at Sāqīl","lon":13.64868,"lat":32.4343,"pop":0},{"id":2214981,"name":"Mazra‘at Ţīţānū","lon":13.71902,"lat":32.47127,"pop":0},{"id":2214972,"name":"Māzūzah","lon":13.05,"lat":31.26667,"pop":0},{"id":8615325,"name":"Minţaqat ‘Abd Allāh Şāliḩ al ‘Uqaylī","alt":["Mintaqat `Abd Allah Salih al `Uqayli","mntqt ʿbd allh salh alʿqyly","منطقة عبد الله صالح العقيلي"],"lon":20.11867,"lat":32.08369,"pop":0},{"id":2214903,"name":"Minţaqat ad Daghdūghī","lon":14.52532,"lat":32.34564,"pop":0},{"id":2214902,"name":"Minţaqat al Ghanīmah","alt":["Borgo Corradini","Corradini","Ghanima","Ghanimah","Ghanīmah","Mantiqat al Ghanimah","Manţiqat al Ghanimah","Mintaqat al Ghanimah","mntqt alghnymt","منطقة الغنيمة"],"lon":14.04275,"lat":32.69695,"pop":0},{"id":2214901,"name":"Minţaqat al Ḩashshān","alt":["Mantaqat al Hashshan","Manţaqat al Ḩashshān","Mintaqat al Hashshan"],"lon":12.91472,"lat":32.7425,"pop":0},{"id":85430,"name":"Minţaqat al Lathāmah","alt":["Mintaqat al Lathamah"],"lon":20.09557,"lat":32.15059,"pop":0},{"id":8615254,"name":"Minţaqat al Mājūrī","alt":["Mintaqat al Majuri","mntqt almajwry","منطقة الماجوري"],"lon":20.09489,"lat":32.09682,"pop":0},{"id":2214899,"name":"Minţaqat Wādī Harāwah","alt":["Mintaqat Wadi Harawah","mntqt wady hrawt","منطقة وادي هراوة"],"lon":17.28391,"lat":31.05263,"pop":0},{"id":2214897,"name":"Minţaqat Zāwiyat Sīdī ‘Aţīyah","alt":["Mantiqat Zawiyat Sidi `Atiyah","Manţiqat Zāwiyat Sīdī ‘Aţīyah","Mintaqat Zawiyat Sidi `Atiyah"],"lon":14.00111,"lat":32.59028,"pop":0},{"id":2214960,"name":"Misiqwīn","alt":["Meseguin","Meseguín","Mesegwin","Mesegwīn","Meseqwin","Meseqwīn","Misiqwin","Misquwin","Misqūwīn","msqwyn","مسقوين"],"lon":14.95454,"lat":26.16634,"pop":0},{"id":2214852,"name":"Miskah","alt":["Misca","Mísca"],"lon":12.81667,"lat":32.01667,"pop":0},{"id":2214848,"name":"Misqūwīn","lon":14.71667,"lat":26.15,"pop":0},{"id":2214846,"name":"Mişrātah","alt":["Al Misratah","MRA","Madinat Misratah","Madīnat Mişrātah","Misrata","Misratah","Misurata","msrath","msratt","myswrth","Мисурата","מיסורטה","مصراتة","مصراته"],"lon":15.09254,"lat":32.37535,"pop":386120},{"id":2214827,"name":"Mizdah","alt":["Misdah","Mizda","mzdt","مزدة"],"lon":12.9853,"lat":31.44934,"pop":26107},{"id":2214812,"name":"Mu‘askar Jālū","lon":13.16667,"lat":32.86667,"pop":0},{"id":80635,"name":"Mukhaylá","alt":["Al Makili","Al Makīlī","Al Mukhayli","Al Mukhaylī","El-Mechili","El-Mechìli","Mechili","Mukhayla","Zawiyat al Makhil","Zawiyat al Mukhayla","Zāwiyat al Makhīl","Zāwiyat al Mukhaylá","mkhyly","مخيلى"],"lon":22.27845,"lat":32.16005,"pop":0},{"id":2215211,"name":"Murquş","alt":["Marqas","Marqus","Marquş","Merghes","Murqus","Mérghes","mrqs","مرقص"],"lon":11.57047,"lat":31.84346,"pop":0},{"id":2214603,"name":"Murzuq","alt":["Marzuq","Marzūq","Mourzouk","Mursuk","Murzuch","Murzuk","QMQ","mrzq","Мурзук","مرزق"],"lon":13.91839,"lat":25.91552,"pop":43732},{"id":84637,"name":"Musā‘id","alt":["Musa`id","msaʿd","مساعد"],"lon":25.04972,"lat":31.60937,"pop":0},{"id":2214467,"name":"Na‘īmah","alt":["Na`imah","Naima","nʿymt","نعيمة"],"lon":14.66886,"lat":32.43162,"pop":0},{"id":2214433,"name":"Nālūt","alt":["Lalut","Lalút","Nalut","nalwt","نالوت"],"lon":10.9812,"lat":31.86848,"pop":26256},{"id":2214378,"name":"Nasamah","alt":["Nasmah","nsmt","نسمة"],"lon":13.33052,"lat":31.39602,"pop":0},{"id":11828264,"name":"Nazlah","alt":["nzlt","نزلة"],"lon":13.561,"lat":26.61561,"pop":0},{"id":84381,"name":"Nuqţat al Khaţţābīyah","lon":25.0419,"lat":31.7705,"pop":0},{"id":84346,"name":"Posto Trucchi","lon":22.23333,"lat":26.01667,"pop":0},{"id":2214283,"name":"Qabīlah","alt":["Ben Mahanna","Ben Mahànna","Qabilah","Qabilat","Qabīlat"],"lon":13.1025,"lat":32.16167,"pop":0},{"id":2214282,"name":"Qabīlat Abū Saḩāmah","lon":13.04379,"lat":32.26752,"pop":0},{"id":2214281,"name":"Qabīlat al ‘Abādīlah","alt":["Qabilat al `Abadilah","Qabīlat al ‘Abādilah","قبيلة العباديلة"],"lon":14.69722,"lat":32.28033,"pop":0},{"id":2214280,"name":"Qabīlat al ‘Abādinah","lon":14.72312,"lat":32.32479,"pop":0},{"id":2214277,"name":"Qabīlat al ‘Amārīyīn","alt":["Al `Akarit","Al ‘Akārīt","El-Acarit","Qabilat al `Amariyin"],"lon":13.91083,"lat":32.60117,"pop":0},{"id":2214276,"name":"Qabīlat al ‘Aql","lon":14.16191,"lat":32.65411,"pop":0},{"id":2214275,"name":"Qabīlat al ‘Aţāyā","alt":["Qabilat al `Ataya","Qabilat al `Atayah","Qabīlat al ‘Aţāyah"],"lon":14.68619,"lat":32.26693,"pop":0},{"id":2214279,"name":"Qabīlat al Abqār","lon":13.03194,"lat":32.26228,"pop":0},{"id":2214278,"name":"Qabīlat al Afāḑil","alt":["Qabilat al Afadil","Qabilat al Luffazil","Qabīlat al Luffāz̧il"],"lon":14.16572,"lat":32.64193,"pop":0},{"id":2214274,"name":"Qabīlat al Bakākishah","lon":14.53889,"lat":32.45182,"pop":0},{"id":2214270,"name":"Qabīlat al Fawātīr","alt":["Al Fawatir","Al Fawātīr","El-Fuatir","El-Fuatír","Qabilat al Fawatir","qbylt alfwatyr","قبيلة الفواتير"],"lon":13.91883,"lat":32.56929,"pop":0},{"id":2214271,"name":"Qabīlat al Fawātīr","lon":13.93167,"lat":32.56492,"pop":0},{"id":2214272,"name":"Qabīlat al Fawātīr","alt":["Qabilat al Fawatir","qbylt alfwatyr","قبيلة الفواتير"],"lon":14.67918,"lat":32.26273,"pop":0},{"id":2214269,"name":"Qabīlat al Ḩājj ‘Umrān","alt":["Qabilat al Haj `Umran","Qabilat al Hajj `Umran","Qabīlat al Ḩāj ‘Umran"],"lon":12.99361,"lat":32.125,"pop":0},{"id":2214268,"name":"Qabīlat al Ḩurmah","lon":14.6809,"lat":32.29835,"pop":0},{"id":2214267,"name":"Qabīlat al Jawābir","lon":13.9058,"lat":32.64285,"pop":0},{"id":2214266,"name":"Qabīlat al Karāritah","lon":13.88422,"lat":32.58342,"pop":0},{"id":2214265,"name":"Qabīlat al Karāwinah","alt":["Imumen","Imùmen","Qabilat al Karawinah"],"lon":13.96222,"lat":32.61611,"pop":0},{"id":2214264,"name":"Qabīlat al Kawārighilīyah","alt":["Qabilat al Kawarighiliyah","Qabilat al Kawarighliyah","Qabīlat al Kawarighlīyah"],"lon":14.51469,"lat":32.46071,"pop":0},{"id":2214263,"name":"Qabīlat al Khums","alt":["Qabilat al Khums"],"lon":14.20158,"lat":32.65696,"pop":0},{"id":2214262,"name":"Qabīlat al Malā’iţah","alt":["Qabilat al Mala'itah","Qabilat al Malayitah","Qabīlat al Malāyiţah"],"lon":15.18648,"lat":32.37566,"pop":0},{"id":2214261,"name":"Qabīlat al Maqşabah","alt":["El-Magasba","Qabilat al Maqsabah"],"lon":15.09009,"lat":32.37069,"pop":0},{"id":2214259,"name":"Qabīlat al Mu‘ammarīyīn","alt":["Qabilat al Mu`ammariyin","Qabilat al Mu`ammirin","Qabilat al Mu`ammiriyyin","Qabīlat al Mu‘ammiriyyīn","Qabīlat al Mu‘ammirīn","قبيلة المعمرين","قبيلة المعمريين"],"lon":13.88903,"lat":32.47146,"pop":0},{"id":2214258,"name":"Qabīlat al Qalīl","alt":["Al Qalil","Al Qalīl","El-Ghlil","El-Glil","Qabilat al Qalil","qbylt alqlyl","قبيلة القليل"],"lon":13.98974,"lat":32.58072,"pop":0},{"id":2214257,"name":"Qabīlat al Qanawāt","lon":14.36028,"lat":32.57611,"pop":0},{"id":2214256,"name":"Qabīlat al Qazzīr","alt":["Qabilat al Qazzir","qbylt alqzyr","قبيلة القزير"],"lon":15.07225,"lat":32.35027,"pop":0},{"id":2214255,"name":"Qabīlat an Naţţāţāt","lon":13.02926,"lat":32.1442,"pop":0},{"id":2214253,"name":"Qabīlat ar Radādah","lon":13.93646,"lat":32.5974,"pop":0},{"id":2214252,"name":"Qabīlat ar Rāghah","lon":13.90087,"lat":32.55994,"pop":0},{"id":2214251,"name":"Qabīlat ar Raḩbah","alt":["Ar Rahbah","Ar Raḩbah","Er-Rahba","Er-Ràhba","Qabilat ar Rahbah","Qabilat ar Rahban","Qabīlat ar Raḩban","Rabha","Rahba","Rábha"],"lon":13.03333,"lat":32.25,"pop":0},{"id":2214250,"name":"Qabīlat ar Raḩūmāt","alt":["Qabilat ar Rahumat","qbylt alrhwmat","قبيلة الرحومات"],"lon":14.54444,"lat":32.33368,"pop":0},{"id":2214249,"name":"Qabīlat ar Raqā’iqīyah","lon":13.20311,"lat":31.04337,"pop":0},{"id":2214243,"name":"Qabīlat aş Şaqū‘","alt":["Qabilat as Saqu`","قبيلة الصقوع"],"lon":14.67182,"lat":32.36527,"pop":0},{"id":2214247,"name":"Qabīlat ash Sha‘āfīyīn","alt":["Ash Shi`afiyun","Ash Shi‘āfīyūn","Esc-Sciaafiin","Esc-Sciaafiín","Esc-Sciaafun","Esc-Sciaafùn","Qabilat ash Sha`afiyin","Qabilat ash Shi`afiyin","Qabīlat ash Shi‘āfīyīn","Sciaafiin","Sciaafiín","قبيلة الشعافيين"],"lon":13.88355,"lat":32.57125,"pop":0},{"id":2214245,"name":"Qabīlat ash Shurfah","alt":["Chalfun","Chalfún","Khalfun","Khalfūn","Qabilat ash Shurfah","Qabilat ash Shurtah","qbylt alshrft","قبيلة الشرفة"],"lon":13.97067,"lat":32.60321,"pop":0},{"id":2214246,"name":"Qabīlat ash Shurfah","alt":["Qabilat ash Shurfah","qbylt alshrft","قبيلة الشرفة"],"lon":14.28582,"lat":32.58314,"pop":0},{"id":2214244,"name":"Qabīlat ash Shuţaywīyah","alt":["Qabilat ash Shutaywiyah","Qabīlat ash Shutaywīyah","qbylt alshtywyt","قبيلة الشطيوية"],"lon":14.67405,"lat":32.29266,"pop":0},{"id":2214240,"name":"Qabīlat Awlād ‘Āmir","lon":12.33212,"lat":32.00083,"pop":0},{"id":2214239,"name":"Qabīlat Awlād ‘Ārif","alt":["Al Kurrathiyah","Al Kurrāthīyah","El-Corratia","El-Corrátía","Qabilat Awlad `Arif"],"lon":13.90138,"lat":32.61909,"pop":0},{"id":2214232,"name":"Qabīlat Awlād ‘Īsá","lon":14.15167,"lat":32.65833,"pop":0},{"id":2214231,"name":"Qabīlat Awlād ‘Izāz","lon":12.83194,"lat":32.15556,"pop":0},{"id":2214229,"name":"Qabīlat Awlād ‘Umar","alt":["Qabilat Awlad `Umar","قبيلة أولاد عمر"],"lon":14.14524,"lat":32.68518,"pop":0},{"id":2214242,"name":"Qabīlat Awlād Abū Salāmah","alt":["Qabilat Awlad Abu Salamah","Ulad Bu Slama","Ulad Bu Slàma"],"lon":13.05344,"lat":32.26171,"pop":0},{"id":2214241,"name":"Qabīlat Awlād Abū Şuḩayyirah","alt":["Qabilat Awlad Abu Sahayyarah","Qabilat Awlad Abu Suhayyirah","Qabīlat Awlād Abū Şaḩayyarah"],"lon":12.71412,"lat":32.78037,"pop":0},{"id":2214238,"name":"Qabīlat Awlād aş Şaghīr","lon":12.45757,"lat":32.01668,"pop":0},{"id":2214237,"name":"Qabīlat Awlād aţ Ţāmid","alt":["Qabilat Awlad Hamid","Qabilat Awlad Itamid","Qabilat Awlad Litamid","Qabilat Awlad at Tamid","Qabilat Awlad ath Thamad","Qabīlat Awlād Iţāmid","Qabīlat Awlād Liţāmid","Qabīlat Awlād ath Thamad","Qabīlat Awlād Ḩāmid","qbylt awlad altamd","qbylt awlad ltamd","قبيلة أولاد الطامد","قبيلة أولاد لطامد"],"lon":15.19093,"lat":31.99672,"pop":0},{"id":2214236,"name":"Qabīlat Awlād Ba‘ayyū","alt":["Qabilat Awlad Ba`ayyu","قبيلة أولاد بعيو"],"lon":15.0611,"lat":32.36949,"pop":0},{"id":2214235,"name":"Qabīlat Awlād Bin Aḩmad","alt":["Qabilat Awlad Bin Ahmad","Qabilat Awlad Rin Ahmad","Qabīlat Awlād Rin Aḩmad"],"lon":13.07222,"lat":32.83611,"pop":0},{"id":2214234,"name":"Qabīlat Awlād Dhiyāb","alt":["Qabilat Awlad Dhiyab","Qabilat Awlad Diyab","Qabīlat Awlād Diyāb"],"lon":13.27083,"lat":32.90222,"pop":0},{"id":2214233,"name":"Qabīlat Awlād Ḩāmid","lon":15.18333,"lat":32,"pop":0},{"id":2214230,"name":"Qabīlat Awlād Jābir","lon":12.33978,"lat":31.99445,"pop":0},{"id":2214228,"name":"Qabīlat Awlād Zā’id","lon":14.16204,"lat":32.64795,"pop":0},{"id":2214227,"name":"Qabīlat az Zarībah","alt":["Ar Rabitah al Garbiyah","Ar Rabitah al Gharbiyah","Ar Rābiţah al Garbīyah","Ar Rābiţah al Gharbīyah","Er Rabta el Garbia","Pabta","Qabilat az Zaribah","Rabta","Rabta el-Garbia","Ràbta"],"lon":12.84222,"lat":32.1575,"pop":0},{"id":2214226,"name":"Qabīlat az Zintān al ‘Umyān","alt":["Qabilat az Zintan al `Amyan","Qabilat az Zintan al `Umyan","Qabīlat az Zintān al ‘Amyān"],"lon":12.36667,"lat":31.05,"pop":0},{"id":2214225,"name":"Qabīlat Badarthan","alt":["Baderten","Qabilat Badarthan","Qabilat Badrah","Qabīlat Badrah"],"lon":13.04722,"lat":32.16611,"pop":0},{"id":2214224,"name":"Qabīlat Banī Layth","alt":["Bani Layth","Banī Layth","Beni Let","Qabilat Bani Layth","qbylt bny lyth","قبيلة بني ليث"],"lon":14.01665,"lat":32.56936,"pop":0},{"id":2214222,"name":"Qabīlat Banī Salīm","alt":["Bani Yakhlaf","Banī Yakhlaf","Beni Iechlef","Béni Iéchlef","Qabilat Bani Salim","qbylt bny slym","قبيلة بني سليم"],"lon":14.02694,"lat":32.62794,"pop":0},{"id":2214223,"name":"Qabīlat Bin Musallam","alt":["Bani Muslim","Banī Muslim","Beni Mislim","Beni Mislím","Qabilat Bani Musallam","Qabilat Bin Musallam","Qabīlat Banī Musallam","qbylt bn mslm","قبيلة بن مسلم"],"lon":14.05019,"lat":32.60269,"pop":0},{"id":2214221,"name":"Qabīlat Dajībītah","lon":13.25669,"lat":32.90329,"pop":0},{"id":2214220,"name":"Qabīlat Dirsūnah","alt":["Qabilat Dirsunah","qbylt drswnt","قبيلة درسونة"],"lon":14.65383,"lat":32.33571,"pop":0},{"id":2214219,"name":"Qabīlat Indārah","alt":["Masindarah","Masindārah","Msindara","Msindára","Qabilat Indarah"],"lon":14.02667,"lat":32.60889,"pop":0},{"id":2214218,"name":"Qabīlat Lawātah","alt":["Lawatah","Lawātah","Luata","Luáta","Qabilat Lawatah","Qabilat Liwatah","Qabīlat Liwātah","qbylt lwatt","قبيلة لواتة"],"lon":14.014,"lat":32.55771,"pop":0},{"id":2214217,"name":"Qabīlat Mantar","lon":15.06595,"lat":32.38743,"pop":0},{"id":2214216,"name":"Qabīlat Qubā‘","alt":["Ghebbaa","Ghebbáa","Qabilat Quba`","Quba`","Qubā‘"],"lon":13.01167,"lat":32.08639,"pop":0},{"id":2214215,"name":"Qabīlat Salimah","alt":["Qabilat Salimah","Qabilat Salmah","Qabīlat Salmah","Salimah","Selma","Sélma"],"lon":13.95413,"lat":32.64329,"pop":0},{"id":2214214,"name":"Qabīlat Saqīn","alt":["Qabilat Saqin","Sichin","Sichín","Sighin","Sighìn","Sikin","Sīkīn"],"lon":13.05722,"lat":32.09944,"pop":0},{"id":2214213,"name":"Qabīlat Sīdī Mu‘ammar","alt":["Qabilat Sidi Mu`ammar","Sidi Maammer","Sidi Mu`ammar","Sìdi Maàmmer","Sīdī Mu‘ammar","قبيلة سيدي معمر"],"lon":13.88036,"lat":32.49591,"pop":0},{"id":2214212,"name":"Qabīlat Sīlīn","alt":["Qabilat Silin","Silin","Sīlīn"],"lon":14.17392,"lat":32.66826,"pop":0},{"id":2214211,"name":"Qabīlat Sūq ad Dāwūn","alt":["Qabilat Suq ad Dawun","qbylt swq aldawwn","قبيلة سوق الداوون"],"lon":13.90951,"lat":32.45659,"pop":0},{"id":2214210,"name":"Qabīlat Takūt","alt":["Gasr Tecut","Gasr Tecút","Gasr Tekout","Gsar Tecut","Qabilat Takut","Qasr Takut","Qaşr Takūt","qbylt tkwt","قبيلة تكوت"],"lon":11.04454,"lat":31.95303,"pop":0},{"id":2214209,"name":"Qabīlat Wādinah","alt":["Qabilat Wadinah","Qabilat Wadnah","Qabilat Wādnah","Uadna","Uádna","Wadinah","Wādinah","qbylt wadnt","قبيلة وادنة"],"lon":14.03946,"lat":32.57174,"pop":0},{"id":2214208,"name":"Qabīlat Warjīn","lon":12.46333,"lat":32.01,"pop":0},{"id":2214207,"name":"Qabīlat Za‘farān","alt":["Qabilat Za`faran","Za`faran","Zaafran","Zaafrán","Za‘farān"],"lon":14.03639,"lat":32.58972,"pop":0},{"id":11844763,"name":"Qabr Jīrah","alt":["Qabr Jirah","qbr jyrt","قبر جيرة"],"lon":20.43235,"lat":32.13305,"pop":0},{"id":81165,"name":"Qabr Umm al Hīshah","alt":["Qabr Umm `A'ishah","Qabr Umm al Hishah","Qabr Umm ‘Ā’ishah","qbr am alhysht","قبر أم الهيشة"],"lon":20.05229,"lat":30.14948,"pop":0},{"id":11799863,"name":"Qal‘at al Wasaţ","alt":["Qal`at al Wasat","قلعة الوسط"],"lon":14.00328,"lat":31.43609,"pop":0},{"id":84257,"name":"Qamīnis","alt":["Caminus","Ghemines","Qaminis","qmyns","قمينس"],"lon":20.01697,"lat":31.6576,"pop":0},{"id":84244,"name":"Qandūlah","alt":["Qandulah","qndwlt","قندولة"],"lon":21.57525,"lat":32.53798,"pop":0},{"id":2217449,"name":"Qarāqārah","alt":["Garagara","Qaraqarah","qraqart","قراقارة"],"lon":13.21213,"lat":26.54925,"pop":0},{"id":2213973,"name":"Qarqārish","alt":["Gargarech","Gargaresc","Gargaresh","Gargáresc","Qarqarish","qrqash","قرقاش"],"lon":13.10778,"lat":32.86972,"pop":0},{"id":84154,"name":"Qaryat ‘Ā’ilat Zaydān","alt":["Qaryat `A'ilat Zaydan","Qaryat `Aylat Zaydan","Qaryat `Ayt Zaydan","Qaryat `It Zaydan","Qaryat ‘Aylat Zaydān","Qaryat ‘Ayt Zaydān","Qaryat ‘Īt Zaydān","قرية عائلة زيدان","قرية عيلة زيدان"],"lon":23.90283,"lat":32.09034,"pop":0},{"id":2213906,"name":"Qaryat ‘Arīfah","lon":13.04528,"lat":32.22556,"pop":0},{"id":2213886,"name":"Qaryat ‘Ayn Abū Ghūlah","lon":15.13497,"lat":32.35589,"pop":0},{"id":2213885,"name":"Qaryat ‘Ayn Abū Shaybah","alt":["Qaryat `Ayn Abu Shaybah","قرية عين أبو شيبة"],"lon":15.09263,"lat":32.30003,"pop":0},{"id":2213884,"name":"Qaryat ‘Ayn al Kabīr","lon":15.10696,"lat":32.32339,"pop":0},{"id":2213883,"name":"Qaryat ‘Ayn al Madham","lon":15.13249,"lat":32.35102,"pop":0},{"id":2213882,"name":"Qaryat ‘Ayn az Zayt","alt":["Qaryat `Ayn az Zay","Qaryat `Ayn az Zayt","Qaryat ‘Ayn az Zay"],"lon":15.14088,"lat":32.34302,"pop":0},{"id":2213881,"name":"Qaryat ‘Ayn Bū al Qā’id","alt":["Qaryat `Ayn Bu al Qa'id","Qaryat `Ayn bilqayid","Qaryat ‘Ayn bilqāyid"],"lon":15.11542,"lat":32.3618,"pop":0},{"id":2213880,"name":"Qaryat ‘Ayn Fakrūnah","lon":15.10515,"lat":32.37018,"pop":0},{"id":2213879,"name":"Qaryat ‘Ayn Kurayyim","lon":15.13787,"lat":32.38867,"pop":0},{"id":2213878,"name":"Qaryat ‘Ayn Makhlūf","lon":15.12711,"lat":32.34131,"pop":0},{"id":84130,"name":"Qaryat ‘Umar al Mukhtār","alt":["Mameli","Qaryat `Umar al Mukhtar","`Umar al Mukhtar","قرية عمر المختار","‘Umar al Mukhtār"],"lon":21.67651,"lat":32.62978,"pop":0},{"id":2213961,"name":"Qaryat Abū ‘Ayyād","alt":["Bu Aiad","Qaryat Abu `Ayyad"],"lon":12.97,"lat":32.12389,"pop":0},{"id":2213962,"name":"Qaryat Abū al Aḩnāsh","alt":["Qaryat Abu Ahnash","Qaryat Abu al Ahnash","Qaryat Abū Aḩnāsh"],"lon":19.96012,"lat":31.78456,"pop":0},{"id":2213869,"name":"Qaryat Abū Fakhīrah","alt":["Qaryat Abu Fakhirah","Qaryat Bu Fakhirah","Qaryat Bu Fakirah","Qaryat Bū Fākhirah","Qaryat Bū Fākirah","qryt abw fkhyrt","قرية أبو فخيرة"],"lon":19.97597,"lat":31.94581,"pop":0},{"id":2220416,"name":"Qaryat Abū Qurayn","alt":["Abu Qurayn","Abuqrin","Abū Qurayn","Abūqrīn","Al Hesha","Bu Gren","Bugrein","El Hisha El Jadida","Qaryat Abu Qurayn","qryt abw qryn","قرية أبو قرين"],"lon":15.25345,"lat":31.44893,"pop":0},{"id":2213960,"name":"Qaryat Abū Shārwal","lon":15.13265,"lat":32.3923,"pop":0},{"id":2213959,"name":"Qaryat ad Dabābisah","alt":["Qaryat ad Dababisah","Qaryat ad Dababish","Qaryat ad Dabābish"],"lon":15.09648,"lat":32.29413,"pop":0},{"id":2213958,"name":"Qaryat ad Darārifah","lon":13.01722,"lat":32.2175,"pop":0},{"id":2213956,"name":"Qaryat ad Dawā’irah","lon":14.5386,"lat":31.37193,"pop":0},{"id":2213952,"name":"Qaryat al ‘Amrūnī","alt":["Awlad `Umar","Awlād ‘Umar","Qaryat al `Amruni","Ulad Amor","Ulad Amór"],"lon":12.63417,"lat":32.13111,"pop":0},{"id":2213951,"name":"Qaryat al ‘Arīmah","lon":13.9761,"lat":31.43279,"pop":0},{"id":2213950,"name":"Qaryat al ‘Awā’idah","lon":15.10485,"lat":32.39504,"pop":0},{"id":84167,"name":"Qaryat al ‘Imāmah","alt":["Qaryat al `Amamah","Qaryat al `Imamah","Qaryat al ‘Amāmah","قرية العمامة"],"lon":23.89006,"lat":32.09823,"pop":0},{"id":84160,"name":"Qaryat al ‘Unayzī","alt":["Qaryat al `Unayzi","قرية العنيزي"],"lon":20.12751,"lat":32.15248,"pop":0},{"id":2213948,"name":"Qaryat al Baladīyah","lon":13.18278,"lat":32.86917,"pop":0},{"id":2213946,"name":"Qaryat al Barāhimah","alt":["El-Brahma","Qaryat al Barahimah"],"lon":12.50618,"lat":32.0231,"pop":0},{"id":84171,"name":"Qaryat al Barakāt","alt":["Makhazin al Birkat","Makhāzin al Birkāt","Qaryat al Barakat","Qaryat al Birkat","Qaryat al Birkāt"],"lon":20.03148,"lat":31.76628,"pop":0},{"id":84172,"name":"Qaryat al Barakāt","alt":["Qaryat al Barakat","Qaryat al Birkat","Qaryat al Birkāt","qryt albrkat","قرية البركات"],"lon":20.02796,"lat":31.77678,"pop":0},{"id":2213945,"name":"Qaryat al Barrānī","alt":["Qaryat al Barani `Alwat Magharibah","Qaryat al Barani `Awlat Magharibah","Qaryat al Barrani","Qaryat al Barrani `Ilwat Magharibah","Qaryat al Barrānī ‘Ilwat Maghāribah","Qaryat al Barānī ‘Alwat Maghāribah","Qaryat al Barānī ‘Awlat Maghāribah","qryt albrany","قرية البراني"],"lon":19.9856,"lat":31.85668,"pop":0},{"id":2213944,"name":"Qaryat al Bayḑā’","alt":["Qarbat al Bayda'","Qarbat al Bayḑā’","Qaryat al Bayda'"],"lon":13.33027,"lat":32.11004,"pop":0},{"id":89053,"name":"Qaryat al Bayyāḑah","alt":["Al Bayyadah","Al Bayyāḑah","D'Annuinzio","D'Annunzio","D’Annuinzio","D’Annunzio","Qaryat al Bayyadah","qryt albyadt","قرية البياضة"],"lon":21.25415,"lat":32.56501,"pop":0},{"id":89039,"name":"Qaryat al Fā’idīyah","alt":["Al Fa'idiyah","Al Fayidiyah","Al Fāyidīyah","Al Fā’idīyah","Az Zawiyah al Fa'idiyah","Az Zawiyah al Fā’idīyah","De Martino","El Faldia","El-Faidia","El-Faidìa","Faidia","Qaryat al Fa'idiyah","Zauia el-Faidia","Zàuia el-Faidìa","qryt alfaydyt","قرية الفائدية"],"lon":21.90604,"lat":32.68845,"pop":0},{"id":2213942,"name":"Qaryat al Fayāşilah","alt":["Al Fayasilah","Al Fayāşilah","El-Fiasla","El-Fiásla","Gotros","Gótros","Qaryat al Fayasilah"],"lon":11.76741,"lat":31.85192,"pop":0},{"id":89026,"name":"Qaryat al Ghadrah","alt":["Al Ghaddarah","Al Ghaddārah","Qaryat al Ghadarah","qryt alghdrt","قرية الغدرة"],"lon":20.05915,"lat":31.80757,"pop":0},{"id":2213941,"name":"Qaryat al Ghawīl","lon":15.12961,"lat":32.37278,"pop":0},{"id":2213940,"name":"Qaryat al Ghūţ","alt":["Al Ghut","Al Ghūţ","Qaryat al Ghut","qryt alghwt","قرية الغوط"],"lon":15.10749,"lat":32.38592,"pop":0},{"id":2213939,"name":"Qaryat al Habārah","alt":["Al Habarah","Al Habārah","El-Habara","El-Habára","Habara","Habára","Qaryat al Habarah"],"lon":15.14877,"lat":32.36165,"pop":0},{"id":2213937,"name":"Qaryat al Ḩalībīyah","lon":19.96145,"lat":31.92137,"pop":0},{"id":2213935,"name":"Qaryat al Hamā’imah","alt":["Qaryat al Hama'imah","Qaryat al Hamayimah","Qaryat al Hamāyimah"],"lon":12.52917,"lat":32.02889,"pop":0},{"id":2213934,"name":"Qaryat al Hanādah","alt":["Hosc Ben Hnedi","Hosc Ben Hnédi","Qaryat al Hanadah","Qaryat al Ḩanādah","qryt alhnadt","قرية الهنادة"],"lon":14.15769,"lat":32.67689,"pop":0},{"id":2213933,"name":"Qaryat al Ḩuwayjāt","alt":["Qaryat al Hawayjat","Qaryat al Huwayjat","Qaryat al Ḩawayjāt"],"lon":14.14165,"lat":32.6193,"pop":0},{"id":2213932,"name":"Qaryat al Ja‘āfirah","lon":15.1492,"lat":32.37523,"pop":0},{"id":2213930,"name":"Qaryat al Jaţāliwah","lon":15.15469,"lat":32.38621,"pop":0},{"id":2213927,"name":"Qaryat al Kamshāt","alt":["Al Kumayshat","Al Kumayshāt","El-Cmesciat","El-Cmesciát","Qaryat al Kamshat"],"lon":13.10639,"lat":32.14278,"pop":0},{"id":2213926,"name":"Qaryat al Kārrān","alt":["Qaryat al Karran","qryt alkaran","قرية الكاران"],"lon":15.12602,"lat":32.36016,"pop":0},{"id":2213925,"name":"Qaryat al Khirbah","alt":["Al Khirbah","El Gherba","El-Cherba","El-Chérba"],"lon":11.89504,"lat":31.88076,"pop":0},{"id":84165,"name":"Qaryat al Lūfīyah","alt":["Qaryat al Lufiyah","Qaryat al Luwayfiyah","Qaryat al Luwayfīyah","qryt allwfyt","قرية اللوفية"],"lon":20.04771,"lat":31.86705,"pop":0},{"id":2213923,"name":"Qaryat al Ma‘ānīn","alt":["El-Maaniin","Qaryat al Ma`anin","Qaryat al Ma`nin","Qaryat al Ma‘nīn"],"lon":12.54491,"lat":32.06751,"pop":0},{"id":2213922,"name":"Qaryat al Maghāribah","alt":["Al Maqawibah","Al Maqāwibah","El-Magarba","El-Magauba","El-Magàrba","El-Magáuba","Qaryat al Magharibah","qryt almgharbt","قرية المغاربة"],"lon":15.11844,"lat":32.3958,"pop":0},{"id":84164,"name":"Qaryat al Majārīs","alt":["Qaryat al Majaris","qryt almjarys","قرية المجاريس"],"lon":20.02628,"lat":32.01616,"pop":0},{"id":84162,"name":"Qaryat al Malīḩah","alt":["Qaryat al Malihah","Qaryat al Māliḩah","qryt almlyht","قرية المليحة"],"lon":20.0636,"lat":31.83105,"pop":0},{"id":2213919,"name":"Qaryat al Mayāmīn","alt":["Al Mayamin","Al Mayāmīn","El-Miamin","El-Miamìn","Miamin","Miamín","Qaryat al Mayamin"],"lon":13.05389,"lat":32.23333,"pop":0},{"id":2219768,"name":"Qaryat al Qaddāḩīyah","alt":["Al Qaddahiyah","Al Qaddāḩīyah","El Ghadenia","El Gheddahia","Gheddahia","Gheddahìa","Qaryat al Qaddahiyah","alqdahyt","qryt alqdahyt","القداحية","قرية القداحية"],"lon":15.2476,"lat":31.36016,"pop":0},{"id":2213916,"name":"Qaryat al Qaţ‘","alt":["Al Qat`","Al Qaţ‘","El Gata","El Gáta","El-Gataa","El-Gátaa","Qaryat al Qat`"],"lon":11.89428,"lat":31.86577,"pop":0},{"id":88839,"name":"Qaryat al Qawārishah","alt":["Al Qawarishah","Al Qawārishah","El-Guarscia","Gouaraha","Gouarsha","Guarscia","Guàrscia","Qaryat al Qawarishah","alqwarsht","qryt alqwarsht","القوارشة","قرية القوارشة"],"lon":20.08432,"lat":32.00971,"pop":0},{"id":2218924,"name":"Qaryat al Qī‘ān","alt":["Badr","Qaryat al Qi`an","قرية القيعان"],"lon":11.54302,"lat":32.05572,"pop":0},{"id":2213914,"name":"Qaryat al Quşaybāt","lon":15.09016,"lat":32.40239,"pop":0},{"id":2213912,"name":"Qaryat al Wafāwāt","lon":15.1206,"lat":32.39642,"pop":0},{"id":2213911,"name":"Qaryat al Wuqayyāt","alt":["Al Wuqayyat","Al Wuqayyāt","Qaryat al Wiqayyat","Qaryat al Wiqayyāt","Qaryat al Wuqayyat","qryt alwqyat","قرية الوقيات"],"lon":14.58998,"lat":32.41971,"pop":0},{"id":2213909,"name":"Qaryat an Nadwah","alt":["An Nadwah","En-Nedua","En-Nédua","qryt alndwt","قرية الندوة"],"lon":11.89148,"lat":31.87412,"pop":0},{"id":2213908,"name":"Qaryat an Nushayh","alt":["qryt alnshyh","قرية النشيه"],"lon":10.76118,"lat":31.92383,"pop":0},{"id":2213905,"name":"Qaryat ar Ra‘īţāt","alt":["Er-Raedat","Qaryat ar Ra`itat"],"lon":15.15883,"lat":32.36699,"pop":0},{"id":2213904,"name":"Qaryat ar Ramlah","lon":15.1288,"lat":32.38523,"pop":0},{"id":2213903,"name":"Qaryat ar Ru’aysāt","alt":["Qaryat ar Ru'aysat","Qaryat ar Ruwaysat","Qaryat ar Ruwayşāt"],"lon":15.1114,"lat":32.36601,"pop":0},{"id":2213902,"name":"Qaryat ar Rūş","alt":["Qaryat ar Ru'us","Qaryat ar Rus","Qaryat ar Ru’ūs"],"lon":15.1698,"lat":32.37389,"pop":0},{"id":2213898,"name":"Qaryat aş Şabāyah","alt":["Qaryat as Saba'ih","Qaryat as Sabayah","Qaryat aş Şabāyaḩ","Qaryat aş Şabā’iḩ","qryt alsbayt","قرية الصباية"],"lon":14.23342,"lat":31.40217,"pop":0},{"id":2213901,"name":"Qaryat aş Şawābīyah","alt":["Qaryat as Sawabiyah","Qaryat as Sawagibah","Qaryat aş Sawāgibah"],"lon":15.11687,"lat":32.35215,"pop":0},{"id":2213897,"name":"Qaryat aş Şawādiq","alt":["Qaryat as Sawadaq","Qaryat as Sawadiq","Qaryat aş Şawādaq","qryt alswadq","قرية الصوادق"],"lon":15.12111,"lat":32.0219,"pop":0},{"id":2213896,"name":"Qaryat as Subaykhāt","alt":["Qaryat as Sabaykhat","Qaryat as Subaykhat","Qaryat aş Şabaykhāt"],"lon":15.12485,"lat":32.3944,"pop":0},{"id":2213895,"name":"Qaryat aş Şūwāk ‘Ayn Ghulū","alt":["Al Aswaq","Al Aswāq","El Asuagh","El Asuágh","El-Asuach","El-Asuách","Qaryat as Suwak `Ayn Ghulu","Qaryat as Suwwak `Ayn Ghuluww","Qaryat aş Şuwwāk ‘Ayn Ghuluww"],"lon":15.12574,"lat":32.34728,"pop":0},{"id":2213900,"name":"Qaryat ash Shuyyāb","alt":["Qaryat ash Shuyyab","qryt alshyab","قرية الشياب"],"lon":13.07781,"lat":30.91047,"pop":0},{"id":2213913,"name":"Qaryat at Tawālikīyah","lon":15.11889,"lat":32.39181,"pop":0},{"id":84155,"name":"Qaryat aţ Ţayrah","alt":["Qaryat at Tayrah","qryt altyrt","قرية الطيرة"],"lon":23.98003,"lat":32.06142,"pop":0},{"id":2213891,"name":"Qaryat Awlā Bin Shayyah","lon":15.13401,"lat":32.37878,"pop":0},{"id":2213890,"name":"Qaryat Awlād Abū Sha‘‘ālah","lon":15.15206,"lat":32.37434,"pop":0},{"id":2213888,"name":"Qaryat Awlād Dhu’ayb","alt":["Qaryat Awlad Dhu'ayb","Qaryat Awlad Duwayb","Qaryat Awlād Duwayb"],"lon":13.3,"lat":30.71667,"pop":0},{"id":2213889,"name":"Qaryat Awlād Duwāb","alt":["Qaryat Awlad Dhu'ayb","Qaryat Awlad Duwab","Qaryat Awläd Duwab","Qaryat Awlād Dhu’ayb","qryt awlad dwab","قرية أولاد دواب"],"lon":13.2534,"lat":30.67669,"pop":0},{"id":2213887,"name":"Qaryat Awlād Jamā‘ah","lon":13.04833,"lat":32.22,"pop":0},{"id":2218974,"name":"Qaryat az Zarrūq","alt":["Az Zarruq","Az Zarrūq","Qaryat az Zarrog","Qaryat az Zarrug","Qaryat az Zarruq","Qaryat az Zarrūg","Zarrugh","Zarruq","Zarrūq","Zorug","qryt alzrwq","zrwq","زروق","قرية الزروق"],"lon":15.13348,"lat":32.3749,"pop":0},{"id":2213875,"name":"Qaryat az Zurayqī","alt":["Az Zurayq","Ez-Zregh","Qaryat az Zuraygi","Qaryat az Zuraygī","Qaryat az Zurayqi","Zregh","Zurayq","qryt alzryqy","قرية الزريقي"],"lon":14.89734,"lat":32.43502,"pop":0},{"id":2213874,"name":"Qaryat Ballālah","lon":15.16528,"lat":32.37216,"pop":0},{"id":2213873,"name":"Qaryat Banī Musallam","alt":["Gmata","Gmàta","Qaryat Bani Musallam"],"lon":14.0475,"lat":32.59667,"pop":0},{"id":88205,"name":"Qaryat Baţţah","alt":["Battah","Baţţah","Qaryat Battah","qryt btt","قرية بطة"],"lon":21.10961,"lat":32.65988,"pop":0},{"id":2213872,"name":"Qaryat Bin Ḩasan","alt":["Bani Hasan","Banī Ḩasan","Beni Hasan","Beni Hsan","Bèni Hasàn","Béni Hsan","Qaryat Bin Hasan"],"lon":14.13417,"lat":32.68417,"pop":0},{"id":2213871,"name":"Qaryat Bin Tallīs","alt":["Awlad Tallis","Awlād Tallīs","Qaryat Bin Tallis","Qaryat Bin Tillis","Qaryat Bin Tillīs","Ulad Tellis","Ulád Tellís"],"lon":14.07168,"lat":31.80054,"pop":0},{"id":2213870,"name":"Qaryat Bishr","alt":["Qaryat Bashir","Qaryat Bashīr","qryt bshr","قرية بشر"],"lon":19.42543,"lat":30.29145,"pop":0},{"id":2220431,"name":"Qaryat Bū Nujaym","alt":["Abu Njaym","Abu Nujaym","Abū Njaym","Abū Nujaym","Bu Ngem","Bu Nujaym","Bū Nujaym","Ngem","Qaryat Abu Nujaym","Qaryat Abū Nujaym","Qaryat Bu Nujaym","qryt bw njym","قرية بو نجيم"],"lon":15.39579,"lat":30.58165,"pop":0},{"id":2213868,"name":"Qaryat Bū Ruwayyah","alt":["Bu Rawiyyah","Bu Rueia","Bu Ruéia","Bū Rawiyyah","Qaryat Bu Rawayyah","Qaryat Bu Ruwayyah","Qaryat Bū Rawayyah","qryt bw rwyt","قرية بو روية"],"lon":14.95395,"lat":32.38904,"pop":0},{"id":2213865,"name":"Qaryat Dajājirah","alt":["Qaryat Dajajirah","Qaryat Dijajirah","Qaryat Dijājirah"],"lon":15.13129,"lat":32.33841,"pop":0},{"id":2213861,"name":"Qaryat Hanshīr al Budūr","alt":["Qaryat Hanshir al Budur","Qaryat Hinsir al Budawr","Qaryat Hinsīr al Budawr","qryt hnshyr albdwr","قرية هنشير البدور"],"lon":14.14989,"lat":32.61961,"pop":0},{"id":2213860,"name":"Qaryat Ḩasan al Ḩājj","alt":["Qaryat Hasan al Haj","Qaryat Hasan al Hajj","Qaryat Ḩasan al Ḩāj"],"lon":15.11617,"lat":32.38755,"pop":0},{"id":2213859,"name":"Qaryat Ḩujjājah","alt":["Qaryat Hijjajah","Qaryat Hijjājah","Qaryat Hujjajah"],"lon":14.55869,"lat":32.45758,"pop":0},{"id":2213858,"name":"Qaryat Ismā‘īl","lon":15.1404,"lat":32.39405,"pop":0},{"id":85998,"name":"Qaryat Jardīnah","alt":["Giardina","Giardīna","Jardinah","Jardīnah","Qaryat Jardinah","jrdynt","qryt jrdynt","جردينة","قرية جردينة"],"lon":20.20354,"lat":31.79247,"pop":0},{"id":2216309,"name":"Qaryat Jarrūfah","alt":["Giarruta","Giarrúta","Jarrutah","Jarrūţah","Jaruthah","Jārūthah","Qaryat Jarrufah","qryt jrwft","قرية جروفة"],"lon":19.97966,"lat":31.81614,"pop":0},{"id":2216291,"name":"Qaryat Jītāl","alt":["Geital","Geitál","Jaytal","Jayţāl","Qaryat Jital","Qaryat Jīţāl","qryt jytal","قرية جيتال","قرية جيطال"],"lon":11.88153,"lat":31.8967,"pop":0},{"id":84141,"name":"Qaryat Maqrūn","alt":["Qaryat Maqrun","qryt mqrwn","قرية مقرون"],"lon":23.83478,"lat":32.10883,"pop":0},{"id":2213857,"name":"Qaryat Marwān","alt":["Marwan","Marwān","Meruan","Meruán","Qaryat Marwan","Qaryat Murwan","Qaryat Murwān"],"lon":13.06917,"lat":32.13861,"pop":0},{"id":2213855,"name":"Qaryat Mazghūrah","alt":["Mazghurah","Mazghūrah","Mesghoura","Mezgura","Qaryat Mazghurah","Qaryat Mazqhurah","Qaryat Mazqhūrah","Qaryat Mazqurah","Qaryat Mazqūrah","qryt mzghwrt","قرية مزغورة"],"lon":11.96908,"lat":31.96591,"pop":0},{"id":2213854,"name":"Qaryat Mazzū","alt":["Mazzu","Mazzū","Mezzou","Mezzu","Qaryat Mazzu"],"lon":12.01976,"lat":31.94595,"pop":0},{"id":2213852,"name":"Qaryat Nābūkar","lon":13.0375,"lat":32.16028,"pop":0},{"id":2213851,"name":"Qaryat Nadbās","alt":["Nadbas","Nadbās","Nedbas","Qaryat Nadbas","qryt ndbas","قرية ندباس"],"lon":11.96882,"lat":31.9509,"pop":0},{"id":2213848,"name":"Qaryat Qarārah","alt":["Grara","Grára","Qaryat Qararah"],"lon":15.11787,"lat":32.38009,"pop":0},{"id":2213844,"name":"Qaryat Qārāt","lon":13.06861,"lat":32.2025,"pop":0},{"id":2213847,"name":"Qaryat Qārāt","lon":13.07583,"lat":32.21194,"pop":0},{"id":84138,"name":"Qaryat Qāryūnis","alt":["Garyounis","Qaryat Qaryunas","Qaryat Qaryunis","Qaryat Qaryūnas","Qaryat Qaryūnis","Qaryunus","Qāryūnus","qarywns","qryt qarywns","قاريونس","قرية قاريونس"],"lon":20.0415,"lat":32.05195,"pop":0},{"id":84136,"name":"Qaryat Qaşr al ‘Ajūz","lon":20.26667,"lat":32.3,"pop":0},{"id":84135,"name":"Qaryat Qunfūdhah","alt":["Qaryat Qanfudah","Qaryat Qanfūdah","Qaryat Qunfudah","Qaryat Qunfudhah","Qaryat Qunfūdah","qryt qnfwdht","qryt qnfwdt","قرية قنفودة","قرية قنفوذة"],"lon":20.01638,"lat":32.02906,"pop":0},{"id":2213840,"name":"Qaryat Ra’s ‘Alī","alt":["Qaryat Ra's `Ali","Ras Ali","Ras Alī"],"lon":15.1072,"lat":32.37902,"pop":0},{"id":2213841,"name":"Qaryat Ra’s Abū Ḩammār","lon":15.15359,"lat":32.36485,"pop":0},{"id":2213839,"name":"Qaryat Ra’s ath Thūmah","alt":["Qaryat Ra's at Tumah","Qaryat Ra's ath Thumah","Qaryat Rā’s at Tūmah"],"lon":15.09088,"lat":32.38249,"pop":0},{"id":2213838,"name":"Qaryat Rufaydah","alt":["Qaryat Rutaydah","qryt rfydt","قرية رفيدة"],"lon":15.0974,"lat":32.33158,"pop":0},{"id":2213834,"name":"Qaryat Şawwān","alt":["Qaryat Sawwan","qryt swan","قرية صّوان"],"lon":16.15598,"lat":29.1739,"pop":0},{"id":2213833,"name":"Qaryat Shumaykh","alt":["Qaryat Ishyamkh","Scemech","Shumaykh"],"lon":13.95186,"lat":31.41169,"pop":0},{"id":82124,"name":"Qaryat Sīdī Khalīfah","alt":["Qaryat Sidi Khalifah","Sidi Chalifa","Sidi Kalifa","Sidi Khalifah","Sīdī Khalīfah","qryt sydy khlyft","قرية سيدي خليفة"],"lon":20.19691,"lat":32.25623,"pop":0},{"id":82094,"name":"Qaryat Sīdī Mahyūb","alt":["Qaryat Sidi Mahyub","Sidi Mahius","Sidi Mahyus","Sídi Mahiús","Sīdī Mahyūs","qryt sydy mhywb","sydy mhyws","سيدي مهيوس","قرية سيدي مهيوب"],"lon":20.73795,"lat":32.24665,"pop":0},{"id":84131,"name":"Qaryat Sīdī Shāhir ad Dīn","alt":["Grued Si Nur ed Din","Qaryat Sidi Shahir ad Din","qryt sydy shahr aldyn","قرية سيدي شاهر الدين"],"lon":20.85422,"lat":32.66107,"pop":0},{"id":2213830,"name":"Qaryat Su‘ūd","alt":["Qaryat Sa`ud","Qaryat Sa‘ūd","Qaryat Su`ud"],"lon":15.13236,"lat":32.38568,"pop":0},{"id":81604,"name":"Qaryat Sulūq","alt":["Qaryat Salug","Qaryat Saluq","Qaryat Salūg","Qaryat Salūq","Qaryat Suluq","Soluch","Solugh","Solùgh","Suluq","Sulūq","qryt slwq","slwq","سلوق","قرية سلوق"],"lon":20.25205,"lat":31.66818,"pop":15543},{"id":2210586,"name":"Qaryat Sūq al Jum‘ah","alt":["Qaryat Suq al Jum`ah","Sugh el Giumaa","Suq al Jum`ah","Sūq al Jum‘ah","قرية سوق الجمعة"],"lon":13.67319,"lat":32.62277,"pop":0},{"id":2213831,"name":"Qaryat Şūr A‘rābī","alt":["Qaryat Sur A`rabi","Qaryat Sur I`rabi","Qaryat Şūr I‘rābī"],"lon":15.1092,"lat":32.38872,"pop":0},{"id":2213832,"name":"Qaryat Şūr al ‘Ūd","lon":15.13626,"lat":32.38623,"pop":0},{"id":2213829,"name":"Qaryat T","lon":10.4632,"lat":30.21257,"pop":0},{"id":2209873,"name":"Qaryat Tūnīn","alt":["Qaryat Tunin","Qaryat Tunīn","Tounine","Tunin","Tūnīn","qryt twnyn","قرية تونين"],"lon":9.46578,"lat":30.13534,"pop":0},{"id":84129,"name":"Qaryat Umm ad Danānīr","alt":["Qaryat Umm ad Dananir","qryt am aldnanyr","قرية أم الدنانير"],"lon":20.05392,"lat":31.89788,"pop":0},{"id":2213824,"name":"Qaryat Umm an Na‘ām","alt":["Qaryat Umm an Na`am","أم النعام"],"lon":13.13531,"lat":30.76792,"pop":0},{"id":84128,"name":"Qaryat Umm aş Şafā’","alt":["Qaryat Umm as Safa","Qaryat Umm as Safa'","Qaryat Umm as Safri'","Qaryat Umm aş Şafrī’","Qaryat Umm aş Şafā","qryt am alsfa","قرية أم الصفا","قرية أم الصفاء"],"lon":20.10756,"lat":31.83907,"pop":0},{"id":84123,"name":"Qaryūnus","alt":["Gariunes","Mintaqat Qaryunis","Minţaqat Qaryūnis","Qaryunis","Qaryunus","Qaryūnis","qrywns","قريونس"],"lon":20.05199,"lat":32.0639,"pop":0},{"id":2213364,"name":"Qarzah","alt":["Ghirza","Ghírza","Qirdah","qrzt","قرزة"],"lon":14.5698,"lat":30.96592,"pop":0},{"id":2213811,"name":"Qaşabat ‘Akkah","lon":12.58727,"lat":32.04996,"pop":0},{"id":2213800,"name":"Qaşabat Mādī","lon":12.53658,"lat":32.07444,"pop":0},{"id":2213792,"name":"Qaşbat Diyāb","alt":["Qasabat Diyab","Qasbat Dhiyab","Qasbat Diyab","Qaşabat Diyāb","Qaşbat Dhiyāb","qsbt dyab","قصبة دياب"],"lon":10.45019,"lat":30.1819,"pop":0},{"id":8354477,"name":"Qasr Abu Hadi","alt":["Qaşr Abū Hādī","qsr abw hady","قصر ابو هادي"],"lon":16.65905,"lat":31.05926,"pop":4890},{"id":2213766,"name":"Qaşr Aḩmad al Qiblīyah","alt":["Gasr Ahmed","Qasr Ahmad","Qasr Ahmad al Bahriyah","Qasr Ahmad al Qibliyah","Qaşr Aḩmad","Qaşr Aḩmad al Bahrīyah","qsr ahmd alqblyt","قصر أحمد القبلية"],"lon":15.19881,"lat":32.37184,"pop":0},