[{"id":618664,"name":"Abaclia","alt":["Abaklija","Abakliya","Abaklydzhaba","Абаклия"],"lon":28.94221,"lat":46.36016,"pop":0},{"id":618659,"name":"Acui","alt":["Acui de Mijloc","Akuj","Akuy","Akuy Sredniy","Sredniy Okuy","Акуй"],"lon":28.42544,"lat":46.1872,"pop":0},{"id":618660,"name":"Acui de Jos","alt":["Akuy Nizhniy","Nizhniy Okuy"],"lon":28.43361,"lat":46.17806,"pop":0},{"id":864951,"name":"Acui de Sus","lon":28.4175,"lat":46.19639,"pop":0},{"id":618104,"name":"Adjiler","alt":["Khadzhailar","Khadzhilar"],"lon":29.62083,"lat":46.49278,"pop":0},{"id":829937,"name":"Afanasievca","alt":["Afanas'evka","Afanas'yevka","Afanas’yevka","Афанасьевка"],"lon":29.25345,"lat":47.32272,"pop":0},{"id":618662,"name":"Afumaţi","alt":["Afumats'"],"lon":28.21056,"lat":46.98444,"pop":0},{"id":618661,"name":"Agronomovca","alt":["Agronomovka","Agronomul","Агрономовка"],"lon":27.89244,"lat":47.34875,"pop":0},{"id":618658,"name":"Alava","alt":["Galava"],"lon":29.56825,"lat":46.50929,"pop":0},{"id":618657,"name":"Albina","lon":28.6423,"lat":46.70594,"pop":0},{"id":617703,"name":"Albineţul Nou","alt":["Albinetul Nou","Novyj Albinec","Novyy Albinets","Новый Албинец"],"lon":27.61935,"lat":47.58131,"pop":0},{"id":617347,"name":"Albineţul Vechi","alt":["Albinets","Albinetul Vechi","Staryj Albinec","Staryy Albinets","Старый Албинец"],"lon":27.63544,"lat":47.559,"pop":0},{"id":829921,"name":"Albiniţa","alt":["Albinica","Albinita","Albinitsa","Албиница"],"lon":29.1842,"lat":46.89165,"pop":0},{"id":617746,"name":"Albota de Jos","alt":["Nizhnjaja Albota","Nizhnyaya Albota","Staraya Albota","Нижняя Албота"],"lon":28.48573,"lat":45.94228,"pop":0},{"id":617130,"name":"Albota de Sus","alt":["Albota","Novaya Albota","Verkhnjaja Albota","Verkhnyaya Albota","Верхняя Албота"],"lon":28.47545,"lat":45.96996,"pop":0},{"id":618656,"name":"Alcedar","alt":["Alchedar","Alchedary","Алчедар"],"lon":28.87503,"lat":47.86828,"pop":0},{"id":618650,"name":"Aleksandrovka","alt":["Aleksandru chel Bun"],"lon":28.66056,"lat":46.51194,"pop":0},{"id":617933,"name":"Alexanderfeld","alt":["Aleksandrofel'd","Aleksandrofel’d","Aleksandru Chel Bun","Alexandru cel Bun","Campeni","Cimpeni","Câmpeni","Cîmpeni","Kympen'","Kympen’","Кымпень"],"lon":28.42812,"lat":45.80855,"pop":0},{"id":618653,"name":"Alexăndreni","alt":["Aleksandren' Nouy","Aleksandreny","Aleksandren’ Nouy","Alexandreni","Александрены"],"lon":27.26159,"lat":48.14845,"pop":0},{"id":618655,"name":"Alexăndreni","alt":["Aleksandreni-Tyrg","Aleksandreny","Aleksandrovsk","Alexandreni","Alexandreni Targ","Alexandreni Târg","Александрены"],"lon":28.07781,"lat":47.80719,"pop":0},{"id":618652,"name":"Alexandreşti","alt":["Aleksandreshti","Aleksandreshty","Aleksandrovka"],"lon":28.4125,"lat":46.05028,"pop":0},{"id":824102,"name":"Alexăndreşti","alt":["Aleksandreshty","Alexandresti","Александрешты"],"lon":27.43201,"lat":47.89398,"pop":0},{"id":618648,"name":"Alexandrovca","alt":["Aleksandrovka","Александровка"],"lon":28.55387,"lat":48.03039,"pop":0},{"id":618649,"name":"Alexandrovca","alt":["Aleksandreni Noua","Aleksandrovka","Alexandrenii Noi","Александровка"],"lon":29.0206,"lat":46.72587,"pop":0},{"id":618651,"name":"Alexandrovca","alt":["Aleksandrovka","Alexandra","Александровка"],"lon":28.2679,"lat":46.22926,"pop":0},{"id":618654,"name":"Alexandrovca","alt":["Aleksandren'","Aleksandreny","Aleksandren’","Aleksandrovka","Александровка"],"lon":28.13017,"lat":47.95401,"pop":0},{"id":617742,"name":"Alexandrovca Nouă","alt":["Alexandrovca Noua","Novaja Aleksandrovka","Novaya Aleksandrovka","Новая Александровка"],"lon":29.3031,"lat":47.29956,"pop":0},{"id":829715,"name":"Alexandru cel Bun","alt":["Aleksandru-chel-Bun","Александру-чел-Бун"],"lon":28.34013,"lat":48.09667,"pop":0},{"id":617285,"name":"Alexandru Ioan Cuza","alt":["Aleksandru Ioan Kuza","Cuza-Voda","Cuza-Vodă","Khadzhi-Abdul","Khadzhsi-Abduly","Kuza Voda","Suvorovo","Суворово"],"lon":28.45039,"lat":45.59692,"pop":0},{"id":618642,"name":"Alexeevca","alt":["Alekseevka","Alekseyevka","Aleksiyen'","Aleksiyen’","Алексеевка"],"lon":27.26191,"lat":48.09378,"pop":0},{"id":618644,"name":"Alexeevca","alt":["Alekseevka","Aleksen'","Alekseni","Aleksen’","Alekseyevka","Alexeieni","Алексеевка"],"lon":28.28662,"lat":47.94275,"pop":0},{"id":618646,"name":"Alexeevca","alt":["Alekseevka","Alekseyevka","Aleksiyen'","Aleksiyen’","Алексеевка"],"lon":27.93723,"lat":47.26917,"pop":0},{"id":618647,"name":"Alexeevca","alt":["Alekseevka","Alekseyevka","Alexcieni","Alexeeni","Novo-Alekseyevka","Алексеевка"],"lon":28.56835,"lat":46.02539,"pop":0},{"id":618645,"name":"Alexeuca","alt":["Aleksandriya","Alekseevka","Alekseyevka","Aleksiyen'","Aleksiyen’","Алексеевка"],"lon":28.28779,"lat":47.6891,"pop":0},{"id":618641,"name":"Aluatu","alt":["Alauat","Alaut","Aluat","Aluatul","Алуат"],"lon":28.58304,"lat":45.86557,"pop":0},{"id":618640,"name":"Aluniş","alt":["Alunis","Alunish","Алуниш"],"lon":27.65408,"lat":47.84704,"pop":0},{"id":618639,"name":"Andreevca","alt":["Andreevka","Andreyevka","Bukhta","Андреевка"],"lon":29.16912,"lat":47.76417,"pop":0},{"id":831044,"name":"Andreevca","alt":["Andreevka","Andreyevka","Yegorovka","Андреевка"],"lon":28.87489,"lat":47.53839,"pop":0},{"id":617741,"name":"Andriaşevca Nouă","alt":["Andriasevca Noua","Novaja Andrijashevka","Novaya Andreyashevka","Novaya Andryashevka","Novaya- Andriyashevka","Новая Андрияшевка"],"lon":29.95429,"lat":46.83555,"pop":0},{"id":617358,"name":"Andriasevca Veche","alt":["Andreyashevka","Staraja-Andrijashevka","Staraya Andriyashevka","Staraya-Andryashevka","Старая-Андрияшевка"],"lon":29.97098,"lat":46.82078,"pop":0},{"id":617752,"name":"Andruşul de Jos","alt":["Andrusha-de-Zhos","Andrusu de Jos","Andrusul de Jos","Andruşu de Jos","Nizhnij Andrush","Nizhniy Andrush","Nizhniye Andrushi","Нижний Андруш"],"lon":28.22042,"lat":45.98491,"pop":0},{"id":617135,"name":"Andruşul de Sus","alt":["Andrusha Verkhnyaya","Andrushu","Andrusu de Sus","Andrusul de Sus","Andruşu de Sus","Verkhnij Andrush","Verkhniy Andrush","Verkhniye Andrushi","Verxniy Andrush","Верхний Андруш"],"lon":28.24611,"lat":46.00879,"pop":0},{"id":617702,"name":"Anenii Noi","alt":["Aneni Nouy","Anenii Noui","Novo-Aneny","Novye Aneny","Novyye Aneny","Новые Анены"],"lon":29.23483,"lat":46.87839,"pop":8250},{"id":829652,"name":"Anini","alt":["Aneny","Anin","Анены"],"lon":28.4643,"lat":46.8899,"pop":0},{"id":618637,"name":"Antoneşti","alt":["Antonesht'","Antonesht’","Antonesti","Antonovka","Антоновка"],"lon":29.84724,"lat":46.49387,"pop":0},{"id":618638,"name":"Antoneşti","alt":["Antoneshty","Antonesti","Antonovka","Shuvylka","Антоновка"],"lon":28.21605,"lat":46.33273,"pop":0},{"id":618635,"name":"Antoneuca","alt":["Antonen'","Antonen’","Antonovka","Антоновка"],"lon":27.69469,"lat":48.0759,"pop":0},{"id":618636,"name":"Antonovca","alt":["Antineni","Antonen'","Antonen’","Antonovka","Антоновка"],"lon":28.23691,"lat":47.67445,"pop":0},{"id":831057,"name":"Antonovca","alt":["Antonovka","Антоновка"],"lon":28.21389,"lat":47.78683,"pop":0},{"id":618634,"name":"Arioneşti","alt":["Arianeshty","Arionesht'","Arioneshty","Arionesht’","Arionesti","Арионешты"],"lon":27.85027,"lat":48.372,"pop":0},{"id":863762,"name":"Armanca","alt":["Armanka","Арманка"],"lon":27.52514,"lat":47.98602,"pop":0},{"id":618633,"name":"Artimonovca","alt":["Artemonovka","Artimonesti","Artimoneşti","Artimonovka","Maksimen' Pervyy","Maksimeny Pervyye","Maksimen’ Pervyy","Maximeni I","Maxineni I","Артемоновка"],"lon":28.58981,"lat":46.5968,"pop":0},{"id":618632,"name":"Asnăşeni","alt":["Asnashen'","Asnasheny","Novaya Romanovka"],"lon":29.23194,"lat":46.99472,"pop":0},{"id":618629,"name":"Avdarma","lon":28.83814,"lat":46.25158,"pop":0},{"id":618628,"name":"Avrămeni","alt":["Avramen'","Avrameni","Avrameny","Avramen’","Аврамень"],"lon":27.26585,"lat":47.7851,"pop":0},{"id":618620,"name":"Baccealia","alt":["Bachkalija","Bachkaliya","Bakchaliya","Бачкалия"],"lon":29.28289,"lat":46.69306,"pop":0},{"id":618462,"name":"Bâcioc","alt":["Bacioc","Bicioc","Bychek","Bychok","Bîcioc","Бычок"],"lon":29.48148,"lat":46.92482,"pop":0},{"id":618627,"name":"Băcioi","alt":["Bachoj","Bachoy","Bachoyu","Bacioi","Bacioiu","Bechioyu","Băcioiu","Бачой"],"lon":28.89908,"lat":46.91404,"pop":0},{"id":829666,"name":"Băcioii Noi","alt":["Bacioii Noi","Novyy Bachoy"],"lon":28.92722,"lat":46.955,"pop":0},{"id":618616,"name":"Băcşeni","alt":["Bacseni","Bakshen'","Baksheni","Baksheny","Bakshen’","Бакшены"],"lon":28.0173,"lat":47.08951,"pop":0},{"id":618626,"name":"Bădiceni","alt":["Badiceni","Badichani","Badichany","Badichen'","Badichen’","Bodichany","Бадичаны"],"lon":28.05257,"lat":48.20337,"pop":0},{"id":618624,"name":"Badicu-Nou","alt":["Badyku-Novoye","Novaya Badyku","Novoye Badiko"],"lon":28.24472,"lat":46.09472,"pop":0},{"id":618625,"name":"Badicul Moldovenesc","alt":["Badicu","Badicul","Badiko Moldavanskoye","Badiko-Moldavan","Badiku","Badiku-Moldavskoe","Badiku-Moldavskoye","Badyku-Moldavskoye","Staroye Badiko","Бадику-Молдавское"],"lon":28.26486,"lat":46.09513,"pop":0},{"id":829549,"name":"Bădragii Noi","alt":["Badragii Noi","Novye Badrazhi","Novyye Badrazhi","Новые Бадражи"],"lon":27.07601,"lat":48.06204,"pop":0},{"id":617346,"name":"Bădragii Vechi","alt":["Badradzhi-Vek'","Badradzhi-Vek’","Badragii Vechi","Badragii-Vechi","Bagragii Vechi","Băgragii Vechi","Starye Badrazhi","Staryy Badrazh","Staryye Badrazhi","Старые Бадражи"],"lon":27.10896,"lat":48.03712,"pop":0},{"id":618619,"name":"Bahmut","alt":["Bakhmut","Бахмут"],"lon":28.11454,"lat":47.32347,"pop":0},{"id":618622,"name":"Băhrineşti","alt":["Bagrinesht'","Bagrineshti","Bagrineshty","Bagrinesht’","Bahrinesti","Багринешты"],"lon":28.24431,"lat":47.85657,"pop":0},{"id":618618,"name":"Bahu","alt":["Bagu","Bakhu","Baxu","Баху"],"lon":28.46632,"lat":47.42209,"pop":0},{"id":618586,"name":"Baimaclia","alt":["Bajmaklija","Baymakliya","Баймаклия"],"lon":29.09652,"lat":46.58945,"pop":0},{"id":618587,"name":"Baimaclia","alt":["Bajmaklija","Baymakliya","Баймаклия"],"lon":28.38888,"lat":46.18749,"pop":0},{"id":618599,"name":"Bairamcea","alt":["Barancha-Moskovey"],"lon":28.35861,"lat":45.9275,"pop":0},{"id":618585,"name":"Băiuş","alt":["Baius","Bajush","Bayush","Bayusha","Баюш"],"lon":28.47371,"lat":46.44744,"pop":0},{"id":618615,"name":"Bâlăbăneşti","alt":["Balabanesht'","Balabaneshty","Balabanesht’","Balabanesti","Balahanesht'","Balahanesht’","Балабанешты"],"lon":29.13584,"lat":47.06843,"pop":0},{"id":618614,"name":"Balabanu","alt":["Balaban","Balabany","Балабан"],"lon":28.57603,"lat":45.93387,"pop":0},{"id":618613,"name":"Bălăneşti","alt":["Balanesht'","Balaneshty","Balanesht’","Balanesti","Баланешты"],"lon":28.0643,"lat":47.20801,"pop":0},{"id":829852,"name":"Bălanu Nou","alt":["Balanu Nou","Balanul Nou","Novyj Balan","Novyy Balan","Новый Балан"],"lon":27.50147,"lat":47.96116,"pop":0},{"id":618611,"name":"Bălăşecţi","alt":["Balasecti","Balasheshty","Balashet'","Balashet’","Балашешты"],"lon":29.04463,"lat":47.26588,"pop":0},{"id":618610,"name":"Bălăşeşti","alt":["Balasesti","Balasheshty","Razeleu","Балашешты"],"lon":28.35182,"lat":47.66052,"pop":0},{"id":618609,"name":"Balasineşti","alt":["Balasineshti","Balasineshty","Balasinesti","Баласинешты"],"lon":26.96102,"lat":48.24495,"pop":0},{"id":618540,"name":"Balatina","alt":["Balotina","Bolotina","Bolotino","Болотино"],"lon":27.34349,"lat":47.69459,"pop":0},{"id":618608,"name":"Bălăureşti","alt":["Balauresht'","Balaureshty","Balauresht’","Balauresti","Bolagureshty","Балаурешты"],"lon":28.13521,"lat":46.93747,"pop":0},{"id":618607,"name":"Bălcăuţi","alt":["Balcauti","Balkaucy","Balkauts De Zhos","Balkautsy","Балкауцы"],"lon":27.20175,"lat":48.28573,"pop":0},{"id":618544,"name":"Bălceana","alt":["Balceana","Balchan","Balchana","Bolchana","Bolchany","Болчаны"],"lon":28.40874,"lat":46.84475,"pop":0},{"id":829708,"name":"Balinţi","alt":["Balincy","Balinti","Balintsy","Балинцы"],"lon":28.0215,"lat":48.32292,"pop":0},{"id":618606,"name":"Balmaz","lon":29.28533,"lat":46.79774,"pop":0},{"id":618604,"name":"Bălţata","alt":["Balcata","Baltata","Baltsata","Балцата"],"lon":29.04835,"lat":47.05255,"pop":0},{"id":617129,"name":"Bălţata de Sus","alt":["Baltata de Sus","Baltsata","Verkhnjaja Balcata","Verkhnyaya Baltsata","Верхняя Балцата"],"lon":29.03504,"lat":47.0658,"pop":0},{"id":618603,"name":"Bălţaţi","alt":["Balcac","Baltati","Baltsats","Балцац"],"lon":28.95321,"lat":46.84195,"pop":0},{"id":618605,"name":"Bălţi","alt":["BZY","Balti","Baltsy","Behlc'","Bel'cy","Bel'tsy","Belcai","Belci","Beltsi","Bel’tsy","Bielce","Byelcy","Bălți","Municipalite de Balti","Municipalité de Bălţi","blzy","Белци","Бельцы","Бэлць","בלצי"],"lon":27.92932,"lat":47.76314,"pop":125000},{"id":618601,"name":"Băneşti","alt":["Baneshti","Baneshty","Banesti","Vaneshty","Банешты"],"lon":28.38368,"lat":47.57026,"pop":0},{"id":617700,"name":"Băneştii Noi","alt":["Baneshti-Nou","Baneshti-Nouy","Banestii Noi","Novye Baneshty","Novyye Baneshty","Новые Банешты"],"lon":28.40018,"lat":47.58244,"pop":0},{"id":618600,"name":"Baraboi","alt":["Barabay","Baraboj","Baraboy","Барабой"],"lon":27.62007,"lat":48.08454,"pop":0},{"id":618598,"name":"Bărboieni","alt":["Barboeny","Barboieni","Barboyany","Barboyen'","Barboyeny","Barboyen’","Барбоены"],"lon":28.06002,"lat":47.02018,"pop":0},{"id":618596,"name":"Barcareni","alt":["Barkaren'","Barkarovka"],"lon":29.17722,"lat":46.78278,"pop":0},{"id":618597,"name":"Bardar","alt":["Bardaru","Bărdaru"],"lon":28.66982,"lat":46.90273,"pop":0},{"id":618595,"name":"Baroncea","alt":["Barancha","Baroncha","Баронча"],"lon":27.91462,"lat":48.03369,"pop":0},{"id":829542,"name":"Baroncea Nouă","alt":["Baroncea Noua","Novaja Baroncha","Novaya Baroncha","Новая Баронча"],"lon":27.85128,"lat":47.99738,"pop":0},{"id":618568,"name":"Basarabca","alt":["Bessarabka","Poselok Bessarabka","Posëlok Bessarabka","Бессарабка"],"lon":29.16063,"lat":47.57677,"pop":0},{"id":618594,"name":"Basarabeasca","alt":["Basarabiaska","Besarabka","Bessarabka","Bessarabskaya","Bessarabskiy","Romaneshti","Romanesti","Romanovka","Romanovo","Romynesht'","Romynesht’","Româneşti","ba sa la bei ya si ka","basalabeaseuka","basarabyaska","bysarabka","Бесарабка","Бессарабка","باسارابياسكا","بیسارابکا","ბასარაბეასკა","巴薩拉貝亞斯卡","바사라베아스카"],"lon":28.96365,"lat":46.3317,"pop":10809},{"id":618593,"name":"Başcalia","alt":["Bascalia","Bashkalija","Bashkaliya","Башкалия"],"lon":28.78666,"lat":46.30856,"pop":0},{"id":618591,"name":"Batîc","alt":["Batac","Batic","Batyk","Batâc","Батык"],"lon":29.19053,"lat":46.79614,"pop":0},{"id":618590,"name":"Batîr","alt":["Batar","Batir","Batyr","Batâr","Батыр"],"lon":29.00263,"lat":46.57579,"pop":0},{"id":618589,"name":"Baurci","alt":["Baurchi","Baurci-Moldoveni","Баурчи"],"lon":28.67635,"lat":46.09623,"pop":0},{"id":864966,"name":"Baurci","alt":["Baruch","Baurchi","Баурчи"],"lon":28.95022,"lat":46.65769,"pop":0},{"id":618588,"name":"Baurci-Moldoveni","alt":["Baurchi Moldavan","Baurchi-Moldovan","Baurchi-Moldoven'","Baurchi-Moldoven’","Romani","Romeni","Români","Баурчи-Молдовень"],"lon":28.22834,"lat":46.03054,"pop":0},{"id":618617,"name":"Băxani","alt":["Baksan'","Baksany","Baksan’","Baxani","Баксаны"],"lon":28.09244,"lat":48.12605,"pop":0},{"id":829872,"name":"Beleuţi","alt":["Beleuti","Beleutsy"],"lon":27.90416,"lat":47.66475,"pop":0},{"id":618581,"name":"Beloci","alt":["Beloche","Belochi","Bieloc","Bielocz","Белочи"],"lon":28.9782,"lat":47.88696,"pop":0},{"id":618577,"name":"Bender","alt":["Bendary","Bendehr","Bendera","Benderai","Benderi","Bendery","Bəndər","Tighina","Tigina","bendeleu","benderi","benderu","bin jie li","byndr","byndr  maldwwa","tygynh","Бендер","Бендери","Бендеры","Бендэр","Тигина","טיגינה","بيندر","بیندر، مالدووا","ბენდერი","ベンデル","賓傑里","벤데르"],"lon":29.47769,"lat":46.83156,"pop":110175},{"id":712456,"name":"Berdichi","lon":27.65,"lat":48.18333,"pop":0},{"id":618576,"name":"Bereshty","alt":["Beresht'","Beresti","Berești"],"lon":27.78333,"lat":47.23333,"pop":0},{"id":618574,"name":"Berezlogi","alt":["Berezlodzh'","Berezlodzhi","Berezlodzh’","Berezlozh","Berezlozhi","Березложи"],"lon":28.93388,"lat":47.43699,"pop":0},{"id":829571,"name":"Berezovca","alt":["Berezovka","Berëzovka","Березовка"],"lon":27.77943,"lat":48.38183,"pop":0},{"id":618575,"name":"Beriozchi","alt":["Berezki","Berëzki","Brezok"],"lon":29.25785,"lat":46.87197,"pop":0},{"id":618573,"name":"Berlinţi","alt":["Berlincy","Berlinti","Berlintsy","Берлинцы"],"lon":26.93698,"lat":48.31049,"pop":0},{"id":618572,"name":"Beşalma","alt":["Besalma","Beshalma","Бешалма"],"lon":28.64695,"lat":46.16913,"pop":0},{"id":618571,"name":"Beşghioz","alt":["Besghioz","Besh-Gios","Beshgioz","Бешгиоз"],"lon":28.87439,"lat":46.11916,"pop":0},{"id":618570,"name":"Beştemac","alt":["Beshtemak","Beshtymak","Beshtymik","Bestemac","Бештемак"],"lon":28.52892,"lat":46.52604,"pop":0},{"id":824182,"name":"Bezeda","lon":27.00137,"lat":48.15914,"pop":0},{"id":618564,"name":"Bezeni","alt":["Bezeny","Brezen'","Brezen’","Безены"],"lon":28.11811,"lat":47.97699,"pop":0},{"id":829664,"name":"Bîc","alt":["Bic","Byk","Бык"],"lon":28.93727,"lat":46.965,"pop":0},{"id":618558,"name":"Bieşti","alt":["Bieshty","Biesti","Biyesht'","Biyeshty","Biyesht’","Биешты"],"lon":28.85717,"lat":47.51696,"pop":0},{"id":617699,"name":"Bilicenii Noi","alt":["Bilicheniy-Noy","Novye Bilicheny","Novyye Bilicheny","Новые Биличены"],"lon":28.03478,"lat":47.69498,"pop":0},{"id":617345,"name":"Bilicenii Vechi","alt":["Belichany","Biliceni","Bilichen'","Bilicheni","Bilichen’","Bliceni","Gilicheny","Starye Bilicheny","Staryye Bilicheny","Старые Биличены"],"lon":28.04734,"lat":47.6558,"pop":15479},{"id":618458,"name":"Bîrlădeni","alt":["Barladen'","Barladeni","Barladen’","Barlyadyany","Birladeni","Borladyany","Byrladjany","Byrladyany","Bârlădeni","Бырладяны"],"lon":27.42448,"lat":48.26504,"pop":0},{"id":618457,"name":"Bîrnova","alt":["Barnova","Birnova","Byrnova","Byrnovo","Bârnova","Бырново"],"lon":27.53371,"lat":48.42329,"pop":0},{"id":830975,"name":"Biruinţa","alt":["Biruinca","Biruinta","Biruintsa","Бируинца"],"lon":28.07004,"lat":47.81353,"pop":4700},{"id":618562,"name":"Bisericani","alt":["Biserikan'","Biserikany","Biserikan’","Bisserikany","Бисерикань"],"lon":27.32945,"lat":47.64314,"pop":0},{"id":618561,"name":"Bisericuţa-de Jos","alt":["Biserikucha-Nizhnyaya","Biserikutsa Nizhnyaya","Nizhnyaya Biserikutsa"],"lon":28.5275,"lat":45.89611,"pop":0},{"id":618557,"name":"Bleşteni","alt":["Bleshten'","Bleshtenautsy","Bleshteni","Bleshteny","Bleshten’","Blesteni","Блештены"],"lon":27.21962,"lat":48.12035,"pop":0},{"id":618556,"name":"Blijnii Hutor","alt":["Blizhnij Khutor","Blizhniy Khutor","Klotova Balka","Ближний Хутор"],"lon":29.64651,"lat":46.88754,"pop":0},{"id":829835,"name":"Blindeşti","alt":["Blindeshty","Blindesti","Блиндешты"],"lon":27.68,"lat":47.31338,"pop":0},{"id":618555,"name":"Blyumental'","alt":["Blumental","Novyy Lopatnik"],"lon":28.69944,"lat":46.64806,"pop":0},{"id":618554,"name":"Bobeica","alt":["Bobejka","Bobeyka","Бобейка"],"lon":28.46064,"lat":46.98441,"pop":0},{"id":618553,"name":"Bobletici","alt":["Bibletichi","Bobletich'","Bobletichi","Bobletich’","Bovletich'","Bovletich’","Боблетичи"],"lon":28.0547,"lat":47.46662,"pop":0},{"id":7645589,"name":"Bobocica","lon":28.45987,"lat":46.22468,"pop":0},{"id":618552,"name":"Bobuleşti","alt":["Bobulesht'","Bobuleshty","Bobulesht’","Bobulesti","Бобулешты"],"lon":28.35096,"lat":47.8808,"pop":0},{"id":618621,"name":"Bocancea-Schit","alt":["Bakancha-Skit","Bokancha-Skit","Боканча-Скит"],"lon":28.13537,"lat":47.51185,"pop":0},{"id":618547,"name":"Bocani","alt":["Bacani","Bokan'","Bokani","Bokany","Bokan’","Băcani","Боканы"],"lon":27.89242,"lat":47.51915,"pop":0},{"id":829580,"name":"Bocicăuţi","alt":["Bochkaucy","Bochkautsy","Bocicauti","Бочкауцы"],"lon":27.17528,"lat":48.29266,"pop":0},{"id":618546,"name":"Bocșa","alt":["Bocsa","Bocşa","Boksha"],"lon":27.64972,"lat":47.47111,"pop":0},{"id":829722,"name":"Bodeni","alt":["Bodany","Боданы"],"lon":28.78114,"lat":48.08121,"pop":0},{"id":618550,"name":"Bogdăneşti","alt":["Bogdanesht'","Bogdaneshty","Bogdanesht’","Bogdanesti","Богданешты"],"lon":27.001,"lat":48.14034,"pop":0},{"id":864964,"name":"Bogdanovca","alt":["Bogdaneni","Bogdanovka","Богдановка"],"lon":28.93423,"lat":46.51118,"pop":0},{"id":617740,"name":"Bogdanovca Nouă","alt":["Bogdaneasca-Noua","Bogdanovca Noua","Bogdanovka-Noua","Bogdanyaska Noua","Bogdăneasca-Nouă","Novaja Bogdanovka","Novaya Bogdanovka","Novo-Bogdanovka","Новая Богдановка"],"lon":28.84247,"lat":46.49375,"pop":0},{"id":617357,"name":"Bogdanovca Veche","alt":["Bogdaneasa Veche","Bogdaneasca-Veche","Bogdanovka","Bogdanovka-Veke","Bogdanyaska-Veke","Bogdăneasa Veche","Bogdăneasca-Veche","Staraja Bogdanovka","Staraya Bogdanovka","Staro-Bogdanovka","Старая Богдановка"],"lon":28.82467,"lat":46.47439,"pop":0},{"id":617698,"name":"Boghenii Noi","alt":["Bogeni-Nou","Bogeny-Nouy","Novye Bogeny","Новые Богены"],"lon":28.00796,"lat":47.42777,"pop":0},{"id":617344,"name":"Boghenii Vechi","alt":["Bogen'","Bogeni","Bogen’","Starye Bogeny","Staryye Bogeny","Старые Богены"],"lon":28.02783,"lat":47.39679,"pop":0},{"id":618549,"name":"Boghiceni","alt":["Bogichany","Bogichen'","Bogicheny","Bogichen’","Богичены"],"lon":28.30795,"lat":46.96407,"pop":0},{"id":618548,"name":"Bogzeşti","alt":["Bogzesht'","Bogzeshty","Bogzesht’","Bogzesti","Богзешты"],"lon":28.42713,"lat":47.42176,"pop":0},{"id":618535,"name":"Bol'shoy Fontan","lon":29.18722,"lat":47.26111,"pop":0},{"id":618543,"name":"Boldureşti","alt":["Balaneshty","Boldureshti","Boldureshty","Bolduresti","Болдурешты"],"lon":28.05406,"lat":47.1347,"pop":0},{"id":618541,"name":"Bolohan","alt":["Bologan'","Bologani","Bologany","Bologan’","Бологаны"],"lon":28.87483,"lat":47.43137,"pop":0},{"id":618533,"name":"Bolţun","alt":["Baltsun","Bolcun","Boltsun","Boltun","Болцун"],"lon":28.28683,"lat":47.02465,"pop":0},{"id":831027,"name":"Bondareuca","alt":["Bondarevka","Бондаревка"],"lon":28.16734,"lat":47.57036,"pop":0},{"id":618563,"name":"Borceag","alt":["Biruinca","Biruintsa","Borchag","Borchak","Бируинца"],"lon":28.5226,"lat":46.05247,"pop":0},{"id":618532,"name":"Borogani","alt":["Borogany","Бороганы"],"lon":28.52127,"lat":46.37074,"pop":0},{"id":617697,"name":"Borosenii Noi","alt":["Borisyany Novyye","Boroseni","Boroseny","Borosheni","Borosheni-Nouy","Maketsmchuka","Novye Boroseny","Novyye Boroseny","Новые Боросены"],"lon":27.47267,"lat":47.98863,"pop":0},{"id":10201351,"name":"Borosyany","alt":["Borosjany","Боросяны"],"lon":27.73564,"lat":48.28437,"pop":0},{"id":618531,"name":"Bosca","alt":["Boska","Боска"],"lon":29.36715,"lat":47.30559,"pop":0},{"id":618592,"name":"Boşcana","alt":["Bashkany","Boscana","Boshkana","Бошкана"],"lon":29.00103,"lat":47.12802,"pop":0},{"id":830848,"name":"Boşerniţa","alt":["Bosernita","Boshernica","Boshernitsa","Бошерница"],"lon":28.98131,"lat":47.78648,"pop":0},{"id":618527,"name":"Botnăreşti","alt":["Botnaresht' Veke","Botnareshty","Botnaresht’ Veke","Botnaresti","Botnarestii Vechi","Botnăreştii Vechi","Ботнарешты"],"lon":29.15988,"lat":46.93004,"pop":0},{"id":829920,"name":"Botnăreştii Noi","alt":["Botnarestii Noi","Novye Botnareshty","Novyye Botnareshty","Новые Ботнарешты"],"lon":29.16597,"lat":46.92158,"pop":0},{"id":618524,"name":"Bozieni","alt":["Bozieny","Boziyen'","Boziyeni","Boziyeny","Boziyen’","Бозиены"],"lon":28.64599,"lat":46.74997,"pop":0},{"id":618515,"name":"Braicău","alt":["Braicau","Brajkovo","Braykeu","Braykovo","Брайково"],"lon":27.73381,"lat":48.30335,"pop":0},{"id":618523,"name":"Brăila","alt":["Braila","Браила"],"lon":28.84293,"lat":46.91233,"pop":0},{"id":618522,"name":"Brăneşti","alt":["Braneshty","Branesti","Branishtya","Бранешты"],"lon":28.92856,"lat":47.30526,"pop":0},{"id":618521,"name":"Branişte","alt":["Braneshty","Branishta","Braniste","Branistea","Braniştea","Браништа"],"lon":27.25296,"lat":47.79827,"pop":0},{"id":829649,"name":"Brătianovca","alt":["Brat'janovka","Brat'yanovka","Bratianovca","Bratiyanovka","Brat’yanovka","Братьяновка"],"lon":28.46309,"lat":46.73979,"pop":0},{"id":618520,"name":"Brătuleni","alt":["Bratulen'","Bratuleni","Bratuleny","Bratulen’","Bratulyany","Братулени"],"lon":27.96247,"lat":47.1245,"pop":0},{"id":618518,"name":"Brătuşeni","alt":["Bratuseni","Bratushany","Bratushen'","Bratushen’","Bretusheniy-Vek'","Bretusheniy-Vek’","Staryye Bratushany","Братушаны"],"lon":27.40124,"lat":48.07129,"pop":0},{"id":829545,"name":"Brătuşenii Noi","alt":["Bratusenii Noi","Novye Bratushany","Novyye Bratushany","Новые Братушаны"],"lon":27.4831,"lat":48.06167,"pop":0},{"id":618516,"name":"Bravicea","alt":["Bravicha","Bravichi","Bravitsa","Бравича"],"lon":28.43645,"lat":47.36082,"pop":0},{"id":618517,"name":"Brăviceni","alt":["Braviceni","Bravichany","Bravichen'","Bravicheni","Bravicheny","Bravichen’","Бравичены"],"lon":28.65924,"lat":47.43247,"pop":0},{"id":618505,"name":"Breanova","alt":["Brjanovo","Bryanova","Bryanovo","Бряново"],"lon":28.6502,"lat":47.41641,"pop":0},{"id":618514,"name":"Brejeni","alt":["Brezhen'","Brezheny","Brezhen’","Брежены"],"lon":28.1415,"lat":47.57993,"pop":0},{"id":618513,"name":"Brezoaia","alt":["Brezoaja","Brezoaya","Brezoya","Брезоая"],"lon":29.45658,"lat":46.52225,"pop":0},{"id":618510,"name":"Briceni","alt":["Briceni-Targ","Briceni-Târg","Brichani","Brichany","Brichen'","Brichen' Sat","Bricheni Sat","Brichen’ Sat","Bryczany","Бричани","Бричаны","Бричень"],"lon":27.07787,"lat":48.36289,"pop":9900},{"id":618512,"name":"Briceni","alt":["Brichany","Brichen'","Brichen’","Бричаны"],"lon":27.70293,"lat":48.35628,"pop":14132},{"id":618509,"name":"Briceva","alt":["Bricheva","Бричева"],"lon":27.64938,"lat":48.11418,"pop":0},{"id":10201354,"name":"Brichany","alt":["Бричаны"],"lon":27.07063,"lat":48.33772,"pop":0},{"id":618504,"name":"Brînza","alt":["Branza","Brinza","Brynza","Brânza","Брынза"],"lon":28.17378,"lat":45.67541,"pop":0},{"id":618502,"name":"Brînzeni","alt":["Branzeni","Brinzeni","Brynzen'","Brynzeny","Brynzen’","Brynzyany","Brânzeni","Брынзены"],"lon":27.17513,"lat":48.08362,"pop":0},{"id":618503,"name":"Brînzeni","alt":["Brinzeni","Brynzeni Nouy","Brynzeny","Брынзены"],"lon":27.36303,"lat":47.81412,"pop":0},{"id":617696,"name":"Brînzenii Noi","alt":["Branzenii Noi","Brinzenii Noi","Brynzeni-Nou","Brânzenii Noi","Nouy Brynzeni","Novye Brynzeny","Novyye Brynzeny","Новые Брынзены"],"lon":28.48577,"lat":47.65834,"pop":0},{"id":617343,"name":"Brînzenii Vechi","alt":["Branzeni","Branzenii Vechi","Brinzenii Vechi","Brynzeni","Brynzeni-Vek'","Brynzeni-Vek’","Brânzeni","Brânzenii Vechi","Starye Brynzeny","Staryye Brynzeny","Vek' Brynzeni","Vek’ Brynzeni","Старые Брынзены"],"lon":28.47298,"lat":47.65768,"pop":0},{"id":864970,"name":"Broscari","lon":28.74667,"lat":46.67667,"pop":0},{"id":618508,"name":"Broşteni","alt":["Broshtjany","Broshtyany","Brosteni","Brushteny","Burshteny","Броштяны"],"lon":29.26781,"lat":47.88132,"pop":0},{"id":618506,"name":"Bruslachi","alt":["Bruslaki","Бруслаки"],"lon":29.37963,"lat":47.27995,"pop":0},{"id":618501,"name":"Bubuieci","alt":["Bubuech'","Bubueci","Bubuyech'","Bubuyechi","Bubuyech’","Бубуечь"],"lon":28.93993,"lat":46.98658,"pop":0},{"id":618500,"name":"Buciumeni","alt":["Buchiumeni","Buchumen'","Buchumeny","Buchumen’","Buchumyany","Бучумены"],"lon":27.71315,"lat":47.3709,"pop":0},{"id":618459,"name":"Bucovăţ","alt":["Bucovat","Bykovec","Bykovets","Быковец"],"lon":28.45802,"lat":47.19064,"pop":1600},{"id":618489,"name":"Bucuria","alt":["Broasca","Bukurija","Bukuriya","Букурия"],"lon":28.35005,"lat":45.96577,"pop":0},{"id":618497,"name":"Buda","lon":28.21692,"lat":47.21128,"pop":0},{"id":618492,"name":"Budăi","alt":["Budai","Budej","Budey","Будей"],"lon":28.82101,"lat":47.43215,"pop":0},{"id":618493,"name":"Budăi","alt":["Budai","Budei","Budej","Budey","Будей"],"lon":28.34828,"lat":47.45728,"pop":0},{"id":618494,"name":"Budăi","alt":["Budai","Bude","Budei","Budej","Budey","Будей"],"lon":28.97434,"lat":46.81272,"pop":0},{"id":618495,"name":"Budăi","alt":["Budai","Budej","Budey","Будей"],"lon":28.46403,"lat":45.84727,"pop":0},{"id":618496,"name":"Budeşti","alt":["Budesht'","Budeshti","Budeshty","Budesht’","Budesti","Будешты"],"lon":29.00461,"lat":47.06601,"pop":0},{"id":618491,"name":"Bugeac","alt":["Budzhak","Komrat","Комрат"],"lon":28.6625,"lat":46.36554,"pop":1800},{"id":618525,"name":"Buiucani","alt":["Bojukany","Boyukany","Buicani","Pretura Buiucani","Боюканы"],"lon":28.79745,"lat":47.02513,"pop":0},{"id":618463,"name":"Bujor","alt":["Bujoru","Buzhor","Buzhoru","Buzhory","Бужор"],"lon":28.26293,"lat":46.92444,"pop":0},{"id":618490,"name":"Bukhna","alt":["Buhna"],"lon":28.81639,"lat":46.65056,"pop":0},{"id":864910,"name":"Bukhta","lon":29.17361,"lat":47.7725,"pop":0},{"id":618487,"name":"Bulăieşti","alt":["Bulaeshty","Bulaesti","Bulaiesti","Bulayeshty","Buleyeshti","Bulzesht'","Bulzesht’","Bulăeşti","Булаешты"],"lon":28.97931,"lat":47.47693,"pop":0},{"id":618488,"name":"Bularda","lon":28.22222,"lat":47.35611,"pop":0},{"id":618485,"name":"Bulboaca","alt":["Bolboaka","Bolboka","Bulboaka","Булбоака"],"lon":27.20391,"lat":48.37141,"pop":0},{"id":618486,"name":"Bulboaca","alt":["Bol'boki","Bol’boki","Bul'boaka","Bul'boka","Bul'boki","Bul’boaka","Bul’boka","Bul’boki","Бульбоака"],"lon":29.30809,"lat":46.88379,"pop":0},{"id":618545,"name":"Bulboci","alt":["Bolbochi","Bolbochi-Vek","Bolbochiy","Bolbocii Vechi","Bulbochi","Булбочи"],"lon":28.08247,"lat":48.04166,"pop":0},{"id":829699,"name":"Bulbocii Noi","alt":["Novye Bulbochi","Novyye Bulbochi","Новые Булбочи"],"lon":28.11636,"lat":48.05933,"pop":0},{"id":864955,"name":"Bulgari","alt":["Bulgarika"],"lon":28.40583,"lat":46.49111,"pop":0},{"id":618483,"name":"Bulhac","alt":["Bulgak","Булгак"],"lon":27.67453,"lat":47.92281,"pop":0},{"id":618484,"name":"Bulhac","alt":["Bulgak","Булгак"],"lon":27.74332,"lat":47.4284,"pop":0},{"id":618481,"name":"Bumbăta","alt":["Bumbata","Bumbota","Бумбата"],"lon":27.97414,"lat":47.34125,"pop":0},{"id":829807,"name":"Buneţi","alt":["Bunec","Buneti","Bunets","Бунец"],"lon":28.90945,"lat":47.08337,"pop":0},{"id":618480,"name":"Burghelea","alt":["Burgela-Soch'","Burgela-Soch’","Burgelja","Burgelya","Бургеля"],"lon":27.86425,"lat":47.53996,"pop":0},{"id":618478,"name":"Burlăceni","alt":["Burlacelu","Burlaceni","Burlachany","Burlacheny","Burlăcelu","Бурлачены"],"lon":28.50566,"lat":45.75958,"pop":0},{"id":618477,"name":"Burlacu","alt":["Burlacul","Burlaki","Бурлаки"],"lon":28.41474,"lat":46.04729,"pop":0},{"id":618476,"name":"Burlăneşti","alt":["Burlaneshti","Burlaneshty","Burlanesti","Бурланешты"],"lon":27.12993,"lat":48.12671,"pop":0},{"id":618474,"name":"Bursuc","alt":["Bursuk","Бурсук"],"lon":28.74019,"lat":47.97236,"pop":0},{"id":618475,"name":"Bursuc","alt":["Bursuk","Бурсук"],"lon":28.29867,"lat":47.09662,"pop":0},{"id":831226,"name":"Bursuceni","alt":["Bursuchen'","Bursucheny","Bursuchen’","Бурсучены"],"lon":28.0164,"lat":47.48824,"pop":0},{"id":618473,"name":"Burtovka","alt":["Burtovca"],"lon":28.23333,"lat":45.85,"pop":0},{"id":618471,"name":"Buşăuca","alt":["Busauca","Bushovka","Busovca","Buşovca","Бушовка"],"lon":28.79058,"lat":47.59245,"pop":0},{"id":618498,"name":"Buşâuca","alt":["Bachushka","Buchushka","Buciusca","Buciuşca","Busauca","Бучушка"],"lon":28.98949,"lat":47.64023,"pop":0},{"id":830828,"name":"Buschi","alt":["Bus'ki","Bus’ki","Буськи"],"lon":29.07297,"lat":47.71577,"pop":0},{"id":618472,"name":"Buşila","alt":["Bushila","Bushili","Bushtile","Busila","Stynzhineny","Бушила"],"lon":27.80995,"lat":47.38926,"pop":0},{"id":618468,"name":"Buţeni","alt":["Buceny","Buteni","Butseni","Butseny","Ion Gheorghe Duca","Буцены"],"lon":28.67343,"lat":46.82559,"pop":0},{"id":618470,"name":"Buteşti","alt":["Butesht'","Buteshti","Buteshty","Butesht’","Butesti","Бутешты"],"lon":27.33316,"lat":47.79685,"pop":0},{"id":618469,"name":"Butor","alt":["Butory"],"lon":29.40528,"lat":47.04225,"pop":0},{"id":618465,"name":"Butuceni","alt":["Butuchen'","Butucheny","Butuchen’","Бутучены"],"lon":28.96727,"lat":47.30161,"pop":239},{"id":618466,"name":"Butuceni","alt":["Botocheny","Butucheny"],"lon":28.33889,"lat":46.2525,"pop":0},{"id":618467,"name":"Butuceni","alt":["Botushany","Butuchany","Бутучаны"],"lon":29.02907,"lat":47.52915,"pop":0},{"id":617751,"name":"Buzduganii de Jos","alt":["Buzdugani De Zhos","Nizhnie Buzdugany","Nizhniye Buzdugany","Нижние Буздуганы"],"lon":27.822,"lat":47.14487,"pop":0},{"id":617134,"name":"Buzduganii de Sus","alt":["Verkhnie Buzdugany","Verkhniye Buzdugany","Верхние Буздуганы"],"lon":27.86379,"lat":47.15829,"pop":0},{"id":618464,"name":"Buzdugeni","alt":["Buzduzhany","Buzduzhen'","Buzduzhen’","Буздужаны"],"lon":27.15699,"lat":48.1072,"pop":0},{"id":618166,"name":"Căbăieşti","alt":["Cabaiesti","Cobaesti","Cobăeşti","Kabaeshty","Kabayeshty","Кабаешты"],"lon":28.14558,"lat":47.21693,"pop":0},{"id":618456,"name":"Cahul","alt":["Kagul","Kaguł","Kahul","Kahulis","Kakhul","ka hu er","kahul","qʼhwl","Кагул","Кахул","קאחול","کاہول","კაჰული","卡胡爾","카훌"],"lon":28.19929,"lat":45.90425,"pop":34492},{"id":618455,"name":"Căinari","alt":["Cainari","Dumbraveny","Kainara","Kaynar","Kaynar'","Kaynari","Kaynary","Kaynar’","Keinari","Думбравены"],"lon":29.04833,"lat":46.68196,"pop":0},{"id":618116,"name":"Căinarii Vechi","alt":["Cainarii Vechi","Kajnarij-Vek'","Kaymari-Vak","Kaynari Vek'","Kaynari Vek’","Kaynariy-Vek'","Kaynariy-Vek’","Кайнарий-Векь"],"lon":28.12103,"lat":48.00569,"pop":0},{"id":618115,"name":"Cairaclia","alt":["Kajraklija","Karaklia","Kayrakliya","Kayrakliyka","Кайраклия"],"lon":28.62344,"lat":45.77805,"pop":0},{"id":618110,"name":"Cajba","alt":["Kazhba","Кажба"],"lon":27.43912,"lat":47.72566,"pop":0},{"id":618454,"name":"Călăraşi","alt":["Calarasi","Calarasi-Targ","Călărasi-Targ","Kalarash","Kelerashi-Tyrg","Калараш"],"lon":28.30987,"lat":47.2556,"pop":14066},{"id":618163,"name":"Calaraşovca","alt":["Calarasauca","Calaraseuca","Calarasovca","Călărăşeuca","Călărăşăuca","Kalarasheuka","Kalarashovka","Каларашовка"],"lon":27.79298,"lat":48.42493,"pop":0},{"id":618161,"name":"Calfa","alt":["Kalfa","Kelfa","Калфа"],"lon":29.38049,"lat":46.9046,"pop":0},{"id":829928,"name":"Calfa Nouă","alt":["Calfa Noua","Novaja Kalfa","Novaya Kalfa","Новая Калфа"],"lon":29.35824,"lat":46.91419,"pop":0},{"id":618159,"name":"Călimăneşti","alt":["Calimanesti","Kalimanesht'","Kalimaneshty","Kalimanesht’","Калиманешты"],"lon":28.18905,"lat":46.94673,"pop":0},{"id":618158,"name":"Călineşti","alt":["Calinesti","Kalinesht'","Kalineshty","Kalinesht’","Kelineshti","Калинешты"],"lon":27.48592,"lat":47.56315,"pop":0},{"id":829938,"name":"Calinovca","alt":["Kalinovka","Калиновка"],"lon":29.25025,"lat":47.31186,"pop":0},{"id":618155,"name":"Călmăţui","alt":["Calmatui","Kalmacuj","Kalmatsuy","Kelmetsuy","Kolmatsuy","Калмацуй"],"lon":28.21142,"lat":46.78386,"pop":0},{"id":618154,"name":"Călugăr","alt":["Calugar","Kalugar","Kalugehr","Kaluger","Калугэр"],"lon":27.68733,"lat":47.54031,"pop":0},{"id":618150,"name":"Camenca","alt":["Kamenka","Каменка"],"lon":27.36262,"lat":47.82683,"pop":0},{"id":618453,"name":"Camenca","alt":["Kamenka","Kamenka-Moldavskaya","Kamionka","Kamjanka","ka men ka","kamenka","kamynka","Каменка","Камянка","کامینکا","卡門卡","카멘카"],"lon":28.69899,"lat":48.03233,"pop":11072},{"id":618151,"name":"Camencea","alt":["Kamencha","Каменча"],"lon":28.68746,"lat":47.27991,"pop":0},{"id":618147,"name":"Camencuţa","alt":["Camencuta","Kamenkuca","Kamenkutsa","Каменкуца"],"lon":27.44948,"lat":47.83626,"pop":0},{"id":618143,"name":"Cania","alt":["Kanija","Kaniya","Кания"],"lon":28.23051,"lat":46.2763,"pop":0},{"id":618452,"name":"Cantemir","alt":["Kantemir","Кантемир"],"lon":28.2027,"lat":46.27743,"pop":3829},{"id":618141,"name":"Capaclia","alt":["Capaclia-Razesi","Capaclia-Răzeşi","Kapaklija","Kapakliya","Kopakliya-Rezeshi","Kopakliya-Rozeshi","Kopaliya Razeshi","Капаклия"],"lon":28.40106,"lat":46.32949,"pop":0},{"id":618140,"name":"Căplani","alt":["Caplani","Kaplan'","Kaplani","Kaplany","Kaplan’","Капланы"],"lon":29.87242,"lat":46.38521,"pop":0},{"id":618139,"name":"Căpreşti","alt":["Capresti","Capresti-Sat","Capresti-Targ","Căpreşti-Sat","Căpreşti-Târg","Kapreshty"],"lon":28.46333,"lat":47.75417,"pop":0},{"id":618138,"name":"Căpriana","alt":["Capriana","Kaprijana","Kapriyana","Kapriyany","Каприяна"],"lon":28.50249,"lat":47.11778,"pop":0},{"id":618137,"name":"Carabetovca","alt":["Carabateni","Carabeteni","Carabeţeni","Carabăţeni","Karabaten'","Karabateni","Karabaten’","Karabetovka","Карабетовка"],"lon":28.91509,"lat":46.41386,"pop":0},{"id":618134,"name":"Caracui","alt":["Karakuj","Karakuy","Каракуй"],"lon":28.54286,"lat":46.69997,"pop":0},{"id":824080,"name":"Caracuşenii Noi","alt":["Caracusenii Noi","Novye Karakushany","Novyye Karakushany","Новые Каракушаны"],"lon":27.02588,"lat":48.32474,"pop":0},{"id":617338,"name":"Caracuşenii Vechi","alt":["Caracusenii Vechi","Karakushany","Karakushen'","Karakushen’","Starye Karakushany","Staryye Karakushany","Старые Каракушаны"],"lon":27.07274,"lat":48.2714,"pop":0},{"id":618135,"name":"Caragaş","alt":["Caragas","Karagash","Карагаш"],"lon":29.68298,"lat":46.78095,"pop":0},{"id":618136,"name":"Carahasani","alt":["Cara Hasan","Kara Khasan","Karagasan","Karagasany","Карагасаны"],"lon":29.81175,"lat":46.46633,"pop":0},{"id":829548,"name":"Caraiman","alt":["Karajman","Karayman","Карайман"],"lon":27.56384,"lat":48.1081,"pop":0},{"id":7731674,"name":"Carapetovca","lon":28.91,"lat":46.41,"pop":0},{"id":618133,"name":"Carbalia","alt":["Karbaliya","Karbolija","Karboliya","Карболия"],"lon":28.44935,"lat":45.87235,"pop":0},{"id":617734,"name":"Carbalia Nouă","alt":["Novaya Karboliya"],"lon":28.45417,"lat":45.85694,"pop":0},{"id":618132,"name":"Cărbuna","alt":["Carbuna","Karbuna","Карбуна"],"lon":28.95396,"lat":46.71173,"pop":0},{"id":618130,"name":"Carmanova","alt":["Karmanovo","Karmanovo Poselok","Karmanovo Posëlok","Карманово"],"lon":29.50241,"lat":47.26023,"pop":0},{"id":618128,"name":"Cărpineanca","alt":["Carpineanca","Karpenyanka","Karpinjanka","Karpinyanka","Карпинянка"],"lon":28.47098,"lat":46.6962,"pop":0},{"id":618129,"name":"Cărpineni","alt":["Carpineni","Karpinen'","Karpineny","Karpinen’","Karpinyani","Карпинены"],"lon":28.34427,"lat":46.7647,"pop":0},{"id":618127,"name":"Cartuşe","alt":["Kartusha"],"lon":28.74111,"lat":47.01583,"pop":0},{"id":829559,"name":"Carul Frumos","alt":["Karul Frumos"],"lon":27.52472,"lat":48.17639,"pop":0},{"id":618125,"name":"Caşunca","alt":["Casunca","Kashunka","Kassovka","Кашунка"],"lon":28.39416,"lat":47.78605,"pop":0},{"id":618121,"name":"Căţeleni","alt":["Cataleni","Cateleni","Căţăleni","Kacaleny","Katsalen'","Katsaleny","Katsalen’","Katsalyeny","Кацалены"],"lon":28.18386,"lat":46.92223,"pop":0},{"id":618123,"name":"Caterinovca","alt":["Katerinovka","Катериновка"],"lon":28.86799,"lat":47.93408,"pop":0},{"id":618122,"name":"Catranîc","alt":["Aleksandreny","Catranic","Katranyk","Катранык"],"lon":27.803,"lat":47.59621,"pop":0},{"id":863767,"name":"Catranîc","alt":["Catranic","Katranyk","Катранык"],"lon":27.77606,"lat":47.62342,"pop":0},{"id":864986,"name":"Cătun Vulcăneşti","alt":["Catun Vulcanesti","Poselok Vulkaneshty","Posëlok Vulkaneshty"],"lon":28.47917,"lat":45.6825,"pop":0},{"id":617337,"name":"Căuşanii-Vechi","alt":["Kaushani-Vek'","Staryye Kaushany"],"lon":29.44028,"lat":46.64722,"pop":0},{"id":618120,"name":"Căuşeni","alt":["Causani-Novi","Causanii-Noui","Causeni","Căuşani-Novi","Căuşanii-Noui","Căușeni","Kaushani","Kaushani-Noui","Kaushany","Keusenis","Keušenis","Noui Causanii","Noui Căuşanii","Novo Kaushani","Novyye Kaushany","Novyye Keushani","kawshyny","ke wu xie ni","keousyeni","Каушани","Каушаны","کاؤشینی","克烏謝尼","커우셰니"],"lon":29.41114,"lat":46.63674,"pop":21690},{"id":618114,"name":"Cazaclia","alt":["Kazaklija","Kazakliya","Kazankliya","Kazayakliya","Казаклия"],"lon":28.66272,"lat":46.00729,"pop":0},{"id":864989,"name":"Cazaclia","lon":28.33917,"lat":45.97139,"pop":0},{"id":618112,"name":"Căzăneşti","alt":["Cazanesti","Kazanesht'","Kazaneshti","Kazaneshty","Kazanesht’","Казанешты"],"lon":28.47415,"lat":47.61354,"pop":0},{"id":618111,"name":"Cazangic","alt":["Kazanzhik","Казанжик"],"lon":28.43498,"lat":46.50843,"pop":0},{"id":618451,"name":"Ceadîr","alt":["Ceadar","Ceadir","Ceadâr","Chadyr","Чадыр"],"lon":28.40656,"lat":46.67168,"pop":0},{"id":618450,"name":"Ceadîr-Lunga","alt":["Ceadar-Lunga","Ceadir-Lunga","Ceadâr-Lunga","Chadyr-Lunga","Чадыр-Лунга"],"lon":28.83078,"lat":46.06169,"pop":22700},{"id":617418,"name":"Cealîc","alt":["Cealic","Chalyk","Sovkhozchalyk","Steangherovca","Чалык"],"lon":28.55279,"lat":45.99565,"pop":0},{"id":829562,"name":"Ceapaevca","alt":["Chapaevka","Chapayevka","Чапаевка"],"lon":27.8726,"lat":48.20477,"pop":0},{"id":618444,"name":"Cenac","alt":["Chanak","Chenak","Ченак"],"lon":28.6374,"lat":46.47474,"pop":0},{"id":829670,"name":"Centru","alt":["Pretura Centru"],"lon":28.86667,"lat":47,"pop":0},{"id":618443,"name":"Cenuşa","alt":["Cenusa","Chenusha","Frunzen'","Frunzeny","Frunzen’","Фрунзены"],"lon":28.38687,"lat":47.84453,"pop":0},{"id":618442,"name":"Cepăria","alt":["Ceparia","Cheparija","Chepariya","Cheperiya","Чепария"],"lon":27.71511,"lat":47.93236,"pop":0},{"id":618441,"name":"Cepeleuţi","alt":["Cepeleuti","Chepeleucy","Chepeleuts'","Chepeleutsy","Chepeleuts’","Чепелеуцы"],"lon":27.31383,"lat":48.30264,"pop":0},{"id":618439,"name":"Cerlina","alt":["Cherlina","Черлина"],"lon":28.6079,"lat":48.08149,"pop":0},{"id":618437,"name":"Cerniţa","alt":["Cernita","Chernitsa","Chernitsy","Chërnitsa","Chërnitsy"],"lon":29.51932,"lat":47.03015,"pop":0},{"id":618438,"name":"Cerniţa","alt":["Cernita","Chernica","Chernitsa","Chornitsa","Черница"],"lon":28.46735,"lat":47.96407,"pop":0},{"id":618436,"name":"Cernoleuca","alt":["Chernoleuka","Chernolevka","Chernolëvka","Чернолевка"],"lon":27.56388,"lat":48.31216,"pop":0},{"id":829806,"name":"Ceroborta","alt":["Cheroborta","Чероборта"],"lon":28.95245,"lat":47.09441,"pop":0},{"id":618435,"name":"Cetireni","alt":["Cetareni","Cetâreni","Chetyreny","Chetyryany","Chirileni","Chitiren'","Chitireni","Chitiren’","Четырены"],"lon":27.91548,"lat":47.21999,"pop":0},{"id":829808,"name":"Cheltuitori","alt":["Keltuitor","Келтуитор"],"lon":28.92464,"lat":47.06507,"pop":0},{"id":831050,"name":"Chersac","alt":["Kersarka","Керсарка"],"lon":28.58272,"lat":47.63703,"pop":0},{"id":618109,"name":"Chetriş","alt":["Chetris","Ketrish","Ketrosh'","Ketrosh’","Кетриш"],"lon":27.44757,"lat":47.59604,"pop":0},{"id":829875,"name":"Chetrişul Nou","alt":["Chetrisul Nou","Novyj Ketrish","Novyy Ketrish","Новый Кетриш"],"lon":27.50843,"lat":47.62599,"pop":0},{"id":829804,"name":"Chetroasa","alt":["Ketrosy","Кетросы"],"lon":28.97958,"lat":47.12206,"pop":0},{"id":618107,"name":"Chetroşeni","alt":["Chetroseni","Chetrosenii Vechi","Chetroşenii Vechi","Ketroshani Vek'","Ketroshani Vek’","Ketrosheny","Ketroshi","Кетрошены"],"lon":28.27033,"lat":46.96253,"pop":0},{"id":864972,"name":"Chetroşenii Noi","alt":["Ketroshani Novyye"],"lon":28.27167,"lat":46.97639,"pop":0},{"id":617733,"name":"Chetroşica Nouă","alt":["Chetrosica Noua","Ketroshika Noua","Novaja Ketroshika","Novaya Ketroshika","Новая Кетрошика"],"lon":27.4769,"lat":48.11725,"pop":0},{"id":829544,"name":"Chetroşica Veche","alt":["Chetrosica Veche","Staraja Ketroshika","Staraya Ketroshika","Старая Кетрошика"],"lon":27.40417,"lat":48.11939,"pop":0},{"id":618106,"name":"Chetrosu","alt":["Chetrosul","Ketrosa","Ketrosu","Ketrosy","Verkhniy Ketros","Кетросы"],"lon":27.8977,"lat":48.07391,"pop":0},{"id":618108,"name":"Chetrosu","alt":["Ketros","Ketros Byk","Ketrosu-Pe-Byk","Кетрос"],"lon":29.03815,"lat":46.92152,"pop":0},{"id":829769,"name":"Chilişoaia","alt":["Chilisoaia","Kilishoaja","Kilishoaya","Килишоая"],"lon":28.0281,"lat":47.11338,"pop":0},{"id":618070,"name":"Chioselia","alt":["Kioseliya","Kioselya Mika","Kiselija","Kiseliya","Kiseliya-Mika","Kisseliya","Киселия"],"lon":28.40564,"lat":46.14099,"pop":0},{"id":618539,"name":"Chioselia Mare","alt":["Bol'shaja Kiselija","Bol'shaya Kiseliya","Bol'shaya Kisiliya","Bol’shaya Kiseliya","Bol’shaya Kisiliya","Kiseliya-Mary","Большая Киселия"],"lon":28.48992,"lat":46.09982,"pop":0},{"id":617489,"name":"Chioşelia Rusă","alt":["Chioselia Mica","Chioselia Rusa","Chioşelia Mică","Nizhne-Kiseli","Novy-Kiseli","Russkaja Kiselija","Russkaya Kiseliya","Russkaya Kisiliya","Русская Киселия"],"lon":28.51184,"lat":46.08494,"pop":0},{"id":618086,"name":"Chiperceni","alt":["Kiperchany","Kiperchen'","Kipercheni","Kipercheny","Kiperchen’","Киперчены"],"lon":28.83799,"lat":47.52197,"pop":0},{"id":618085,"name":"Chipeşca","alt":["Chipesca","Kipeshka","Кипешка"],"lon":28.60792,"lat":47.76223,"pop":0},{"id":618078,"name":"Chirca","alt":["Kirka","Кирка"],"lon":29.10925,"lat":46.92148,"pop":0},{"id":7730804,"name":"Chircăeştii Noi","lon":29.03719,"lat":46.62256,"pop":0},{"id":617935,"name":"Chircăieşti","alt":["Cuza Voda","Cuza Vodă","Dimitrova","Kuza-Vode","Kuze Vade"],"lon":29.03333,"lat":46.66667,"pop":0},{"id":618075,"name":"Chircăieşti","alt":["Chiraesti","Chircaesti","Chircaiesti","Chircăeşti","Chirăesti","Kirkaesht'","Kirkaeshty","Kirkaesht’","Kirkayesht'","Kirkayeshty","Kirkayesht’","Kirkeshti","Киркаешты"],"lon":29.52592,"lat":46.71913,"pop":0},{"id":618076,"name":"Chircăieştii Noi","alt":["Chircaiestii Noi","Gyrtop-Gasan","Hartop-Hasan","Hârtop-Hasan","Kirkayeshtiy-Noy","Kirkayeshty","Novye Kirkaeshty","Novyye Kirkayeshty","Новые Киркаешты"],"lon":28.97197,"lat":46.66395,"pop":0},{"id":618077,"name":"Chircani","alt":["Kirkany","Кирканы"],"lon":28.17388,"lat":46.08805,"pop":0},{"id":618080,"name":"Chirianca","alt":["Kir'yanka","Kirijanka","Kiriyanka","Kir’yanka","Кириянка"],"lon":28.53019,"lat":47.2567,"pop":0},{"id":618079,"name":"Chiriet-Lunga","alt":["Kiryet-Lunga","Kiriet-Lunga","Kiriyet-Lunga","Kir”yet-Lunga","Кириет-Лунга"],"lon":28.94521,"lat":46.20924,"pop":0},{"id":618083,"name":"Chirileni","alt":["Kirileny","Кирилены"],"lon":28.19608,"lat":47.69114,"pop":0},{"id":618084,"name":"Chirileni","alt":["Kirilen'","Kirileni","Kirileny","Kirilen’","Кирилены"],"lon":27.77645,"lat":47.38005,"pop":0},{"id":618081,"name":"Chirilovca","alt":["Chirileni","Kirilen'","Kirilen’","Kirillovka","Kirilovka","Кирилловка"],"lon":28.32858,"lat":47.96208,"pop":0},{"id":618082,"name":"Chirilovca","alt":["Kirillovka","Oituz","Кирилловка"],"lon":28.57338,"lat":45.81556,"pop":0},{"id":618074,"name":"Chirov","alt":["Kirov","Kirovo","Киров","Кирово"],"lon":29.09722,"lat":47.65053,"pop":0},{"id":618073,"name":"Chirpiţi","alt":["Chirpiti","Kirpitsa"],"lon":27.61833,"lat":47.82417,"pop":0},{"id":618072,"name":"Chirsova","alt":["Kirshova","Kirsov","Kirsova","Kirsovo","Кирсово"],"lon":28.64755,"lat":46.23062,"pop":0},{"id":617915,"name":"Chişcăreni","alt":["Chiscareni","Kishkaren'","Kishkareni","Kishkareny","Kishkaren’","Kishkaryany","Kishkereni","Lazo","Лазо"],"lon":28.01615,"lat":47.56116,"pop":0},{"id":618426,"name":"Chisinau","alt":["Chişinău","Chișinău","KIV","Kischinew","Kiscinev","Kishinef","Kishinehu","Kishinev","Kishiniv","Kishinjov","Kishinëv","Kisinaou","Kisinev","Kisineva","Kisinevo","Kisiniovas","Kisinjev","Kisinov","Kisinyov","Kisyneu","Kiszyniow","Kiszyniów","Kiŝinevo","Kişinev","Kišiniovas","Kišinjev","Kišiněv","Kišiņeva","Kišiňov","cisina'u","cisinau","ji xi ne wu","kishinau","kisineou","kyshynaw","qysynb","qysynyʼww","qʻsʻnʻww","Κισινάου","Κισιναου","Кишинев","Кишинэу","Кишинёв","Кишињев","Кішынёў","Կիշինյով","קישינאו","קישינב","קישיניאוו","קעשענעוו","كيشيناو","चिशिनाउ","चिशिनौ","კიშინიოვი","ኪሺንው","キシナウ","基希讷乌","키시너우"],"lon":28.8575,"lat":47.00556,"pop":635994},{"id":618068,"name":"Chiştelniţa","alt":["Chistelnita","Kishtel'nica","Kishtel'nitsa","Kishtel’nitsa","Kistel'nitsa","Kistel’nitsa","Киштельница"],"lon":28.66106,"lat":47.5688,"pop":0},{"id":618067,"name":"Chiţcani","alt":["Kickany","Kitskan'","Kitskani","Kitskany","Кицканы"],"lon":29.61682,"lat":46.78296,"pop":9000},{"id":831196,"name":"Chiţcanii Noi","alt":["Chitcanii Noi","Novye Kickany","Novyye Kitskany","Новые Кицканы"],"lon":28.48533,"lat":47.56474,"pop":0},{"id":617335,"name":"Chiţcanii Vechi","alt":["Chitcanii Vechi","Kitskani-Vek'","Kitskani-Vek’","Kitskany Staryye","Starye Kickany","Starye Kitskany","Старые Кицканы"],"lon":28.50075,"lat":47.59182,"pop":0},{"id":617925,"name":"Chiurt","alt":["Kjurt","Kyurt","Кюрт"],"lon":27.34291,"lat":48.06131,"pop":0},{"id":7730790,"name":"Cicur-Minjir","lon":28.78986,"lat":46.42878,"pop":0},{"id":7730789,"name":"Cigârleni","lon":28.78808,"lat":46.77153,"pop":0},{"id":618433,"name":"Cigîrleni","alt":["Chigerleny","Chigirlen'","Chigirleni","Chigirleny","Chigirlen’","Chigyrlen'","Chigyrlen’","Chigyrljany","Chigyrlyany","Chygerleny","Cigareni","Cighirleni","Cighirleny","Cigirleni","Cigâreni","Чигырляны"],"lon":28.82803,"lat":46.75615,"pop":0},{"id":618434,"name":"Cihoreni","alt":["Chegoren'","Chegoreny","Chegoren’","Chigorjany","Chigoryany","Чигоряны"],"lon":28.86172,"lat":47.50638,"pop":0},{"id":617924,"name":"Cîietu","alt":["Caiet","Caietu","Chioselia Mica","Chioselia Mică","Ciietu","Câietu","Kayet","Kyet","Kyyet","Кыет"],"lon":28.48126,"lat":46.13721,"pop":0},{"id":618432,"name":"Cimişeni","alt":["Chimishen'","Chimisheni","Chimisheny","Chimishen’","Cimiseni","Чимишены"],"lon":29.12923,"lat":47.01201,"pop":0},{"id":618406,"name":"Cimişlia","alt":["Chimishlija","Chimishliya","Cimislia","Чимишлия"],"lon":28.76441,"lat":46.52685,"pop":12464},{"id":617932,"name":"Cîmpul Drept","alt":["Campul Drept","Cimpul Drept","Câmpul Drept","Kympul-Drept","Кымпул-Дрепт"],"lon":28.51362,"lat":46.56543,"pop":0},{"id":618429,"name":"Cinişeuţi","alt":["Chinisheucy","Chinisheuts'","Chinisheutsi","Chinisheutsy","Chinisheuts’","Chinishevtsy","Chinsheutsy","Ciniseuti","Чинишеуцы"],"lon":28.85747,"lat":47.69735,"pop":0},{"id":618425,"name":"Cioara","alt":["Choara","Chora","Chory","Чоара"],"lon":28.22243,"lat":46.73495,"pop":0},{"id":618445,"name":"Ciobalaccia","alt":["Chabalakchia","Chebalakchija","Chebalakchiya","Chebolakchiya","Chobalakchiya","Chobolakchiya","Chobolokchiya","Чебалакчия"],"lon":28.28305,"lat":46.17243,"pop":0},{"id":618446,"name":"Ciobanovca","alt":["Chebanovka","Chobana","Ciobana","Чебановка"],"lon":29.19331,"lat":46.81484,"pop":0},{"id":618447,"name":"Ciobanovca","alt":["Chebanka","Chobanka","Ciobanca","Чебанка"],"lon":28.50287,"lat":47.14762,"pop":0},{"id":829855,"name":"Ciobanovca","alt":["Chebanovka","Чебановка"],"lon":27.75782,"lat":47.8909,"pop":0},{"id":618423,"name":"Cioburciu","alt":["Chebruch","Chebruchi","Chobruchi","Chobruchu","Coburcu","Csoeboercsoek","Csöbörcsök","Čoburču","Чобручи","Чобручі"],"lon":29.7538,"lat":46.68521,"pop":0},{"id":618424,"name":"Cioburciu","alt":["Chebruchi","Chioburchyu","Chobruchi","Chobruchu","Чобручи"],"lon":29.70678,"lat":46.60133,"pop":0},{"id":618422,"name":"Cioc Maidan","alt":["Chok-Majdan","Chok-Maydan","Chok-Meydan","Cioc Meidan","Чок-Майдан"],"lon":28.82059,"lat":46.36587,"pop":0},{"id":617695,"name":"Ciocana","alt":["Chokany Noua","Novyye Chekany","Pretura Ciocana"],"lon":28.89972,"lat":47.03278,"pop":0},{"id":618421,"name":"Ciocîlteni","alt":["Chekolteny","Chiolkylkeni","Chokolten'","Chokolteni","Chokolten’","Chokyltjany","Chokyltyany","Ciocalteni","Ciocilteni","Ciocâlteni","Чокылтяны"],"lon":28.60996,"lat":47.49432,"pop":0},{"id":831026,"name":"Ciofu","alt":["Chofu","Чофу"],"lon":28.21909,"lat":47.56283,"pop":0},{"id":617739,"name":"Ciolacu Nou","alt":["Cholaku-Nou","Novaja Chelakovka","Novaya Chelachovka","Novaya Chelakovka","Novyy Chiolaku","Novyy Cholak","Новая Челаковка"],"lon":27.83139,"lat":47.48494,"pop":0},{"id":617356,"name":"Ciolacu Vechi","alt":["Cholaku-Vek'","Cholaku-Vek’","Chuluk","Staraja Chelakovka","Staraya Chelachovka","Staraya Chelakovka","Staryy Cholak","Старая Челаковка"],"lon":27.86097,"lat":47.47645,"pop":0},{"id":618418,"name":"Cioma","alt":["Cherna","Chernaya","Chorna","Чорна"],"lon":28.97543,"lat":47.77044,"pop":0},{"id":618420,"name":"Ciopleni","alt":["Choplen'","Chopleny","Choplen’","Чоплены"],"lon":28.95091,"lat":47.13053,"pop":0},{"id":7731675,"name":"Ciorăşti","lon":28.2,"lat":47.15,"pop":0},{"id":864990,"name":"Ciorâta","alt":["Choritsa","Ciorata","Shoritsa"],"lon":28.30306,"lat":45.96639,"pop":0},{"id":824153,"name":"Ciorescu","alt":["Choresku","Krikova-Noue","Krikova-Noueh","Крикова-Ноуэ","Чореску"],"lon":28.88937,"lat":47.13,"pop":6870},{"id":618419,"name":"Cioreşti","alt":["Choresht'","Choreshty","Choresht’","Cioresti","Чорешты"],"lon":28.22094,"lat":47.16565,"pop":0},{"id":863770,"name":"Cioropcani","alt":["Choropkany","Cioropcanii","Чоропканы"],"lon":27.69421,"lat":47.39622,"pop":0},{"id":617694,"name":"Cioropcanii Noui","alt":["Choropkani Nouy","Novyye Choropkany"],"lon":27.69639,"lat":47.39694,"pop":0},{"id":617342,"name":"Cioropcanii Vechi","alt":["Choropkani Vek'","Choropkany","Staryye Choropkany"],"lon":27.71139,"lat":47.395,"pop":0},{"id":618440,"name":"Ciripcău","alt":["Cherepkov","Cherepkovo","Chiripkeu","Chiriykeu","Ciripcau","Ciripeau","Ciripeău","Черепково"],"lon":28.38295,"lat":47.98425,"pop":0},{"id":617931,"name":"Cirnăţeni","alt":["Carnateni","Cirnateni","Cârnăţeni","Kirnatsany","Kirnatsen","Kirnatseny","Kirnetseni","Kyrnaceny","Kyrnatseny","Кырнацены"],"lon":29.49314,"lat":46.65446,"pop":0},{"id":617680,"name":"Cîrnăţenii Noi","alt":["Carnatenii Noi","Cirnatenii Noi","Cârnăţenii Noi","Kyrnatseniy-Noy","Novye Kyrnaceny","Novyye Kyrnatseny","Новые Кырнацены"],"lon":29.13898,"lat":46.64918,"pop":0},{"id":617930,"name":"Cîrneşti","alt":["Carnesti","Cirnesti","Cârneşti","Korneshty-Sabany","Kyrneshti","Kyrneshty-Sabany","Кырнешти"],"lon":27.99724,"lat":47.17571,"pop":0},{"id":617929,"name":"Cîrpeşti","alt":["Carpesti","Cirpesti","Cârpeşti","Karpeshty","Kerpeshti","Kirpeshty","Kyrpeshty","Кырпешты"],"lon":28.33929,"lat":46.25937,"pop":0},{"id":617927,"name":"Cîşla","alt":["Casla","Cisla","Câşla","Kyshla","Кышла"],"lon":28.22609,"lat":47.49345,"pop":0},{"id":617928,"name":"Cîşla","alt":["Casla","Cisla","Câşla","Kozhdangliya","Kyshla","Кышла"],"lon":28.33489,"lat":46.141,"pop":0},{"id":617926,"name":"Cîşliţa-Prut","alt":["Caslita-Prut","Cislita-Prut","Câşliţa-Prut","Kashlitsa-Prut","Kishlitsa Prut","Kislitsa Prut","Kyshlica-Prut","Kyshlitsa-Prut","Кышлица-Прут"],"lon":28.1709,"lat":45.53914,"pop":0},{"id":618427,"name":"Cişmea","alt":["Chishma","Chishmja","Chishmy","Chishmya","Chisma","Cismea","Чишмя"],"lon":28.75365,"lat":47.41515,"pop":0},{"id":618428,"name":"Cişmichioi","alt":["Cheshmskey","Cheshmskëy","Chishlikioi","Chishmikioj","Chishmikioy","Cismichioi","Чишмикиой"],"lon":28.38115,"lat":45.54694,"pop":0},{"id":829547,"name":"Ciubara","alt":["Chubara","Чубара"],"lon":27.53921,"lat":48.07637,"pop":0},{"id":618414,"name":"Ciuciuieni","alt":["Chuchueny","Chuchuyen'","Chuchuyeni","Chuchuyeny","Chuchuyen’","Ciuciuleni","Чучуены"],"lon":28.12807,"lat":47.55779,"pop":0},{"id":618415,"name":"Ciuciulea","alt":["Chuchulja","Chuchulya","Чучуля"],"lon":27.48475,"lat":47.65899,"pop":0},{"id":618416,"name":"Ciuciuleni","alt":["Chuchelyany","Chuchuleny","Chuchulyany","Chyuchyuleni","Чучулены"],"lon":28.40904,"lat":47.02257,"pop":0},{"id":618411,"name":"Ciucur-Mingir","alt":["Cecur Mengir","Cecur Menjir","Chekur-Menzhir","Chekur-Minzhir","Chukur-Mindzhir","Chukur-Minzhir","Чекур-Минжир"],"lon":28.75524,"lat":46.43892,"pop":0},{"id":618413,"name":"Ciufleşti","alt":["Chuflesht'","Chufleshty","Chuflesht’","Ciuflesti","Чуфлешты"],"lon":29.00075,"lat":46.62284,"pop":0},{"id":829868,"name":"Ciuluc","alt":["Chuluk","Чулук"],"lon":27.78764,"lat":47.63594,"pop":0},{"id":618410,"name":"Ciulucani","alt":["Chulukan'","Chulukany","Chulukan’"],"lon":28.34306,"lat":47.50528,"pop":0},{"id":618409,"name":"Ciumai","alt":["Chumaj","Chumay","Chumay Vanino","Чумай"],"lon":28.56727,"lat":45.78117,"pop":0},{"id":618408,"name":"Ciuteşti","alt":["Chuteshty","Ciutesti","Чутешты"],"lon":28.12204,"lat":47.17743,"pop":0},{"id":618407,"name":"Ciutuleşti","alt":["Chutulesht'","Chutuleshti","Chutuleshty","Chutulesht’","Ciutulesti","Чутулешты"],"lon":28.39384,"lat":47.76191,"pop":0},{"id":618066,"name":"Cîzlar","alt":["Chiselari","Chizelari","Cizlar","Kizlar","Kizlyar","Kyzlar","Кызлар"],"lon":28.525,"lat":46.65083,"pop":0},{"id":10193047,"name":"Ckulyanskaya Rogatka","alt":["Skuljanskaja Rogatka","Скулянская Рогатка"],"lon":28.79512,"lat":47.04104,"pop":0},{"id":618065,"name":"Climăuţi","alt":["Climauti","Klimaucy","Klimauts'","Klimautsy","Klimauts’","Климауцы"],"lon":27.61565,"lat":48.31263,"pop":0},{"id":617749,"name":"Climăuţii de Jos","alt":["Climautii de Jos","Klimauts'-De-Zhos","Klimautsy","Klimauts’-De-Zhos","Nizhnie Klimaucy","Nizhniye Klimautsy","Нижние Климауцы"],"lon":28.79658,"lat":47.94804,"pop":0},{"id":829592,"name":"Clişcăuţi","alt":["Cliscauti","Kalishkaucy","Kalishkautsy","Калишкауцы"],"lon":27.32076,"lat":48.28312,"pop":0},{"id":831190,"name":"Clişcăuţi","alt":["Cliscauti","Klishkaucy","Klishkautsy","Клишкауцы"],"lon":28.29169,"lat":47.60885,"pop":0},{"id":618064,"name":"Clişova","alt":["Clisova","Ilishova","Klishova","Klishovo","Клишово"],"lon":28.57839,"lat":47.47243,"pop":0},{"id":617334,"name":"Clococenii Vechi","alt":["Kolokocheni-Vek'","Kolokocheni-Vek’","Starye Klokocheny","Staryye Klokochany","Staryye Klokocheny","Старые Клокочены"],"lon":27.41575,"lat":47.71854,"pop":0},{"id":618063,"name":"Clocuşna","alt":["Clocusna","Klokushna","Клокушна"],"lon":27.34973,"lat":48.42817,"pop":0},{"id":618061,"name":"Cneazevca","alt":["Cneazevca a Doua","Knjazevka Vtoraja","Knyazevka","Knyazevka Vtoraya","Novaya Knyazevka","Князевка Вторая"],"lon":28.50363,"lat":46.6324,"pop":0},{"id":829870,"name":"Coada Iazului","alt":["Koada-Jazuluj","Koada-Yazuluy","Коада-Язулуй"],"lon":27.99337,"lat":47.65355,"pop":0},{"id":618060,"name":"Cobani","alt":["Cubani","Koban'","Koban’","Kuban'","Kubani","Kuban’","Кобань"],"lon":27.32195,"lat":47.76718,"pop":0},{"id":618059,"name":"Cobîlnea","alt":["Cobalea-Veche","Cobalnea","Cobilea","Cobilnea","Cobâlnea","Cobîlea","Kobyl'nja","Kobyl'nya","Kobylea","Kobylya-Vek'","Kobylya-Veke","Kobylya-Vek’","Kobyl’nya","Novaya Kovil'nya","Novaya Kovil’nya","Кобыльня"],"lon":28.67022,"lat":47.8654,"pop":0},{"id":617732,"name":"Cobusca Nouă","alt":["Cobusca Noua","Kobuska Noua","Novaja Kobuska","Novaya Kobushka","Novaya Kobuska","Novaya Kobusska","Новая Кобуска"],"lon":29.20798,"lat":46.93303,"pop":0},{"id":617353,"name":"Cobusca Veche","alt":["Kobuska Veke","Staraja Kobuska","Staraya Kobuska","Staraya Kobusska","Старая Кобуска"],"lon":29.1814,"lat":46.96923,"pop":0},{"id":618057,"name":"Cocieri","alt":["Kochiery","Kochiyery","Kucheyer","Kuchiyer","Kuchiyery","Кочиеры"],"lon":29.11755,"lat":47.3017,"pop":4151},{"id":618056,"name":"Cociulia","alt":["Kachaliya","Kachuliya","Kochaliya","Kochulija","Kochuliya","Kochyulya","Кочулия"],"lon":28.41505,"lat":46.35681,"pop":0},{"id":864954,"name":"Cociulia Nouă","alt":["Cociulia Noua","Novaya Kochulika","Novyye Kochulei"],"lon":28.47333,"lat":46.44194,"pop":0},{"id":618053,"name":"Codreanca","alt":["Cobalca","Cobâlca","Kobylka","Kobylkya","Kodrjanka","Kodryanka","Kolbylkya","Кодрянка"],"lon":28.59203,"lat":47.28662,"pop":0},{"id":618055,"name":"Codreni","alt":["Kodren'","Kodren’","Kodrjany","Kodryany","Korden'","Korden’","Кодряны"],"lon":27.7177,"lat":48.43143,"pop":0},{"id":618559,"name":"Codreni","alt":["Biscotari","Bishkotar'","Bishkotary","Bishkotar’","Bişcotari","Kodren'","Kodren’","Zloti","Zlotovka","Бишкотары"],"lon":28.88324,"lat":46.6757,"pop":0},{"id":829557,"name":"Codrenii Noi","alt":["Novye Kodrjany","Novyye Kodryany","Новые Кодряны"],"lon":27.57664,"lat":48.14384,"pop":0},{"id":618054,"name":"Codru","alt":["Arkhiyereyskiy","Kodru","Schinoasa","Skinosa","Кодру","Скиноса"],"lon":28.819,"lat":46.97648,"pop":15934},{"id":831243,"name":"Codru","alt":["Basheny","Beshen'","Beshen’","Kodru","Кодру"],"lon":28.2682,"lat":47.46459,"pop":0},{"id":831256,"name":"Codrul Nou","alt":["Kodrul-Nou","Кодрул-Ноу"],"lon":28.57567,"lat":47.54669,"pop":0},{"id":618051,"name":"Cogîlniceni","alt":["Cogalniceni","Cogilniceni","Cogâlniceni","Kogil'nichen'","Kogil’nichen’","Kogyl'nicheny","Kogyl’nicheny","Когыльничены"],"lon":28.82083,"lat":47.63518,"pop":0},{"id":617984,"name":"Coicova","alt":["Kojkovo","Koykova","Koykovo","Койково"],"lon":29.24394,"lat":47.40908,"pop":0},{"id":617982,"name":"Cojușna","alt":["Cojusna","Cojuşna","Kozhushna","Kozhusna","Кожушна"],"lon":28.66188,"lat":47.09459,"pop":0},{"id":618049,"name":"Colbasna","alt":["Cobasna","Kolbasna","Kolbasnaya","Колбасна"],"lon":29.20542,"lat":47.78323,"pop":0},{"id":618048,"name":"Colibabovca","alt":["Calibabovca","Kolibabovka","Kolybayevka","Колибабовка"],"lon":28.4258,"lat":46.65206,"pop":0},{"id":618047,"name":"Colibaşi","alt":["Colibasi","Golibasi","Golibaşi","Kolibash","Колибаш"],"lon":28.18148,"lat":45.71783,"pop":0},{"id":618046,"name":"Colicăuţi","alt":["Colicauti","Kalikautsy","Kolikaucy","Kolikauts'","Kolikautsy","Kolikauts’","Kolikoutsy","Коликауцы"],"lon":27.1496,"lat":48.31044,"pop":0},{"id":618045,"name":"Coloniţa","alt":["Colonita","Kolonica","Kolonitsa","Колоница"],"lon":28.95666,"lat":47.04238,"pop":0},{"id":618043,"name":"Colosova","alt":["Bergdorf","Kolosovo","Kolosovo Poselok","Kolosovo Posëlok"],"lon":29.56222,"lat":47.33667,"pop":0},{"id":618044,"name":"Colosova","alt":["Kolosovo","Kolosovo Poselok","Kolosovo Posëlok","Maloye Kolosovo","Колосово"],"lon":29.56596,"lat":47.32886,"pop":0},{"id":618152,"name":"Comarovca","alt":["Kamarovka","Kemereni","Komarovka","Комаровка"],"lon":27.90573,"lat":47.69038,"pop":0},{"id":617714,"name":"Comisarovca Nouă","alt":["Comisarovca Noua","Novaya Komissarovka","Novokomissarovka","Новокомиссаровка"],"lon":29.34722,"lat":47.33056,"pop":0},{"id":618405,"name":"Comrat","alt":["Kamrat","Komrad","Komrat","Komratas","ke mu la ci","khxm rat","komlateu","kwmrat","Κομράτ","Камрат","Комрат","کومرات","คอมรัต","კომრატი","科姆拉茨","콤라트"],"lon":28.6565,"lat":46.29456,"pop":22911},{"id":618040,"name":"Condrăteşti","alt":["Condratesti","Kondrateshti","Kondrateshty","Kondreteshti","Кондратешты"],"lon":28.10499,"lat":47.41384,"pop":0},{"id":618039,"name":"Condriţa","alt":["Condrita","Kondrica","Kondritsa","Кондрица"],"lon":28.5676,"lat":47.05608,"pop":0},{"id":618404,"name":"Congaz","alt":["Kangaz","Kongaz","Конгаз"],"lon":28.59303,"lat":46.10744,"pop":13406},{"id":7730792,"name":"Congazcic","lon":28.52239,"lat":46.34622,"pop":0},{"id":618038,"name":"Congazcicul de Jos","alt":["Kangazchik-Nizhniy","Kongazchik-Nizhnij","Kongazchik-Nizhniy","Kungaz","Kungaz Malyy Pervyy","Конгазчик-Нижний"],"lon":28.57169,"lat":46.31229,"pop":0},{"id":618037,"name":"Congazcicul de Sus","alt":["Kangazchik-Verkhniy","Kongazchik Verkhnij","Kongazchik Verkhniy","Kungaz Malyy Vtoroy","Конгазчик Верхний"],"lon":28.56418,"lat":46.33158,"pop":0},{"id":618035,"name":"Constantineşti","alt":["Constantinesti","Konstantinovka","Константиновка"],"lon":28.21307,"lat":46.11055,"pop":0},{"id":618032,"name":"Constantinovca","alt":["Konstantinovka","Константиновка"],"lon":28.8586,"lat":47.98784,"pop":0},{"id":618033,"name":"Constantinovca","alt":["Konstantinovka","Константиновка"],"lon":29.85069,"lat":46.85199,"pop":0},{"id":618034,"name":"Constantinovca","alt":["Constantinesti","Konstantineshti","Konstantinovka","Константиновка"],"lon":29.11305,"lat":46.72246,"pop":0},{"id":618036,"name":"Constantinovca","alt":["Konstantinesht","Konstantinovka","Константиновка"],"lon":27.10944,"lat":48.24851,"pop":0},{"id":618031,"name":"Copăceanca","alt":["Kopachanka","Kopecheni"],"lon":27.55056,"lat":47.96694,"pop":0},{"id":618030,"name":"Copăceni","alt":["Copaceni","Kopachany","Kopachen'","Kopacheni","Kopacheny","Kopachen’","Kopecheni","Копачены"],"lon":28.23422,"lat":47.61577,"pop":0},{"id":618029,"name":"Copanca","alt":["Ion Gheorghe","Kopanka","Копанка"],"lon":29.6197,"lat":46.71924,"pop":0},{"id":618027,"name":"Copceac","alt":["Kopchak","Копчак"],"lon":29.5228,"lat":46.45087,"pop":0},{"id":618028,"name":"Copceac","alt":["Kopchak","Tatar Copceac","Tatar Copcezc","Tatar-Copceag","Tatar-Kopchak","Копчак"],"lon":28.69201,"lat":45.84916,"pop":0},{"id":618025,"name":"Corbu","alt":["Corbul","Korbu","Korbul","Корбу"],"lon":27.57748,"lat":48.26539,"pop":0},{"id":618023,"name":"Corestăuţi","alt":["Corestauti","Korestautsy","Korestoucy","Korestoutsy","Korosteuts'","Korosteuts’","Корестоуцы"],"lon":27.26671,"lat":48.35153,"pop":0},{"id":618015,"name":"Corjeuţi","alt":["Corjeuti","Korzheucy","Korzheuts'","Korzheutsy","Korzheuts’","Korzhevtsy","Коржеуцы"],"lon":27.04711,"lat":48.21554,"pop":0},{"id":618013,"name":"Corjova","alt":["Korzheva","Korzhevo","Korzhovo","Коржово"],"lon":29.17356,"lat":47.09724,"pop":0},{"id":618014,"name":"Corjova","alt":["Korzhevo","Korzhova","Коржево","Коржова","კორჟოვა"],"lon":29.12962,"lat":47.28766,"pop":0},{"id":617873,"name":"Corlăteni","alt":["Corlateni","Ljadoveny","Lyadoveny","Stramba","Strymba","Strâmba","Лядовены"],"lon":27.8447,"lat":47.82862,"pop":0},{"id":618020,"name":"Corneşti","alt":["Cornesti","Kornesht' Tyrg","Korneshti","Korneshty","Kornesht’ Tyrg"],"lon":27.99784,"lat":47.37009,"pop":0},{"id":618021,"name":"Corneşti","alt":["Cornesti","Korneshty","Корнешты"],"lon":28.00809,"lat":47.35856,"pop":0},{"id":824137,"name":"Corneşti","alt":["Cornesti","Kirkot","Korneshty","Корнешты"],"lon":28.32784,"lat":47,"pop":0},{"id":618018,"name":"Cornova","alt":["Kornova","Kornovo","Корново"],"lon":28.17313,"lat":47.39467,"pop":0},{"id":829648,"name":"Coroliovca","alt":["Korolevka","Korolëvka","Королевка"],"lon":28.47128,"lat":46.71086,"pop":0},{"id":618017,"name":"Coropceni","alt":["Korobcheny","Koropchen'","Koropcheni","Koropchen’","Коробчены"],"lon":28.52209,"lat":47.47496,"pop":0},{"id":618016,"name":"Corotna","alt":["Korotna","Korotnoe","Korotnoye","Коротное"],"lon":29.85633,"lat":46.63326,"pop":0},{"id":829581,"name":"Corpaci","alt":["Korpach","Корпач"],"lon":27.13941,"lat":48.00819,"pop":0},{"id":618071,"name":"Corten","alt":["Chiriutnea","Chirutnea","Kerutnya","Kirjutnja","Kirotnya","Kiryutnya","Korten","Кирютня"],"lon":28.73567,"lat":46.01504,"pop":0},{"id":864949,"name":"Cortenul Nou","alt":["Cortinul Nou","Novyj Kortin","Novyy Kortin","Новый Кортин"],"lon":28.57036,"lat":46.00715,"pop":0},{"id":618003,"name":"Cosăuţi","alt":["Cosauti","Kosauts'","Kosauts’","Koseuts","Kosoucy","Kosoutsy","Косоуцы"],"lon":28.28037,"lat":48.2266,"pop":0},{"id":618008,"name":"Coşcalia","alt":["Cascalia","Caşcalia","Coscalia","Kashkaliya","Kashkalya","Koshkalija","Koshkaliya","Кошкалия"],"lon":29.15698,"lat":46.68546,"pop":0},{"id":618007,"name":"Coşcodeni","alt":["Coscodeni","Koshkaden","Koshkodeny","Кошкодены"],"lon":28.05777,"lat":47.48943,"pop":0},{"id":618011,"name":"Coşeni","alt":["Coseni","Koshen'","Kosheny","Koshen’","Кошены"],"lon":27.92538,"lat":47.44188,"pop":0},{"id":618009,"name":"Coşerniţa","alt":["Cosarnita","Cosernita","Coşărniţa","Koshernica","Koshernitsa","Кошерница"],"lon":28.46561,"lat":47.93971,"pop":0},{"id":618010,"name":"Coşerniţa","alt":["Cosernita","Koshernica","Koshernitsa","Кошерница"],"lon":29.04666,"lat":47.11903,"pop":0},{"id":617683,"name":"Cosmenii Noui","alt":["Cuzmenii Noi","Kozmeni-Nouy","Novyye Koz'meny","Novyye Kozmeni"],"lon":27.55028,"lat":47.51028,"pop":0},{"id":618006,"name":"Coşniţa","alt":["Cosnita","Koshnica","Koshnitsa","Кошница"],"lon":29.13449,"lat":47.14635,"pop":0},{"id":617731,"name":"Coşniţa Nouă","alt":["Cosnita Noua","Novaja Koshnica","Novaya Koshnitsa","Novo-Koshnitsa","Poselok Novo-Koshnitsa","Posëlok Novo-Koshnitsa","Новая Кошница"],"lon":29.33126,"lat":47.31351,"pop":0},{"id":618005,"name":"Coştangalia","alt":["Bol'shaya Kashtangaliya","Bol'shaya Kazhdangliya","Bol’shaya Kashtangaliya","Bol’shaya Kazhdangliya","Costangalia","Kashtangaliya","Koshtangalija","Koshtangaliya","Коштангалия"],"lon":28.38663,"lat":46.10983,"pop":0},{"id":618126,"name":"Coştangalia","alt":["Costangalia","Kashtangalija","Kashtangaliya","Koshtangaliya","Каштангалия"],"lon":28.80175,"lat":46.61786,"pop":0},{"id":618000,"name":"Costeşti","alt":["Costesti","Kostesht'","Kosteshti","Kosteshty","Kostesht’","Костешты"],"lon":27.25947,"lat":47.85791,"pop":0},{"id":618001,"name":"Costeşti","alt":["Costesti","Kosteshty","Костешты"],"lon":28.76235,"lat":46.86549,"pop":0},{"id":618002,"name":"Costeşti","alt":["Costesti","Kosteshty","Костешты"],"lon":28.20592,"lat":46.87372,"pop":0},{"id":865514,"name":"Costiujeni","lon":28.82944,"lat":46.955,"pop":0},{"id":617999,"name":"Costuleni","alt":["Kostulen'","Kostuleni","Kostuleny","Kostulen’","Костулены"],"lon":27.91156,"lat":47.08083,"pop":0},{"id":617997,"name":"Cot","alt":["Kot","Кот"],"lon":28.7784,"lat":47.98005,"pop":0},{"id":863765,"name":"Cot","alt":["Kot","Кот"],"lon":27.337,"lat":47.65348,"pop":0},{"id":617989,"name":"Coteala","alt":["Kotel'na","Kotel’na","Kotjala","Kotyala","Котяла"],"lon":26.86295,"lat":48.33073,"pop":0},{"id":617996,"name":"Cotihana","alt":["Katyugany","Kotigany","Kotikhana","Kotyugany","Котиганы"],"lon":28.24344,"lat":45.93833,"pop":0},{"id":617987,"name":"Cotiujeni","alt":["Kotjuzhany","Kotyudzhen'","Kotyudzhen’","Kotyuzhany","Котюжаны"],"lon":26.9377,"lat":48.34717,"pop":0},{"id":617988,"name":"Cotiujenii Mari","alt":["Bol'shiye Kotyuzhany","Bol’shiye Kotyuzhany","Cotiugeni Mari","Cotiugenii Mari","Kotjuzhany","Kotyudzheny Mar'","Kotyudzheny Mar’","Kotyuzhany","Котюжаны"],"lon":28.55514,"lat":47.84503,"pop":0},{"id":617852,"name":"Cotiujenii Mici","alt":["Cotiugenii Mici","Kotyudzheni-Mich'","Kotyudzheni-Mich’","Malye Kotjuzhany","Malyye Kotyuzhany","Малые Котюжаны"],"lon":28.30539,"lat":47.70295,"pop":0},{"id":617994,"name":"Cotova","alt":["Kotova","Kotovo","Kotovsk","Котово"],"lon":27.95111,"lat":48.16102,"pop":0},{"id":617995,"name":"Cotovca","alt":["Kotovka","Kotovskogo","Котовка"],"lon":29.47846,"lat":47.28432,"pop":0},{"id":618024,"name":"Cotovca","alt":["Kotovka","Котовка"],"lon":27.97431,"lat":47.85294,"pop":0},{"id":618144,"name":"Cotovscoe","alt":["Caetu","Cirlaneni","Cîrlăneni","Căetu","Kangaz Vtoroy","Kirlaneny","Kotovskiy","Kotovskoe","Kotovskoye","Котовское"],"lon":28.51417,"lat":46.16203,"pop":0},{"id":617990,"name":"Cotul Morii","alt":["Cotu Morii","Kotu-Mare","Kotu-Morey","Kotu-Moriy","Kotul-Morij","Kotul-Moriy","Kotumori","Котул-Морий"],"lon":28.11807,"lat":46.86987,"pop":0},{"id":617985,"name":"Covurlui","alt":["Kovyrluj","Kovyrluy","Kugurluy","Kuvurluy","Kuvyrluy","Ковырлуй"],"lon":28.40144,"lat":46.59056,"pop":0},{"id":617983,"name":"Cozeşti","alt":["Cozesti","Kozesht'","Kozeshti","Kozeshty","Kozesht’","Козешты"],"lon":28.18244,"lat":47.56875,"pop":0},{"id":617981,"name":"Crăciun","alt":["Craciun","Krachun","Kreshyun","Крачун"],"lon":28.35099,"lat":46.23308,"pop":0},{"id":617970,"name":"Crasnăi Octeabri","alt":["Crasnai Octeabri","Crasnii Octeabri","Crasnîi Octeabri","Krasnyj Oktjabr'","Krasnyy Oktyabr'","Krasnyy Oktyabr’","Красный Октябрь"],"lon":28.54876,"lat":48.01282,"pop":0},{"id":617969,"name":"Crasnâi Vinogradari","alt":["Crasnai Vinogradari","Crasnii Vinogradari","Crasnîi Vinogradari","Krasnyj Vinogradar'","Krasnyy Vinogradar'","Krasnyy Vinogradar’","Vinogradari","Красный Виноградарь"],"lon":29.27926,"lat":47.29848,"pop":0},{"id":617979,"name":"Crasnaia Besarabia","alt":["Crasnaia Bessarabia","Krasnaja Bessarabija","Krasnaya Bessarabiya","Krasnaya Bessarabka","Красная Бессарабия"],"lon":29.58763,"lat":47.28442,"pop":0},{"id":617978,"name":"Crasnaia Gorca","alt":["Krasnaja Gorka","Krasnaya Gorka","Красная Горка"],"lon":29.31861,"lat":47.13187,"pop":0},{"id":617980,"name":"Crăsnăşeni","alt":["Crasnaseni","Crasnoseni","Crăsnoşeni","Krasnasheny","Krasnoshen'","Krasnosheni","Krasnosheny","Krasnoshen’","Краснашены"],"lon":28.39828,"lat":47.433,"pop":0},{"id":617977,"name":"Crasnencoe","alt":["Crasnenicoe","Kraschen'koye","Kraschen’koye","Krasnen'koe","Krasnen'koye","Krasnen’koye","Красненькое"],"lon":29.14029,"lat":47.84813,"pop":0},{"id":617976,"name":"Crasnoarmeiscoe","alt":["Geamana","Geamăna","Krasnoarmejskoe","Krasnoarmeysk","Krasnoarmeyskoye","Princhipele Karol","Principele Carol","Красноармейское"],"lon":28.27458,"lat":46.82034,"pop":0},{"id":617973,"name":"Crasnoe","alt":["Crasna","Krasnoe","Krasnoye","Красное"],"lon":29.80403,"lat":46.64844,"pop":4200},{"id":829966,"name":"Crasnoe","alt":["Krasnoe","Krasnoye","Красное"],"lon":29.36139,"lat":47.18153,"pop":0},{"id":617975,"name":"Crasnogorca","alt":["Krasnogorka","Красногорка"],"lon":29.4603,"lat":46.96396,"pop":0},{"id":617968,"name":"Cremenciug","alt":["Kremenchug","Kremenchuk","Кременчуг"],"lon":28.08459,"lat":48.27567,"pop":0},{"id":824140,"name":"Cremenciug","alt":["Kremenchug","Кременчуг"],"lon":29.67405,"lat":46.7061,"pop":0},{"id":617967,"name":"Creţoaia","alt":["Cretoaia","Krecoaja","Kretsoaya","Kretsoya","Крецоая"],"lon":29.13431,"lat":46.86627,"pop":0},{"id":617965,"name":"Cricova","alt":["Krikova","Krikovo","Криково"],"lon":28.86156,"lat":47.13835,"pop":7400},{"id":617708,"name":"Crihana","alt":["Cotovscoe","Kotovskoe","Kotovskoye","Novoselovka","Novosëlovka","Котовское"],"lon":28.72016,"lat":47.52262,"pop":0},{"id":617336,"name":"Crihana Veche","alt":["Crihana","Krigana","Starye Krigany","Staryye Kirgany","Staryye Krigany","Старые Криганы"],"lon":28.19464,"lat":45.84664,"pop":0},{"id":617964,"name":"Crişcăuţi","alt":["Criscauti","Krishkaucy","Krishkauts'","Krishkautsy","Krishkauts’","Кришкауцы"],"lon":27.85554,"lat":48.26636,"pop":0},{"id":617963,"name":"Cristeşti","alt":["Cristesti","Kristesht'","Kristeshty","Kristesht’","Кристешты"],"lon":28.28375,"lat":47.0575,"pop":0},{"id":618403,"name":"Criuleni","alt":["Kriulen'","Kriuleni","Kriulen’","Kriuljany","Kriulyany","Krivleny","Kryulyany","Криуляны"],"lon":29.15926,"lat":47.21307,"pop":6932},{"id":617961,"name":"Criva","alt":["Kriva","Крива"],"lon":26.67122,"lat":48.27403,"pop":0},{"id":618022,"name":"Crocmaz","alt":["Corcmaz","Korkmaz","Korkmazy","Krokmazy","Коркмаз"],"lon":29.98525,"lat":46.45135,"pop":0},{"id":617960,"name":"Cruglic","alt":["Kruglik","Круглик"],"lon":29.02615,"lat":47.21793,"pop":0},{"id":829805,"name":"Cruzeşti","alt":["Cruzesti","Kruzeshty","Крузешты"],"lon":28.97297,"lat":47.07969,"pop":0},{"id":617958,"name":"Cubolta","alt":["Kubolta","Куболта"],"lon":28.03211,"lat":47.87263,"pop":0},{"id":617956,"name":"Cucioaia","alt":["Kuchoaja","Kuchoaya","Kuchoya","Kuchoyya","Кучоая"],"lon":28.18563,"lat":47.46022,"pop":0},{"id":831113,"name":"Cucioaia Nouă","alt":["Cucioaia Noua","Novaja Kuchoaja","Novaya Kuchoaya","Новая Кучоая"],"lon":28.16608,"lat":47.48463,"pop":0},{"id":617953,"name":"Cucoara","alt":["Cocoara","Kokoara","Kokora","Kukoara","Кукоара"],"lon":28.17178,"lat":46.05333,"pop":0},{"id":617682,"name":"Cuconeştii Noi","alt":["Cuconestii Noi","Kukoneshti-Nouy","Kukoneshty-Novyye","Novye Kukoneshty","Novyye Kukoneshty","Новые Куконешты"],"lon":27.20613,"lat":47.98718,"pop":0},{"id":617332,"name":"Cuconeştii Vechi","alt":["Cuconesti Vechi","Cuconestii Vechi","Cuconeşti Vechi","Kukoneshti Vek'","Kukoneshti Veki","Kukoneshti Vek’","Kukoneshty Staryye","Starye Kukoneshty","Staryye Kukoneshty","Старые Куконешты"],"lon":27.14845,"lat":47.96683,"pop":0},{"id":617681,"name":"Cucuieţii Noi","alt":["Cucuietii Noi","Kukuyetsy Nouy","Kukuyetsy-Novyye","Novye Kukuecy","Novyye Kukuyetsy","Новые Кукуецы"],"lon":27.41923,"lat":47.89296,"pop":0},{"id":617331,"name":"Cucuieţii Vechi","alt":["Cucuetii Vechi","Cucueţii Vechi","Cucuietii Vechi","Kukuyetsy Vek'","Kukuyetsy Vek’","Kukuyetsy-Staryye","Starye Kukuecy","Staryye Kukuyetsy","Старые Кукуецы"],"lon":27.43264,"lat":47.90782,"pop":0},{"id":618050,"name":"Cucuruzeni","alt":["Kokorozeny","Kukuruzen'","Kukuruzeni","Kukuruzeny","Kukuruzen’","Кукурузены"],"lon":28.72561,"lat":47.48838,"pop":0},{"id":831221,"name":"Cucuruzenii de Sus","alt":["Cotovscoe","Imeni Kotovskovo","Kotovskoe","Kotovskoye","Котовское"],"lon":28.70284,"lat":47.54445,"pop":0},{"id":617954,"name":"Cuhneşti","alt":["Cuhnesti","Kukhnesht'","Kukhneshti","Kukhneshty","Kukhnesht’","Кухнешты"],"lon":27.37453,"lat":47.6568,"pop":0},{"id":617748,"name":"Cuhureştii de Jos","alt":["Cuhurestii de Jos","Cuhurestii de Jus","Cuhureştii de Jus","Kukhuresht'-De-Zhos","Kukhureshti-De-Zhos","Kukhuresht’-De-Zhos","Nizhnie Kugureshty","Nizhniye Kugureshty","Novyye Kukhureshti","Нижние Кугурешты"],"lon":28.59292,"lat":47.93009,"pop":0},{"id":617132,"name":"Cuhureştii de Sus","alt":["Cuhurestii de Sos","Cuhurestii de Sus","Cuhureştii de Sos","Kugureshty Verkhniye","Kugureshty-de-Sus","Kukhuresht'-de-Sus","Kukhureshti-de-Sus","Kukhuresht’-de-Sus","Verkhnie Kugureshty","Verkhniye Kugureshti","Верхние Кугурешты"],"lon":28.55825,"lat":47.92376,"pop":0},{"id":617937,"name":"Cuizăuca","alt":["Cuizauca","Cuizovca","Fuzovka","Kujzovka","Kuyzovka","Куйзовка"],"lon":28.81645,"lat":47.61346,"pop":0},{"id":617949,"name":"Cunicea","alt":["Kunicha","Kunichya","Кунича"],"lon":28.64649,"lat":47.90786,"pop":0},{"id":617947,"name":"Cupcini","alt":["Kalininsk","Kupchina","Kupchino","Калининск"],"lon":27.3839,"lat":48.11023,"pop":0},{"id":617946,"name":"Cupcui","alt":["Copcui","Kopkuy","Kupkuj","Kupkuy","Купкуй"],"lon":28.35814,"lat":46.51705,"pop":0},{"id":617945,"name":"Cuporani","alt":["Coporani","Koparan","Kuporany","Купораны"],"lon":28.3578,"lat":46.37431,"pop":0},{"id":617944,"name":"Curătura","alt":["Curatura","Curaturi","Curături","Kuratura","Kuratury","Куратура"],"lon":28.91177,"lat":47.87614,"pop":0},{"id":831032,"name":"Curchi","alt":["Kurki","Курки"],"lon":28.65709,"lat":47.33664,"pop":0},{"id":617943,"name":"Cureni","alt":["Kuren'","Kureny"],"lon":29.10778,"lat":46.7175,"pop":0},{"id":617942,"name":"Cureşniţa","alt":["Curesnita","General-Poetash","Kureshnica","Kureshnitsa","Курешница"],"lon":28.17503,"lat":48.2285,"pop":0},{"id":829702,"name":"Cureşniţa Nouă","alt":["Curesnita Noua","Novaja Kureshnica","Novaya Kureshnitsa","Новая Курешница"],"lon":28.12141,"lat":48.18031,"pop":0},{"id":679913,"name":"Curseştii din Vale","lon":27.36667,"lat":47.71667,"pop":0},{"id":617939,"name":"Curtoaia","alt":["Kurtoaja","Kurtoaya","Kurtoya","Куртоая"],"lon":28.1019,"lat":47.39268,"pop":0},{"id":618012,"name":"Cuşelăuca","alt":["Cuselauca","Koshalauka","Kushelovka","Кушеловка"],"lon":28.55636,"lat":47.8787,"pop":0},{"id":617938,"name":"Cuşmirca","alt":["Cusmirca","Kushmiria","Kushmirka","Кушмирка"],"lon":28.70545,"lat":47.90535,"pop":0},{"id":617333,"name":"Cuzmenii Vechi","alt":["Kozmeni-Vek'","Kozmeni-Vek’","Starye Koz'meny","Staryye Koz'meny","Staryye Kozmeni","Staryye Koz’meny","Старые Козьмены"],"lon":27.56615,"lat":47.52643,"pop":0},{"id":617934,"name":"Cuzmin","alt":["Kuz'min","Kuz’min","Кузьмин"],"lon":28.63047,"lat":48.09577,"pop":0},{"id":618402,"name":"Dahnovici","alt":["Dakhnovich","Dakhnovichi","Dalinovici","Дахнович"],"lon":28.48307,"lat":46.97416,"pop":0},{"id":829846,"name":"Dămăşcani","alt":["Damascani","Domashkany","Домашканы"],"lon":27.305,"lat":47.86769,"pop":0},{"id":618401,"name":"Dănceni","alt":["Danceni","Danchen'","Dancheni","Dancheny","Danchen’","Данчены"],"lon":28.70567,"lat":46.96372,"pop":0},{"id":618400,"name":"Dancu","alt":["Dan'ka","Danku","Dan’ka","Данку"],"lon":28.20716,"lat":46.75818,"pop":10000},{"id":618399,"name":"Danu","alt":["Danul","Danul Staryy","Danul Vechiu","Danul Veke","Danul Veki","Danul-Vek'","Danul-Vek’"],"lon":27.49663,"lat":47.83077,"pop":0},{"id":618398,"name":"Dănuţeni","alt":["Danuteni","Danutsany","Danutsen'","Danutseny","Danutsen’","Dănuțeni"],"lon":27.80722,"lat":47.18361,"pop":0},{"id":618392,"name":"Dărcăuţi","alt":["Darcauti","Darkauts'","Darkauts’","Derkaucy","Derkautsy","Деркауцы"],"lon":27.98341,"lat":48.22626,"pop":0},{"id":829704,"name":"Dărcăuţii Noi","alt":["Darcautii Noi","Novye Derkaucy","Novyye Derkautsy","Новые Деркауцы"],"lon":27.99863,"lat":48.21018,"pop":0},{"id":7670566,"name":"Dealul Țiganilor","lon":28.29228,"lat":48.15767,"pop":0},{"id":618396,"name":"Delacău","alt":["Delacau","Delakeu","Predmest'ye Delakeu","Predmest’ye Delakeu","Делакеу"],"lon":29.29906,"lat":47.12854,"pop":0},{"id":618397,"name":"Delacău","alt":["Dalakeu","Delacau","Delacheu","Delakeu","Delakey"],"lon":29.30487,"lat":47.09903,"pop":0},{"id":618393,"name":"Dereneu","alt":["Derenev","Деренев"],"lon":28.24521,"lat":47.38158,"pop":0},{"id":618391,"name":"Dermengi","alt":["Dermedzh'","Dermedzhy","Dermedzh’","Dermenzhi","Дерменжи"],"lon":28.41354,"lat":45.87957,"pop":0},{"id":618390,"name":"Dezghingea","alt":["Desghinge","Deshinge","Dezghinge","Dezgindzhe","Dezginzha","Dezginzhe","Дезгинже"],"lon":28.61791,"lat":46.42207,"pop":0},{"id":7731672,"name":"Dezghinja","lon":28.65,"lat":46.44,"pop":0},{"id":618388,"name":"Dimitrova","alt":["Dimitrovo","Dmitrovo","Tarancuta","Tel'piz","Tel’piz","Ţărăncuţa","Димитрово"],"lon":28.46808,"lat":46.15933,"pop":0},{"id":830824,"name":"Dimitrova","lon":29.14351,"lat":47.87773,"pop":0},{"id":864957,"name":"Dimitrovca","alt":["Dimitrovka","Димитровка"],"lon":28.71691,"lat":46.48539,"pop":0},{"id":618394,"name":"Dîngeni","alt":["Dangeni","Denzhany","Dingeni","Dynzhany","Dângeni","Дынжаны"],"lon":27.48371,"lat":48.34717,"pop":0},{"id":618354,"name":"Dişcova","alt":["Dascova","Discova","Dyshkova","Dyshkovo","Dâşcova","Дышково"],"lon":28.59831,"lat":47.37809,"pop":0},{"id":618387,"name":"Dnestrovsc","alt":["Dnestrovsk","Dnestrovskas","Dnistrovs'k","Dnjastrousk","de nie si te luo fu si ke","Днестровск","Днястроўск","Дністровськ","德涅斯特羅夫斯克"],"lon":29.91926,"lat":46.6164,"pop":10426},{"id":829656,"name":"Dobrogea","alt":["Dobruzha","Добружа"],"lon":28.98776,"lat":46.88431,"pop":0},{"id":617738,"name":"Dobrogea Nouă","alt":["Dobrodzhena Nouye","Dobrodzhena Novaya","Dobrogea Noua","Novaja Dobrudzha","Novaya Dobrudzha","Новая Добруджа"],"lon":27.94409,"lat":47.82943,"pop":0},{"id":617355,"name":"Dobrogea Veche","alt":["Staraja Dobrudzha","Staraya Dobrudzha","Старая Добруджа"],"lon":27.93285,"lat":47.84029,"pop":0},{"id":618386,"name":"Dobruşa","alt":["Dobrusa","Dobrusha","Sloboda Dobrusha","Slobozia-Dobrusa","Slobozia-Dobruşa","Добруша"],"lon":28.59342,"lat":47.78655,"pop":0},{"id":831051,"name":"Dobruşa","alt":["Dobrusa","Dobrushka","Добрушка"],"lon":28.55649,"lat":47.614,"pop":0},{"id":618377,"name":"Doibani Doi","alt":["Doibani 2","Doibani 2 (Doi)","Doibani al Doilea","Dojbany Vtorye","Doybany Vtoryye","Дойбаны Вторые"],"lon":29.21274,"lat":47.40415,"pop":0},{"id":618378,"name":"Doibani Unul","alt":["Doibani 1","Doibani 1 (Unul)","Doibani Primul","Dojbany Pervye","Doyban'","Doybany","Doybany Pervyye","Doybany Purvyye","Doyban’","Дойбаны Первые"],"lon":29.2051,"lat":47.39276,"pop":0},{"id":618376,"name":"Doina","alt":["Achendorf","Akendorf","Dojna","Doyna","Eichendorf","Eykhendorf","Poselok Yeykhendorf","Yeykhendorf","Дойна"],"lon":28.32886,"lat":46.11194,"pop":0},{"id":829665,"name":"Dolinnoe","alt":["Buga","Dolinnoye","Буга"],"lon":28.9967,"lat":47.02412,"pop":0},{"id":617541,"name":"Dolna","alt":["Pushkino","Пушкино"],"lon":28.27033,"lat":47.12189,"pop":1155},{"id":829887,"name":"Doltu","lon":27.82306,"lat":47.53722,"pop":0},{"id":618385,"name":"Dominteni","alt":["Dement'yevka","Dement’yevka","Dominten'","Dominteny","Dominten’","Доминтены"],"lon":27.95346,"lat":47.95563,"pop":0},{"id":618383,"name":"Domulgeni","alt":["Domoluzhany","Domulugeni","Domuluzhany","Domuluzhen'","Domuluzheni","Domuluzheny","Domuluzhen’","Домулужаны"],"lon":28.43623,"lat":47.79187,"pop":0},{"id":618382,"name":"Donduşeni","alt":["Dondusani","Donduseni","Dondushen'","Dondushen’","Donduşăni","Dondyushany"],"lon":27.6101,"lat":48.24268,"pop":9435},{"id":618380,"name":"Donici","alt":["Bezen","Bezeny","Bezin","Donich","Донич"],"lon":28.66896,"lat":47.28634,"pop":0},{"id":618379,"name":"Doroţcaia","alt":["Dorockoe","Dorotcaia","Dorotskoye","Dorotsnoye","Дороцкое"],"lon":29.20356,"lat":47.17229,"pop":0},{"id":618375,"name":"Drăgăneşti","alt":["Draganesht'","Draganeshti","Draganeshty","Draganesht’","Draganesti","Dragoneshty","Dregeneshti","Драганешты"],"lon":28.25219,"lat":47.71895,"pop":0},{"id":618374,"name":"Drăguşeni","alt":["Draguseni","Dragusenii Vechi","Dragusheni Vek'","Dragusheni Vek’","Dragusheny","Dragusheny Staryye","Drăguşenii Vechi","Staryye Dragushany","Драгушены"],"lon":28.44684,"lat":46.98277,"pop":0},{"id":618583,"name":"Drăguşeni","alt":["Beleshty","Beliesti","Belieşti","Beliyesht'","Beliyesht’","Draguseni","Dragusheny","Драгушены"],"lon":28.66607,"lat":47.21464,"pop":0},{"id":617693,"name":"Drăguşenii Noi","alt":["Dragusenii Noi","Dragusenii Noui","Dragushen'-Nouy","Dragusheni Nouy","Dragusheny-Nouy","Dragushen’-Nouy","Drăguşenii Noui","Novye Dragusheny","Novyye Dragusheny","Новые Драгушены"],"lon":28.42425,"lat":47.04579,"pop":0},{"id":618373,"name":"Drăsliceni","alt":["Drasliceni","Draslicheny","Dreslichen'","Dreslichen’","Droslicheny","Драсличены"],"lon":28.78154,"lat":47.15698,"pop":0},{"id":618372,"name":"Drepcăuţi","alt":["Drenkovtsy","Drepcauti","Drepcauţi","Drepkaucy","Drepkautsi","Drepkautsy","Drepkovtsy","Zalucia","Zălucia","Дрепкауцы"],"lon":26.72821,"lat":48.27318,"pop":0},{"id":618370,"name":"Drochia","alt":["Drokija","Drokiya","Drokiya Sat","Дрокия"],"lon":27.81293,"lat":48.03555,"pop":16080},{"id":618371,"name":"Drochia","alt":["Drokija","Drokiya","Дрокия"],"lon":27.80996,"lat":48.1142,"pop":0},{"id":618368,"name":"Drojdieni","alt":["Drozhden'","Drozhden’","Drozhdieny","Drozhdiyany","Drozhdiyeny","Дрождиены"],"lon":28.22399,"lat":46.93761,"pop":0},{"id":831237,"name":"Drujba","alt":["Druzhba","Дружба"],"lon":28.07336,"lat":47.43237,"pop":0},{"id":618366,"name":"Drujineni","alt":["Druzhineny","Druzhniyen'","Druzhniyen’","Дружинены"],"lon":27.53219,"lat":47.52531,"pop":0},{"id":829530,"name":"Druţa","alt":["Druca","Druta","Drutsa","Друца"],"lon":27.29705,"lat":47.96542,"pop":0},{"id":618365,"name":"Dubăsari","alt":["Dubasari","Dubehsar'","Dubosari","Dubossary","dubeosali","Дубоссары","Дубэсарь","두버사리"],"lon":29.16667,"lat":47.26562,"pop":23254},{"id":617341,"name":"Dubăsarii Vechi","alt":["Dubasar'","Dubasari","Dubasarii Vechi","Dubasar’","Dubesani","Dubesar'","Dubesar’","Dubossary","Dubăsari","Starye Dubossary","Staryye Dubossary","Старые Дубоссары"],"lon":29.19941,"lat":47.13486,"pop":0},{"id":618361,"name":"Dubău","alt":["Dubau","Dubova","Dubovo","Дубово"],"lon":29.28036,"lat":47.4302,"pop":0},{"id":618364,"name":"Dubna","alt":["Dubno","Дубно"],"lon":28.31275,"lat":48.01398,"pop":0},{"id":618362,"name":"Dubovca","alt":["Dubovka","Дубовка"],"lon":28.60741,"lat":46.74914,"pop":0},{"id":618360,"name":"Duduleşti","alt":["Deduleshti","Deduleshty","Dedulesti","Deduleşti","Duduleshty","Dudulesti","Дудулешты"],"lon":28.51537,"lat":46.32724,"pop":0},{"id":10191516,"name":"Duma","alt":["Дума"],"lon":28.26383,"lat":47.37473,"pop":0},{"id":618359,"name":"Dumbrăveni","alt":["Dombrovani","Dombroven","Dombroveni","Dumbraven'","Dumbraveni","Dumbraveny","Dumbraven’","Keinar'","Keinar’","Думбравены"],"lon":28.2252,"lat":48.05209,"pop":0},{"id":618358,"name":"Dumbrăviţa","alt":["Dumbravica","Dumbravita","Dumbravitsa","Dumbrevitsa","Dumbrovista","Dumbrovitsa","Думбравица"],"lon":28.10759,"lat":47.47963,"pop":0},{"id":618357,"name":"Dumeni","alt":["Dumen'","Dumeny","Dumen’","Dumyany","Думены"],"lon":27.20271,"lat":47.91113,"pop":0},{"id":618389,"name":"Dumitreni","alt":["Dimitrovka","Dmitrievka","Dmitriyevka","Dumitresht'","Dumitreshti","Dumitresht’","Дмитриевка"],"lon":28.31866,"lat":47.97087,"pop":0},{"id":618356,"name":"Durleşti","alt":["Dudesti","Dudeşti","Durlesht'","Durleshty","Durlesht’","Durlesti","Дурлешты"],"lon":28.76303,"lat":47.02156,"pop":0},{"id":618355,"name":"Duruitoarea","alt":["Diruitor","Druitory","Duritoarya Veke","Duruitor","Duruitory","Staryye Duruitory","Дируитор"],"lon":27.26069,"lat":47.87719,"pop":0},{"id":617692,"name":"Duruitoarea Nouă","alt":["Duritoarya Noua","Duruitoarea Noua","Ivanovka","Novye Druitory","Novyye Druitory","Novyye Duruitory","Новые Друиторы"],"lon":27.24561,"lat":47.89614,"pop":0},{"id":617652,"name":"Duşmani","alt":["Dushman'","Dushmany","Dushman’","Dusmani","Oktjabr'skoe","Oktyabr'skoye","Oktyabr’skoye","Voroshilovka","Voroshilovo","Октябрьское"],"lon":27.48032,"lat":47.7195,"pop":0},{"id":618353,"name":"Dzerjinscoe","alt":["Dzerzhinskoe","Dzerzhinskoye","Дзержинское"],"lon":29.183,"lat":47.22443,"pop":0},{"id":617073,"name":"Ecaterinovca","alt":["Ecaterineanca","Ekaterinovka","Yekaterinovka","Yekaterinyanka","Екатериновка"],"lon":28.7473,"lat":46.58336,"pop":0},{"id":617072,"name":"Echimăuţi","alt":["Echimauti","Ekimoucy","Yakimovtsy","Yekimauts'","Yekimautsy","Yekimauts’","Yekimoutsy","Екимоуцы"],"lon":28.90138,"lat":47.69381,"pop":0},{"id":617076,"name":"Edineţ","alt":["Edincy","Edinec","Edinet","Edineț","Edinita","Edinita-Targ","Ediniti","Ediniţa","Ediniţa-Târg","Edintsy","Yedintsy-Tyrg","edinecheu","Единец","Единцы","에디네츠"],"lon":27.30337,"lat":48.17215,"pop":22872},{"id":617075,"name":"Egoreni","alt":["Yegaren'","Yegaren’","Yegorovka"],"lon":28.35953,"lat":48.20162,"pop":0},{"id":617074,"name":"Egorovca","alt":["Egorovka","Yegorovka","Егоровка"],"lon":27.75843,"lat":47.61664,"pop":0},{"id":829556,"name":"Elenovca","alt":["Elenovka","Еленовка"],"lon":27.62733,"lat":48.12524,"pop":0},{"id":617069,"name":"Elizaveta","alt":["Elisaveta","Elizavetovka","Styrcha","Yelizavetovka","Елизаветовка"],"lon":28.01738,"lat":47.78177,"pop":0},{"id":617068,"name":"Elizavetovca","alt":["Elizavetovka","Yelizaveta","Елизаветовка"],"lon":27.71659,"lat":48.27815,"pop":0},{"id":829838,"name":"Elizavetovca","alt":["Elizavetovka"],"lon":27.76111,"lat":47.2425,"pop":0},{"id":617067,"name":"Enichioi","alt":["Enachesti","Enikioj","Enăcheşti","Yenikioy","Yenikoy","Еникиой"],"lon":28.41562,"lat":46.219,"pop":0},{"id":617065,"name":"Ermoclia","alt":["Ermaclia","Ermoklija","Yermokliya","Ермоклия"],"lon":29.51203,"lat":46.58045,"pop":0},{"id":618348,"name":"Etulia","alt":["Etulija","Etuliya","Етулия"],"lon":28.44169,"lat":45.53874,"pop":0},{"id":864976,"name":"Etulia Nouă","alt":["Etulia Noua","Novaja Etulija","Novaya Etuliya","Новая Етулия"],"lon":28.43801,"lat":45.5162,"pop":0},{"id":831174,"name":"Evghenievca","alt":["Evgen'evka","Yevgen'yevka","Yevgen’yevka","Евгеньевка"],"lon":28.22103,"lat":47.67015,"pop":0},{"id":618340,"name":"Făgădău","alt":["Fadigovo","Fagadau","Fegedeu","Fehgehdehu","Фэгэдэу"],"lon":27.80294,"lat":47.44221,"pop":0},{"id":618346,"name":"Făgădău","alt":["Fagadeo","Fagader"],"lon":28.29528,"lat":45.85361,"pop":0},{"id":831068,"name":"Făgădău","alt":["Fagadau","Fegedeu","Fehgehdehu","Фэгэдэу"],"lon":28.52606,"lat":47.93547,"pop":0},{"id":617940,"name":"Făgureni","alt":["Curluceni","Fagureni","Fegureny","Kurluchen'","Kurlucheny","Kurluchen’","Курлучены"],"lon":28.56321,"lat":47.1466,"pop":0},{"id":618344,"name":"Fălești","alt":["Faleshti","Faleshty","Falesti","Фалешти","Фалешты"],"lon":27.71264,"lat":47.57667,"pop":14377},{"id":617691,"name":"Făleştii Noi","alt":["Falestii Noi","Fehleshtij Noj","Feleshtij-Noj","Novye Faleshty","Novyye Faleshty","Новые Фалешты","Фелештій-Ной","Фэлештий Ной"],"lon":27.74523,"lat":47.57423,"pop":0},{"id":618342,"name":"Făureşti","alt":["Fauresht'","Faureshty","Fauresht’","Fauresti","Фаурешты"],"lon":28.89632,"lat":47.14571,"pop":0},{"id":831254,"name":"Fedoreuca","alt":["Fedorovka","Федоровка"],"lon":28.63965,"lat":47.48962,"pop":0},{"id":618341,"name":"Fedoseevca","alt":["Fedoseevka","Fedoseyevka","Федосеевка"],"lon":29.53729,"lat":47.2333,"pop":0},{"id":618339,"name":"Ferapontievca","alt":["Ferapapont'yevka","Ferapapont’yevka","Feraponmovka","Ferapont'evka","Ferapont'yevka","Feraponteanca","Ferapontianka","Ferapontivka","Ferapont’yevka","Ferapotyanka","Ферапонтьевка"],"lon":28.77441,"lat":46.23235,"pop":0},{"id":618338,"name":"Feşteliţa","alt":["Feshtelica","Feshtelitsa","Festelita","Фештелица"],"lon":29.56658,"lat":46.54333,"pop":0},{"id":829639,"name":"Feteasca","alt":["Fetjaska","Fetyaska","Novyy Kalamatsuy","Фетяска"],"lon":28.1898,"lat":46.78813,"pop":0},{"id":618337,"name":"Feteşti","alt":["Fetesht'","Feteshty","Fetesht’","Fetesti","Фетешты"],"lon":27.09898,"lat":48.16372,"pop":0},{"id":618336,"name":"Fetiţa","alt":["Fetica","Fetita","Fetitsa","Фетица"],"lon":28.67317,"lat":46.69357,"pop":0},{"id":618335,"name":"Filipeni","alt":["Filipeny","Filippeny","Филиппены"],"lon":28.32495,"lat":46.43879,"pop":0},{"id":618314,"name":"Fîntîna Albă","alt":["Fintina Alba","Fyntyna Alba","Fyntyna-Albe","Fyntyna-Albeh","Фынтына-Албэ"],"lon":27.43245,"lat":48.16028,"pop":0},{"id":618313,"name":"Fîntîniţa","alt":["Fantanita","Fintinita","Fitinitsa","Fyntynica","Fyntynitsa","Fântâniţa","Фынтыница"],"lon":27.69343,"lat":48.11005,"pop":0},{"id":618312,"name":"Fîrlădeni","alt":["Farladani","Firladeni","Fyrladan'","Fyrladani","Fyrladan’","Fyrladeny","Fyrladyany","Fyrlandany","Fărlădani","Фырладены"],"lon":28.69033,"lat":46.78626,"pop":0},{"id":618343,"name":"Fîrlădeni","alt":["Farladani","Farladany","Farladen'","Farladeni","Farladeny","Farladen’","Farladyany","Ferladany","Ferledani","Firladeni","Fyrladyany","Fârlădeni","Fărlădani"],"lon":29.36521,"lat":46.78888,"pop":0},{"id":829956,"name":"Fîrladenii Noi","alt":["Firladenii Noi","Fyrladeniy-Noy","Novye Fyrladjany","Novyye Fyrladyany","Новые Фырладяны"],"lon":29.30261,"lat":46.75131,"pop":0},{"id":618153,"name":"Flămânda","alt":["Flamynda","Kalya Noue"],"lon":28.15806,"lat":46.16528,"pop":0},{"id":618334,"name":"Flămînzeni","alt":["Flamanzeni","Flaminzeni","Flamynzen'","Flamynzeni","Flamynzeny","Flamynzen’","Flemenzeni","Flămânzeni"],"lon":28.09,"lat":47.49889,"pop":0},{"id":618333,"name":"Flocoasa","alt":["Flokoasa","Флокоаса"],"lon":28.2496,"lat":46.1526,"pop":0},{"id":618332,"name":"Floreni","alt":["Broasca","Broaska","Broska","Floren'","Floreny","Floren’","Флорены"],"lon":28.99201,"lat":46.93709,"pop":0},{"id":829882,"name":"Floreni","alt":["Floren'","Floren’","Флорень"],"lon":27.66458,"lat":47.34678,"pop":0},{"id":618329,"name":"Floreşti","alt":["Floresht'","Floreshti","Floreshty","Floresht’","Floresti","Флорешты"],"lon":28.29312,"lat":47.89137,"pop":16759},{"id":618330,"name":"Floreşti","alt":["Floresht'","Floreshty","Floresht’","Floresti","Флорешты"],"lon":29.18092,"lat":46.99744,"pop":0},{"id":829890,"name":"Floreşti","alt":["Floreshty","Floresti","Флорешты"],"lon":27.71635,"lat":47.38525,"pop":0},{"id":824144,"name":"Florica","alt":["Florika","Флорика"],"lon":29.2224,"lat":46.68944,"pop":0},{"id":829698,"name":"Floriceni","alt":["Florichen'","Florichen’","Флоричень"],"lon":28.01503,"lat":48.02075,"pop":0},{"id":864952,"name":"Floricica","alt":["Florichika","Флоричика"],"lon":28.41102,"lat":46.23504,"pop":0},{"id":617737,"name":"Floriţoaia Nouă","alt":["Floritoaia Noua","Floritsoyya Noua","Novaja Floricoaja","Novaya Floritsoaya","Новая Флорицоая"],"lon":27.93126,"lat":47.16557,"pop":0},{"id":617354,"name":"Floriţoaia Veche","alt":["Floritoaia Veche","Floritsoya Staraya","Floritsoyya Veke","Staraja Floricoaja","Staraya Floritsoaya","Старая Флорицоая"],"lon":27.90447,"lat":47.20146,"pop":0},{"id":831261,"name":"Flutura","lon":28.5475,"lat":47.68833,"pop":0},{"id":618328,"name":"Focşani","alt":["Focsani","Fokshany"],"lon":28.20056,"lat":45.93111,"pop":0},{"id":618327,"name":"Frasin","lon":27.55174,"lat":48.13733,"pop":0},{"id":829651,"name":"Frasin","alt":["Frasino"],"lon":28.19429,"lat":46.88924,"pop":0},{"id":618326,"name":"Frăsineşti","alt":["Frasinesht'","Frasineshty","Frasinesht’","Frasinesti","Фрасинешты"],"lon":28.00294,"lat":47.03611,"pop":0},{"id":618325,"name":"Frăteşti","alt":["Fratesht'","Frateshti"],"lon":28.34111,"lat":47.67583,"pop":0},{"id":618324,"name":"Frumoasa","alt":["Frumosa","Фрумоаса"],"lon":28.39962,"lat":47.33088,"pop":0},{"id":618322,"name":"Frumuşica","alt":["Frumushika","Frumusica","Фрумушика"],"lon":28.11833,"lat":47.95988,"pop":0},{"id":618323,"name":"Frumuşica","alt":["Frumushika","Frumusica","Manubeevca","Manubeyevka","Manubievca","Manukbeyevka","Фрумушика"],"lon":28.42796,"lat":46.55614,"pop":0},{"id":824156,"name":"Frumuşica","alt":["Cardas","Cardaş","Chukur-Kardash","Frumushika","Frumusica","Фрумушика"],"lon":28.47419,"lat":46.08337,"pop":0},{"id":829654,"name":"Frumuşica","alt":["Frumushika","Frumusica","Фрумушика"],"lon":28.90239,"lat":46.89819,"pop":0},{"id":829880,"name":"Frumuşica","alt":["Frumushika","Frumusica","Фрумушика"],"lon":27.6863,"lat":47.51502,"pop":0},{"id":617736,"name":"Frumuşica Nouă","alt":["Frumushika-Nouye","Frumusica Noua","Novaja Frumushika","Novaya Frumushika","Новая Фрумушика"],"lon":28.05952,"lat":47.87684,"pop":0},{"id":618320,"name":"Frunză","alt":["Frunza","Frunze","Tumanovka"],"lon":27.59243,"lat":48.41365,"pop":0},{"id":618321,"name":"Frunză","alt":["Frunza","Frunze","Imeni Frunze","Shayki","Shevki","Sheyki","Фрунзе"],"lon":29.88629,"lat":46.82889,"pop":0},{"id":829718,"name":"Frunzăuca","alt":["Frunzauca","Frunzovka","Фрунзовка"],"lon":28.58691,"lat":48.15635,"pop":0},{"id":831056,"name":"Frunzeşti","alt":["Frunzeshty","Frunzesti","Фрунзешты"],"lon":28.18509,"lat":47.78429,"pop":0},{"id":618318,"name":"Fund Saratsika","alt":["Fundu Saratichei","Fundu Săratichei","Fundul-Saratichei","Fundul-Sărătichei"],"lon":28.55556,"lat":46.63833,"pop":0},{"id":618317,"name":"Fundul Galbenei","alt":["Fundu-Galben","Fundu-Galbena","Fundu-Galbina","Fundul Galben","Fundul-Galbenej","Fundul-Galbeney","Фундул-Галбеней"],"lon":28.62757,"lat":46.88018,"pop":0},{"id":617690,"name":"Fundurii Noi","alt":["Fundurile Noy","Novye Fundury","Novyye Fundury","Новые Фундуры"],"lon":27.65381,"lat":47.75547,"pop":0},{"id":617340,"name":"Fundurii Vechi","alt":["Fundur'","Funduri","Funduri-Vechi","Fundury","Fundur’","Starye Fundury","Staryye Fundury","Старые Фундуры"],"lon":27.71693,"lat":47.74195,"pop":0},{"id":618316,"name":"Furceni","alt":["Furchen'","Furcheni","Furcheny","Furchen’","Фурчены"],"lon":28.9255,"lat":47.33693,"pop":0},{"id":618315,"name":"Fuzăuca","alt":["Fuzauca","Fuzovka","Фузовка"],"lon":28.74698,"lat":47.74237,"pop":0},{"id":618294,"name":"Gaidar","alt":["Gaidari","Gajdar","Gaydar","Gaydary","Găidari","Гайдар"],"lon":28.76617,"lat":46.10836,"pop":0},{"id":618311,"name":"Gălăşeni","alt":["Galaseni","Galashany","Galashen'","Galasheny","Galashen’","Галашаны"],"lon":27.34053,"lat":47.87098,"pop":0},{"id":618309,"name":"Găleşti","alt":["Galesht'","Galeshty","Galesht’","Galesti","Goleshty","Галешты"],"lon":28.49136,"lat":47.22704,"pop":0},{"id":829812,"name":"Găleştii Noi","alt":["Galestii Noi","Novye Galeshty","Novyye Galeshty","Новые Галешты"],"lon":28.49621,"lat":47.20985,"pop":0},{"id":618308,"name":"Gălileşti","alt":["Galilesht'","Galileshty"],"lon":29.345,"lat":46.90583,"pop":0},{"id":618305,"name":"Gangura","lon":29.00756,"lat":46.73315,"pop":0},{"id":708978,"name":"Gara Giber","alt":["Cara-Biber"],"lon":29.01667,"lat":46.46667,"pop":0},{"id":618300,"name":"Gaşpar","alt":["Gashpar","Gaspar","Гашпар"],"lon":27.49836,"lat":48.15678,"pop":0},{"id":618298,"name":"Găureni","alt":["Gauren' De-Sus","Gaureni","Gaurenii De Sus","Gaureny","Gauren’ De-Sus","Guaryany","Găurenii De Sus","Гаурены"],"lon":28.08698,"lat":47.19948,"pop":0},{"id":618299,"name":"Găureni","alt":["Gauren'-de-Zhos","Gaureni","Gaurenii-de Jos","Gaureny","Gauren’-de-Zhos","Găurenii-de Jos","Гаурены"],"lon":28.84106,"lat":46.82968,"pop":0},{"id":618297,"name":"Găuzeni","alt":["Gauzen'","Gauzeni","Gauzeny","Gauzen’","Гаузены"],"lon":28.56462,"lat":47.75539,"pop":0},{"id":618296,"name":"Găvănoasa","alt":["Gavanoasa","Gavanoasy","Gavanosy","Gavanozy","Gevenoasa","Staryy Gavanozu","Гаваноаса"],"lon":28.38456,"lat":45.75659,"pop":0},{"id":618295,"name":"Gavrilovca","alt":["Gavrilesht'","Gavrilesht’","Gavrilovka","Larga","Гавриловка"],"lon":28.25604,"lat":47.64294,"pop":0},{"id":618352,"name":"Geamănă","alt":["Dzhamana","Dzhamany","Dzhamena","Geamana","Zhamana","Джамана"],"lon":29.13953,"lat":46.82143,"pop":0},{"id":618293,"name":"Ghelăuza","alt":["Gelauza","Ghelauza","Гелауза"],"lon":28.59607,"lat":47.19264,"pop":0},{"id":618289,"name":"Gherman","alt":["German","Герман"],"lon":27.60542,"lat":47.36261,"pop":0},{"id":618288,"name":"Ghermăneşti","alt":["Germanesht'","Germaneshti","Germaneshty","Germanesht’","Ghermanesti","Германешты"],"lon":28.51692,"lat":47.44011,"pop":0},{"id":618287,"name":"Gherşunovca","alt":["Gershunovka","Ghersunovca","Гершуновка"],"lon":29.16468,"lat":47.71898,"pop":0},