[{"id":786160,"name":"’Ržaničino","alt":["'Rzanicino","'Rzhanichino","R'zanicani","R'zanicino","Rzanicane","Rzanicano","Ržaničane","Ržaničano","R’žaničani","R’žaničino","’Ржаничино"],"lon":21.63117,"lat":41.9271,"pop":787},{"id":12156252,"name":"(former) Diocese of Heraclea Lyncestis","lon":21.34268,"lat":41.01116,"pop":0},{"id":793155,"name":"Ајватовци","alt":["Ajvatovac","Ајватовац"],"lon":21.61028,"lat":42.00639,"pop":0},{"id":793113,"name":"Арачиново","alt":["Aracine","Aracinovo","Araçinë","Aračinovo"],"lon":21.56194,"lat":42.02639,"pop":12800},{"id":792879,"name":"Бардовци","alt":["Bardovci","Bradovce","Брадовце"],"lon":21.37611,"lat":42.02694,"pop":0},{"id":792591,"name":"Бистрица","alt":["Bistrica"],"lon":21.51611,"lat":41.61556,"pop":330},{"id":792568,"name":"Блаце","alt":["Blace"],"lon":21.665,"lat":41.87139,"pop":60},{"id":792342,"name":"Бразда","alt":["Brazda"],"lon":21.39861,"lat":42.08083,"pop":0},{"id":834593,"name":"Брдаци","alt":["Brdaci"],"lon":22.23028,"lat":42.20917,"pop":0},{"id":792220,"name":"Брзак","alt":["Brzak"],"lon":21.67583,"lat":42.06556,"pop":0},{"id":792169,"name":"Бујковци","alt":["Bujkovac","Бујковац"],"lon":21.64972,"lat":42.00389,"pop":0},{"id":792116,"name":"Бунарџик","alt":["Bunardzik","Bunardžik"],"lon":21.61694,"lat":41.99333,"pop":281},{"id":792195,"name":"Бучинци","alt":["Buchince","Бучинце"],"lon":21.64083,"lat":42.03333,"pop":0},{"id":784359,"name":"Визбегово","alt":["Vizbegovo"],"lon":21.40944,"lat":42.03639,"pop":0},{"id":784382,"name":"Виштица","lon":21.59306,"lat":42.09972,"pop":0},{"id":863665,"name":"Водно","alt":["Vodno"],"lon":21.41333,"lat":41.98972,"pop":0},{"id":861277,"name":"Герман","alt":["German"],"lon":22.13861,"lat":42.28222,"pop":0},{"id":790741,"name":"Гиновци","alt":["Ginovce","Ginovci","Гиновце"],"lon":22.15667,"lat":42.18806,"pop":0},{"id":790334,"name":"Горно Јаболчиште","alt":["Gornje Jabolciste","Gornje Jabolčište","Gorno Jabolchishte","Gorno Jabolciste"],"lon":21.48583,"lat":41.7225,"pop":977},{"id":790323,"name":"Горно Лисиче","alt":["Gornje Lisicje","Gornje Lisičje","Gorno Lisice","Gorno Lisiche","Lisice e Eperme","Lisiçë e Epërme"],"lon":21.48694,"lat":41.96722,"pop":0},{"id":790117,"name":"Грушино","alt":["Grusince","Grušince"],"lon":21.62056,"lat":42.06083,"pop":0},{"id":791475,"name":"Длабочица","alt":["Dlabochica","Dlabocica","Dolbocica","Dolbočica","Dubocica","Dubočica"],"lon":22.24139,"lat":42.19861,"pop":0},{"id":791423,"name":"Доброшане","alt":["Dobrosane","Dobroshane","Dobrošane"],"lon":21.75722,"lat":42.10028,"pop":0},{"id":834601,"name":"Дојакова Маала","alt":["Dojakova Maala"],"lon":22.20611,"lat":42.23639,"pop":0},{"id":791346,"name":"Долно Јаболчиште","alt":["Dolno Jabolchishte","Dolno Jabolciste","Donje Jabolciste","Donje Jabolčište"],"lon":21.51472,"lat":41.72639,"pop":360},{"id":791335,"name":"Долно Нерези","alt":["Dolni Nerezi","Dolno Nerez","Dolno Nereze","Dolno Nerezi"],"lon":21.37861,"lat":41.9975,"pop":0},{"id":863666,"name":"Жданец","alt":["Zdanec","Ždanec"],"lon":21.38778,"lat":41.99444,"pop":0},{"id":790034,"name":"Идризово","alt":["Idrizovo"],"lon":21.57556,"lat":41.96083,"pop":2292},{"id":789963,"name":"Извор","alt":["Izvor"],"lon":21.69722,"lat":41.55472,"pop":696},{"id":790012,"name":"Инџиково","alt":["Indzikovo"],"lon":21.51722,"lat":42.00417,"pop":0},{"id":789734,"name":"Јурумлери","alt":["Jurumleri"],"lon":21.55694,"lat":41.96722,"pop":2061},{"id":789590,"name":"Капиново","alt":["Kapinovo"],"lon":21.45944,"lat":41.625,"pop":6},{"id":834594,"name":"Клисурска Маала","alt":["Klisurska Maala"],"lon":22.21472,"lat":42.215,"pop":0},{"id":834602,"name":"Косарци","alt":["Kosarci"],"lon":22.20667,"lat":42.22417,"pop":0},{"id":789030,"name":"Криви Камен","alt":["Krivi Kamen"],"lon":22.13917,"lat":42.2375,"pop":0},{"id":789025,"name":"Кркља","alt":["Krkla","Krklja"],"lon":22.39417,"lat":42.21389,"pop":0},{"id":788938,"name":"Кучевиште","alt":["Kucevishte","Kucevista","Kuceviste","Kuchevishte","Kuçevishtë","Kučevišta","Kučevište"],"lon":21.41806,"lat":42.10972,"pop":0},{"id":788929,"name":"Кучково","alt":["Kuchkovo","Kuckovo","Kučkovo"],"lon":21.305,"lat":42.05694,"pop":608},{"id":788494,"name":"Лопате","alt":["Lopate","Lopatje"],"lon":21.66417,"lat":42.14861,"pop":0},{"id":788231,"name":"Мали Влај","alt":["Mali Vlaj"],"lon":20.61556,"lat":41.11917,"pop":0},{"id":788372,"name":"Маџари","alt":["Dusanovac","Dušanovac","Madari","Madjari","Madzarlik","Madžarlik","Maxhare","Maxharë","Mađari"],"lon":21.495,"lat":41.99917,"pop":0},{"id":834604,"name":"Милочовци","alt":["Milochovci","Milocovci"],"lon":22.18778,"lat":42.23028,"pop":0},{"id":787942,"name":"Милутинце","alt":["Milutinci","Милутинци"],"lon":22.15222,"lat":42.19722,"pop":0},{"id":787923,"name":"Мирковци","alt":["Mirkovce","Mirkovci"],"lon":21.40639,"lat":42.09444,"pop":958},{"id":787890,"name":"Младо Нагоричане","alt":["Mlado Nagoricane","Mlado Nagoricino","Mlado Nagoričane","Mlado Nagoričino","Nagorican i Ri","Nagoriçan i Ri"],"lon":21.80167,"lat":42.17028,"pop":0},{"id":787870,"name":"Мојанце","alt":["Mojance"],"lon":21.57139,"lat":42.0475,"pop":0},{"id":859620,"name":"Момин Поток","alt":["Momin Potok"],"lon":21.41028,"lat":42.01667,"pop":0},{"id":787827,"name":"Мралино","lon":21.60194,"lat":41.95694,"pop":703},{"id":787678,"name":"Нежилово","alt":["Nezhilovo","Nezilovo"],"lon":21.45333,"lat":41.65,"pop":178},{"id":787670,"name":"Никиштане","alt":["Nikishtane","Nikistane"],"lon":21.335,"lat":42.06722,"pop":793},{"id":787659,"name":"Никуштак","alt":["Nikostik","Nikoštik","Nikushan","Nikushtak"],"lon":21.57972,"lat":42.08056,"pop":0},{"id":787560,"name":"Ново Село","lon":21.63306,"lat":42.09583,"pop":0},{"id":787562,"name":"Ново Село","alt":["Novo Selo"],"lon":21.35361,"lat":42.02833,"pop":0},{"id":787468,"name":"Опае","alt":["Opae","Opaje"],"lon":21.65639,"lat":42.15972,"pop":0},{"id":787464,"name":"Опила","alt":["Opila","Opile","Opilo"],"lon":22.14417,"lat":42.14278,"pop":0},{"id":787415,"name":"Оризари","alt":["Orizar","Orizare","Orizari"],"lon":21.61833,"lat":42.16111,"pop":0},{"id":787411,"name":"Орланци","alt":["Orlance","Orlanci"],"lon":21.59333,"lat":42.04806,"pop":0},{"id":787300,"name":"Отошница","lon":22.08028,"lat":42.19583,"pop":0},{"id":787222,"name":"Папрадиште","alt":["Papradishte","Papradista","Papradiste","Papradišta"],"lon":21.43944,"lat":41.64139,"pop":63},{"id":787093,"name":"Петралица","alt":["Petralica"],"lon":22.18722,"lat":42.20833,"pop":0},{"id":787072,"name":"Петровец","alt":["Ibraimovo","Petrovac","Petrovec"],"lon":21.615,"lat":41.93889,"pop":8298},{"id":786978,"name":"Побожје","alt":["Pobozhje","Pobozje","Pobožje","Pobuzje","Pobužje"],"lon":21.42667,"lat":42.11472,"pop":0},{"id":786698,"name":"Проевце","alt":["Proevce","Projevce"],"lon":21.74222,"lat":42.12417,"pop":0},{"id":786657,"name":"Псача","alt":["Psaca","Psacha"],"lon":22.20333,"lat":42.16639,"pop":0},{"id":786605,"name":"Радибуш","alt":["Radibus","Radibush"],"lon":22.11,"lat":42.2,"pop":0},{"id":834590,"name":"Радуева Маала","alt":["Radueva Maala"],"lon":22.21611,"lat":42.19417,"pop":0},{"id":786445,"name":"Раштак","alt":["Rastak","Raštak"],"lon":21.48861,"lat":42.08556,"pop":463},{"id":786322,"name":"Режановце","alt":["Rezanovce","Režanovce"],"lon":21.67528,"lat":42.15778,"pop":0},{"id":786248,"name":"Ропалце","alt":["Ropaljce"],"lon":21.62,"lat":42.10972,"pop":0},{"id":832945,"name":"Слатина","alt":["Slatina"],"lon":21.8075,"lat":42.13806,"pop":0},{"id":785759,"name":"Слупчане","alt":["Sllupcanje","Sllupçanje","Slupchane"],"lon":21.62778,"lat":42.17333,"pop":2658},{"id":785708,"name":"Согле","alt":["Sogle","Soglje"],"lon":21.55278,"lat":41.59083,"pop":201},{"id":785595,"name":"Стајковци","alt":["Stajkovce","Stajkovci","Stojkovci"],"lon":21.51306,"lat":42.0275,"pop":0},{"id":785515,"name":"Старо Нагоричане","alt":["Nagorican i Vjeter","Nagoriçan i Vjetër","Staro Nagoricane","Staro Nagoricino","Staro Nagoričane","Staro Nagoričino"],"lon":21.82861,"lat":42.19806,"pop":4112},{"id":785452,"name":"Страчинци","alt":["Stracince","Stracinci","Stračince","Stračinci"],"lon":21.53222,"lat":42.04611,"pop":0},{"id":834577,"name":"Т`лминци","alt":["T`lminci","Tlminci"],"lon":22.26417,"lat":42.18389,"pop":0},{"id":785151,"name":"Табановце","alt":["Tabanovc","Tabanovce","Tabanovci"],"lon":21.70833,"lat":42.21472,"pop":0},{"id":6290306,"name":"Трнодол","lon":21.3942,"lat":41.99264,"pop":0},{"id":784893,"name":"Тромеѓа","alt":["Tromega","Tromegja","Tromezhje","Tromezhjë"],"lon":21.765,"lat":42.13417,"pop":0},{"id":784767,"name":"Умин Дол","alt":["Umin Dol"],"lon":21.62528,"lat":42.08667,"pop":0},{"id":791882,"name":"Црешнево","alt":["Creshnevo","Cresnevo","Cresnjevo","Crešnjevo"],"lon":21.48889,"lat":41.63389,"pop":40},{"id":792006,"name":"Челопек","alt":["Celopek","Čelopek"],"lon":21.82639,"lat":42.22722,"pop":0},{"id":791981,"name":"Черкези","alt":["Cerkesko Selo","Cerkezi","Cerkresho-Sello","Çerkresho-Sello","Čerkesko Selo","Čerkezi"],"lon":21.68306,"lat":42.12389,"pop":0},{"id":791720,"name":"Чучер - Сандево","alt":["Chucher","Cucer","Cucer-Sandevo","Čučer","Čučer-Sandevo","Чучер"],"lon":21.38222,"lat":42.10361,"pop":8646},{"id":793165,"name":"Adžibegovo","alt":["Adzibegovo","Аџибегово"],"lon":21.98528,"lat":41.76028,"pop":0},{"id":793163,"name":"Adžievci","alt":["Adzievci","Adzijevci","Adžijevci","Axhiefci","Аџиевци"],"lon":20.61383,"lat":41.58814,"pop":0},{"id":793168,"name":"Adžimatovo","alt":["Adzimatovo","Hadzi Matovo","Hadziahmetovo","Hadži Matovo","Hadžiahmetovo","Аџиматово"],"lon":21.94032,"lat":41.80013,"pop":124},{"id":10306535,"name":"Adžina Maala","alt":["Adzina Maala","Аџина Маала"],"lon":21.79504,"lat":42.16362,"pop":0},{"id":859577,"name":"Adžinci","alt":["Adzinci","Аџинци"],"lon":21.85051,"lat":42.25412,"pop":0},{"id":8512333,"name":"Adžiska Maala","alt":["Adziska Maala","Аџиска Маала"],"lon":22.52762,"lat":42.09359,"pop":0},{"id":863643,"name":"Afmate","alt":["Афмате"],"lon":21.00895,"lat":41.72151,"pop":0},{"id":793162,"name":"Agino Selo","alt":["Agino selo","Petrovo Selo","Simjeonovc","Агино Село","Агино село"],"lon":21.68093,"lat":42.04798,"pop":0},{"id":8512365,"name":"Ajdarska Maala","alt":["Ајдарска Маала"],"lon":22.54977,"lat":42.02961,"pop":0},{"id":793157,"name":"Ajranli","alt":["Ајранли"],"lon":22.5304,"lat":41.34591,"pop":0},{"id":793151,"name":"Alakince","alt":["Alakinci","Алакинце"],"lon":21.88137,"lat":41.9445,"pop":22},{"id":793148,"name":"Alaševce","alt":["Alasevce","Alashevce","Алашевце"],"lon":21.59046,"lat":42.18551,"pop":0},{"id":793147,"name":"Aldanci","alt":["Aldinci","Алданци"],"lon":21.29703,"lat":41.36731,"pop":459},{"id":793144,"name":"Aldinci","alt":["Aldinc","Aldince","Алдинци"],"lon":21.42913,"lat":41.80225,"pop":158},{"id":793135,"name":"Algunja","alt":["Alguna","Алгуња"],"lon":21.8175,"lat":42.261,"pop":0},{"id":859566,"name":"Algunja","alt":["Alguna","Алгуња"],"lon":21.80083,"lat":42.26972,"pop":0},{"id":8717398,"name":"Ali Čair","alt":["Ali Cair","Ali Chair","Али Чаир"],"lon":21.56567,"lat":41.35395,"pop":0},{"id":10310297,"name":"Ali Koč","alt":["Ali Koc","Ali Koch","Али Коч"],"lon":22.42816,"lat":41.67932,"pop":0},{"id":793131,"name":"Ali Lobasi","alt":["Alilabasi","Aliloba","Али Лобаси"],"lon":22.47972,"lat":41.69667,"pop":0},{"id":833676,"name":"Alikurtovci","alt":["Aljkurtovci","Аликуртовци"],"lon":20.92498,"lat":41.57536,"pop":0},{"id":859253,"name":"Alimedska Maala","alt":["Alimedska Mahala","Алимедска Маала"],"lon":21.51492,"lat":42.19789,"pop":0},{"id":793127,"name":"Alinci","alt":["Alince","Aljince","Алинци"],"lon":21.48172,"lat":41.25914,"pop":449},{"id":793128,"name":"Alinci","alt":["Ali Oba","Alinci Bitolsko","Bitolsko","Алинци"],"lon":21.50528,"lat":41.15111,"pop":196},{"id":861992,"name":"Ališavci","alt":["Alisavci","Alishavci","Алишавци"],"lon":22.26944,"lat":42.28139,"pop":0},{"id":793129,"name":"Aljince","alt":["Alince","Аљинце"],"lon":21.98272,"lat":42.20176,"pop":0},{"id":10306483,"name":"Amalinci","alt":["Амалинци"],"lon":21.75421,"lat":42.19894,"pop":0},{"id":9112496,"name":"Ambar Maala","alt":["Амбар Маала"],"lon":22.06429,"lat":42.04817,"pop":0},{"id":793121,"name":"Amzabegovo","alt":["Stepovac","Амзабегово"],"lon":21.99379,"lat":41.81169,"pop":579},{"id":834698,"name":"Andrejinci","alt":["Atdrejinci","Андрејинци"],"lon":22.20412,"lat":42.33636,"pop":0},{"id":9274825,"name":"Andžiska Maala","alt":["Andziska Maala","Анџиска Маала"],"lon":22.50064,"lat":41.99301,"pop":0},{"id":793116,"name":"Angelci","alt":["Ангелци"],"lon":22.61483,"lat":41.47773,"pop":0},{"id":8512351,"name":"Anǵelkovska Maala","alt":["Angelkovska Maala","Анѓелковска Маала"],"lon":22.52974,"lat":42.01951,"pop":0},{"id":10306856,"name":"Anǵelovci","alt":["Andelovci","Angelovci","Anđelovci","Анѓеловци"],"lon":21.98043,"lat":42.14009,"pop":0},{"id":10306904,"name":"Antini","alt":["Антини"],"lon":21.91829,"lat":42.14895,"pop":0},{"id":793109,"name":"Arangel","alt":["Arandel","Aranđel","Арангел"],"lon":21.02348,"lat":41.59547,"pop":553},{"id":793105,"name":"Arazli","alt":["Аразли"],"lon":22.45263,"lat":41.37153,"pop":0},{"id":793100,"name":"Arbanaško","alt":["Arbanashko","Arbanasko","Арбанашко"],"lon":21.99504,"lat":42.27173,"pop":0},{"id":793099,"name":"Arbasanci","alt":["Арбасанци"],"lon":22.08466,"lat":41.88905,"pop":0},{"id":793098,"name":"Arbinovo","alt":["Арбиново"],"lon":20.82981,"lat":41.37046,"pop":0},{"id":793096,"name":"Argulica","alt":["Arguljica","Аргулица"],"lon":22.27948,"lat":41.819,"pop":0},{"id":793095,"name":"Arilevo","alt":["Ariljevo","Арилево"],"lon":21.19833,"lat":41.39639,"pop":48},{"id":793090,"name":"Armatuš","alt":["Armatus","Armatush","Арматуш"],"lon":21.52589,"lat":41.09717,"pop":34},{"id":793089,"name":"Arnakija","alt":["Arnacija","Arnaćija","Арнакија"],"lon":21.28682,"lat":41.98616,"pop":699},{"id":9112573,"name":"Arnautovci","alt":["Арнаутовци"],"lon":22.08169,"lat":42.11948,"pop":0},{"id":793085,"name":"Arvati","alt":["Арвати"],"lon":21.1152,"lat":40.94443,"pop":507},{"id":793083,"name":"Asamati","alt":["Asamagi","Асамати"],"lon":21.05132,"lat":40.98451,"pop":218},{"id":10191310,"name":"Asovci","alt":["Асовци"],"lon":20.56895,"lat":41.30689,"pop":0},{"id":793074,"name":"Atišta","alt":["Atishta","Atista","Atiste","Atište","Атишта"],"lon":21.03859,"lat":41.45452,"pop":55},{"id":10317948,"name":"Avramski Kolibi","alt":["Аврамски Колиби"],"lon":22.84248,"lat":41.63073,"pop":0},{"id":833346,"name":"Azirlar","alt":["Азирлар"],"lon":21.49189,"lat":42.20319,"pop":0},{"id":834581,"name":"B’s","alt":["B's","Bas","Бас","Б’с"],"lon":22.4024,"lat":42.17837,"pop":0},{"id":10410555,"name":"Baba Anǵina Maala","alt":["Baba Angina Maala","Баба Анѓина Маала"],"lon":22.19478,"lat":42.24404,"pop":0},{"id":8717390,"name":"Baba Čair","alt":["Baba Cair","Baba Chair","Баба Чаир"],"lon":21.53666,"lat":41.33524,"pop":0},{"id":10306910,"name":"Babadosinci","alt":["Бабадосинци"],"lon":21.93588,"lat":42.1826,"pop":0},{"id":9274826,"name":"Babarinci","alt":["Бабаринци"],"lon":22.50296,"lat":41.98615,"pop":0},{"id":793047,"name":"Babino","alt":["Бабино"],"lon":21.0787,"lat":41.2989,"pop":194},{"id":835484,"name":"Babino","alt":["Babi","Бабино"],"lon":22.2025,"lat":41.75944,"pop":0},{"id":834507,"name":"Babište","alt":["Babishte","Babiste","Бабиште"],"lon":22.41283,"lat":42.0185,"pop":0},{"id":793039,"name":"Babuna","alt":["Бабуна"],"lon":21.80278,"lat":41.68083,"pop":16},{"id":793032,"name":"Bač","alt":["Bac","Bach","Бач"],"lon":21.55763,"lat":40.93173,"pop":692},{"id":9274863,"name":"Bačeska Maala","alt":["Baceska Maala","Bacheska Maala","Баческа Маала"],"lon":22.57263,"lat":41.97722,"pop":0},{"id":793017,"name":"Bačišta","alt":["Bachishta","Bacista","Baciste","Bačište","Бачишта"],"lon":20.90694,"lat":41.60528,"pop":0},{"id":10410467,"name":"Bačovanovska Maala","alt":["Bachovanovska Maala","Bacovanovska Maala","Бачовановска Маала"],"lon":22.18853,"lat":42.2104,"pop":0},{"id":793011,"name":"Badar","alt":["Bader","Бадар"],"lon":21.68806,"lat":41.86444,"pop":56},{"id":793010,"name":"Badelen","alt":["Badelin","Badile","Badilen","Баделен"],"lon":22.95323,"lat":41.44322,"pop":0},{"id":834653,"name":"Bajčovci","alt":["Bajchovci","Bajcovci","Бајчовци"],"lon":22.27194,"lat":42.26556,"pop":0},{"id":792992,"name":"Bajkovo","alt":["Бајково"],"lon":22.92732,"lat":41.41811,"pop":0},{"id":792991,"name":"Bajlovce","alt":["Bajlovci","Vajlovce","Бајловце"],"lon":21.96222,"lat":42.23028,"pop":0},{"id":792990,"name":"Bajrambos","alt":["Бајрамбос"],"lon":22.705,"lat":41.30944,"pop":0},{"id":864707,"name":"Bajramovci","alt":["Jankovci","Бајрамовци"],"lon":20.57071,"lat":41.4805,"pop":0},{"id":8512275,"name":"Bajramska Maala","alt":["Бајрамска Маала"],"lon":22.52242,"lat":42.03928,"pop":0},{"id":10410436,"name":"Bakalci","alt":["Бакалци"],"lon":22.16295,"lat":42.22454,"pop":0},{"id":833857,"name":"Balaban","alt":["Балабан"],"lon":20.78197,"lat":41.74692,"pop":0},{"id":861313,"name":"Balabanska Maala","alt":["Балабанска Маала"],"lon":22.14479,"lat":42.3148,"pop":0},{"id":10642018,"name":"Balabanska Maala","alt":["Балабанска Маала"],"lon":22.83044,"lat":41.86149,"pop":0},{"id":792981,"name":"Balanci","alt":["Balanci Palez","Balanci Palež","Parez","Parež","Баланци"],"lon":20.5529,"lat":41.48375,"pop":0},{"id":859582,"name":"Balčinci","alt":["Balchinci","Balcinci","Балчинци"],"lon":21.85757,"lat":42.2691,"pop":0},{"id":792978,"name":"Baldovenci","alt":["Балдовенци"],"lon":21.53833,"lat":41.01583,"pop":0},{"id":863644,"name":"Balija Mahala","alt":["Balija Maala","Balija Makhala","Балија Махала"],"lon":21.00457,"lat":41.72237,"pop":0},{"id":792968,"name":"Balin Dol","alt":["Балин Дол"],"lon":20.93499,"lat":41.79219,"pop":0},{"id":792969,"name":"Balinci","alt":["Balince","Балинци"],"lon":22.51505,"lat":41.28832,"pop":0},{"id":10410532,"name":"Balinica Maala","alt":["Балиница Маала"],"lon":22.21916,"lat":42.14855,"pop":0},{"id":9274936,"name":"Balinska Maala","alt":["Балинска Маала"],"lon":22.59116,"lat":41.92822,"pop":0},{"id":792959,"name":"Baltalija","alt":["Балталија"],"lon":22.23639,"lat":41.65194,"pop":0},{"id":792923,"name":"Banajni","lon":21.38806,"lat":42.10806,"pop":0},{"id":10306376,"name":"Baneva Trla","alt":["Банева Трла"],"lon":21.73859,"lat":42.13848,"pop":0},{"id":792931,"name":"Banica","alt":["Баница"],"lon":22.60936,"lat":41.44597,"pop":0},{"id":792929,"name":"Banja","alt":["Bana","Бања"],"lon":22.33361,"lat":41.91139,"pop":0},{"id":792920,"name":"Banjica","alt":["Banica","Бањица"],"lon":21.66578,"lat":41.70002,"pop":213},{"id":792912,"name":"Banjishte","alt":["Banista","Baniste","Baništa","Banište","Banjiste","Banjište","banishte","бањиште"],"lon":20.52944,"lat":41.55944,"pop":0},{"id":792895,"name":"Bansko","alt":["Banjsko","Банско"],"lon":22.74361,"lat":41.38389,"pop":0},{"id":10356804,"name":"Bantevci","alt":["Бантевци"],"lon":21.96391,"lat":42.1134,"pop":0},{"id":792890,"name":"Barakli","alt":["Баракли"],"lon":22.46949,"lat":41.39412,"pop":0},{"id":792889,"name":"Barakovo","alt":["Бараково"],"lon":21.22826,"lat":41.25043,"pop":90},{"id":10409235,"name":"Baraktarci","alt":["Барактарци"],"lon":22.03677,"lat":42.13742,"pop":0},{"id":861997,"name":"Baratlici","alt":["Баратлици"],"lon":22.28889,"lat":42.27361,"pop":0},{"id":792886,"name":"Baratlija","alt":["Baraklija","Баратлија"],"lon":22.18816,"lat":42.24663,"pop":0},{"id":861952,"name":"Baratliska Maala","alt":["Баратлиска Маала"],"lon":22.3342,"lat":42.3145,"pop":0},{"id":862005,"name":"Baratliska Maala","alt":["Baratlija Mahala","Баратлиска Маала"],"lon":22.31778,"lat":42.28778,"pop":0},{"id":792885,"name":"Barbarevo","alt":["Барбарево"],"lon":22.89583,"lat":41.46397,"pop":0},{"id":863629,"name":"Barbaros","lon":21.27417,"lat":41.50833,"pop":0},{"id":10364249,"name":"Barbarovci","alt":["Барбаровци"],"lon":22.00075,"lat":42.30775,"pop":0},{"id":833460,"name":"Bardovska Maala","alt":["Bardovska Mala","Бардовска Маала"],"lon":21.30723,"lat":42.14102,"pop":0},{"id":792867,"name":"Barešani","alt":["Baresane","Baresani","Bareshani","Barešane","Барешани"],"lon":21.35545,"lat":40.95264,"pop":0},{"id":792854,"name":"Barovo","alt":["Барово"],"lon":21.34484,"lat":41.94496,"pop":37},{"id":792855,"name":"Barovo","alt":["Барово"],"lon":22.14056,"lat":41.34389,"pop":0},{"id":861984,"name":"Barska Maala","alt":["Барска Маала"],"lon":22.2344,"lat":42.27459,"pop":0},{"id":792850,"name":"Bašali","alt":["Basali","Bashali","Basili","Bašili","Башали"],"lon":22.47895,"lat":41.39502,"pop":0},{"id":10310315,"name":"Baščalak","alt":["Bascalak","Bashchalak","Башчалак"],"lon":22.46607,"lat":41.63151,"pop":0},{"id":863619,"name":"Bašete i Poštr","alt":["Baset e Post","Basete i Postr","Bashete i Poshtr","Bašet e Pošt","Башете и Поштр"],"lon":21.03972,"lat":41.60861,"pop":0},{"id":792843,"name":"Bašibos","alt":["Bashibos","Basibos","Башибос"],"lon":22.69155,"lat":41.30824,"pop":0},{"id":792841,"name":"Bašino Selo","alt":["Bashino Selo","Basino Selo","Башино Село"],"lon":21.75971,"lat":41.7484,"pop":674},{"id":10356790,"name":"Baštevci","alt":["Bashtevci","Bastevci","Баштевци"],"lon":21.98048,"lat":42.1133,"pop":0},{"id":792839,"name":"Baštevo","alt":["Bashtevo","Bastevo","Баштево"],"lon":22.24167,"lat":42.22694,"pop":0},{"id":792837,"name":"Batanje","alt":["Batane","Nova Batanja","Батање"],"lon":22.17795,"lat":41.82223,"pop":0},{"id":792835,"name":"Batinci","alt":["Batinc","Батинци"],"lon":21.47978,"lat":41.91909,"pop":3239},{"id":792818,"name":"Bazernik","alt":["Базерник"],"lon":21.04842,"lat":41.28208,"pop":154},{"id":792809,"name":"Bedinje","alt":["Bedine","Бедиње"],"lon":21.69639,"lat":42.14167,"pop":2256},{"id":792804,"name":"Begnište","alt":["Begnishte","Begniste","Бегниште"],"lon":21.99716,"lat":41.36771,"pop":0},{"id":792799,"name":"Bekirlija","alt":["Bekirli","Бекирлија"],"lon":21.94111,"lat":41.68,"pop":25},{"id":792796,"name":"Bela Crkva","alt":["Бела Црква"],"lon":21.34515,"lat":41.28029,"pop":807},{"id":863652,"name":"Bela Crkva","alt":["Бела Црква"],"lon":21.3775,"lat":41.85583,"pop":0},{"id":10306609,"name":"Bela Gramada","alt":["Бела Грамада"],"lon":21.84123,"lat":42.21537,"pop":0},{"id":792788,"name":"Belanovce","alt":["Bolonovcje","Белановце"],"lon":21.56607,"lat":42.23699,"pop":0},{"id":834684,"name":"Belavinci","alt":["Белавинци"],"lon":22.35632,"lat":42.30421,"pop":0},{"id":792768,"name":"Belče","alt":["Belce","Belche","Белче"],"lon":21.2018,"lat":41.24435,"pop":199},{"id":9276409,"name":"Belčiska Maala","alt":["Belchiska Maala","Belciska Maala","Белчиска Маала"],"lon":22.67587,"lat":41.98502,"pop":0},{"id":792767,"name":"Belčišta","alt":["Belchishta","Belcista","Belciste","Belčište","Белчишта"],"lon":20.83028,"lat":41.30278,"pop":2804},{"id":792763,"name":"Beleštevica","alt":["Beleshtevica","Belestevica","Белештевица"],"lon":21.69747,"lat":41.76311,"pop":40},{"id":792758,"name":"Beli","alt":["Бели"],"lon":22.38084,"lat":41.92813,"pop":0},{"id":830008,"name":"Beli Vlajkovci","alt":["Бели Влајковци"],"lon":21.85333,"lat":42.29444,"pop":0},{"id":792753,"name":"Belica","alt":["Kicevo Belica","Kičevo Belica","Белица"],"lon":20.94837,"lat":41.40239,"pop":0},{"id":792748,"name":"Beličica","alt":["Belcica","Belichica","Belicica","Belčica","Беличица"],"lon":20.69028,"lat":41.69389,"pop":0},{"id":792726,"name":"Beljakovce","alt":["Belakovce","Belakovci","Beljakovci","Бељаковце","Бељаковци"],"lon":21.94026,"lat":42.11425,"pop":0},{"id":834678,"name":"Beljakovci","alt":["Beljakovci Mahala","Белјаковци"],"lon":22.31158,"lat":42.2737,"pop":0},{"id":792705,"name":"Belo Pole","alt":["Belo Polje","Бело Поле"],"lon":21.39713,"lat":41.41105,"pop":329},{"id":792694,"name":"Belotino","alt":["Белотино"],"lon":22.54493,"lat":41.43414,"pop":0},{"id":792692,"name":"Belovište","alt":["Belojshte","Belojste","Belojšte","Belovishte","Beloviste","Беловиште","Белојште"],"lon":21.10331,"lat":42.13641,"pop":0},{"id":792693,"name":"Belovište","alt":["Belovishte","Beloviste","Velike-Turcane","Velike-Turčane","Беловиште"],"lon":20.93243,"lat":41.77435,"pop":0},{"id":792691,"name":"Belovodica","alt":["Bela Vodica","Беловодица"],"lon":21.70286,"lat":41.3371,"pop":73},{"id":10306911,"name":"Belovuci","alt":["Беловуци"],"lon":21.93788,"lat":42.18525,"pop":0},{"id":792686,"name":"Belušino","alt":["Belushino","Belusino","Velusino","Velušino","Белушино"],"lon":21.25287,"lat":41.43666,"pop":127},{"id":792684,"name":"Benče","alt":["Bence","Benche","Бенче"],"lon":21.09892,"lat":41.69173,"pop":122},{"id":792676,"name":"Beranci","alt":["Беранци"],"lon":21.35963,"lat":41.15969,"pop":1264},{"id":792669,"name":"Berikovo","alt":["Бериково"],"lon":20.99736,"lat":41.64136,"pop":245},{"id":792658,"name":"Berovci","alt":["Berovce","Беровци"],"lon":21.49501,"lat":41.29766,"pop":357},{"id":792656,"name":"Berovo","alt":["Берово"],"lon":22.85778,"lat":41.70306,"pop":13847},{"id":792652,"name":"Bešište","alt":["Beshishte","Besiste","Бешиште"],"lon":21.78192,"lat":41.13938,"pop":238},{"id":792646,"name":"Besvica","alt":["Бесвица"],"lon":22.18201,"lat":41.38429,"pop":0},{"id":10276752,"name":"Bezgaštevo","alt":["Bezgashtevo","Bezgastevo","Безгаштево"],"lon":22.74731,"lat":41.61384,"pop":0},{"id":792642,"name":"Bezikovo","alt":["Безиково"],"lon":22.52806,"lat":41.9725,"pop":0},{"id":796356,"name":"Bezovo","alt":["Безово"],"lon":20.60068,"lat":41.32926,"pop":0},{"id":792639,"name":"Bibanje","alt":["Bibaj","Bibane","Бибај","Бибање"],"lon":20.6275,"lat":41.73194,"pop":0},{"id":792636,"name":"Bidžovo","alt":["Bidzevo","Bidzovo","Bidževo","Биџово"],"lon":20.69833,"lat":41.23,"pop":0},{"id":792633,"name":"Bigla","alt":["Бигла"],"lon":22.68865,"lat":41.95385,"pop":0},{"id":792630,"name":"Bigor Dolenci","alt":["Бигор Доленци"],"lon":20.98924,"lat":41.48812,"pop":189},{"id":792621,"name":"Biljanik","alt":["Bilanik","Билјаник","Биљаник"],"lon":21.49,"lat":41.03917,"pop":300},{"id":792619,"name":"Biljanovce","alt":["Bilanovce","Биљановце"],"lon":21.7326,"lat":42.10274,"pop":0},{"id":792604,"name":"Birino","alt":["Бирино"],"lon":21.2702,"lat":41.3121,"pop":0},{"id":792593,"name":"Bistrenci","alt":["Bistrenica","Бистренци"],"lon":22.20066,"lat":41.44798,"pop":0},{"id":792592,"name":"Bistrica","alt":["Feistritz","Бистрица"],"lon":21.3658,"lat":40.97892,"pop":4798},{"id":792578,"name":"Bitola","alt":["Bitol","Bitolj","Bitolja","Bitolya","Manastir","Manastiri","Manastır","Monasterium","Monasteron","Monastir","Monastiri","Monastirion","Obitѣl'","QBI","bi tuo la","bitolla","bitora","bytwla","bytwlh","Μοναστήρι","Μοναστήριον","Μπίτολα","Битола","Битоля","Битољ","Бітола","Манастир","Обитѣль","ביטולה","بيتولا","بیتولا","ビトラ","比托拉","비톨라"],"lon":21.33474,"lat":41.03143,"pop":69287},{"id":792575,"name":"Bitovo","alt":["Битово"],"lon":21.08111,"lat":41.74568,"pop":216},{"id":792574,"name":"Bituše","alt":["Bitus","Bituse","Bitushe","Bituš","Битуше"],"lon":20.58855,"lat":41.61626,"pop":0},{"id":859586,"name":"Bivolarci","alt":["Биволарци"],"lon":21.88163,"lat":42.26336,"pop":0},{"id":859484,"name":"Blačanci","alt":["Blacanci","Blachanci","Блачанци"],"lon":21.8638,"lat":42.30159,"pop":0},{"id":792566,"name":"Blace","alt":["Bllace e Siperme","Bllacë e Sipërme","Gornje Blace","Блаце"],"lon":21.33354,"lat":42.15127,"pop":0},{"id":792567,"name":"Blace","alt":["Блаце"],"lon":21.02125,"lat":41.89506,"pop":385},{"id":792553,"name":"Blatec","alt":["Blaca","Blatac","Блатец"],"lon":22.57909,"lat":41.83668,"pop":2024},{"id":792543,"name":"Blizanci","alt":["Близанци"],"lon":22.21694,"lat":42.0525,"pop":0},{"id":792542,"name":"Blizansko","alt":["Близанско"],"lon":21.16104,"lat":41.75966,"pop":90},{"id":9275298,"name":"Bobiska Maala","alt":["Бобиска Маала"],"lon":22.58228,"lat":41.90861,"pop":0},{"id":862084,"name":"Bogačinovci","alt":["Bogachinovci","Bogacinovci","Богачиновци"],"lon":22.32474,"lat":42.25941,"pop":0},{"id":792523,"name":"Bogdanci","alt":["Богданци"],"lon":22.57556,"lat":41.20306,"pop":8636},{"id":10410524,"name":"Bogdanova Maala","alt":["Богданова Маала"],"lon":22.22601,"lat":42.16116,"pop":0},{"id":10306601,"name":"Bogdanovci","alt":["Богдановци"],"lon":21.81083,"lat":42.19136,"pop":0},{"id":792516,"name":"Bogdevo","alt":["Богдево"],"lon":20.70021,"lat":41.7437,"pop":0},{"id":8623785,"name":"Bogojci","alt":["Богојци"],"lon":20.67023,"lat":41.28838,"pop":0},{"id":10409243,"name":"Bogojska Maala","alt":["Богојска Маала"],"lon":22.06442,"lat":42.15646,"pop":0},{"id":792509,"name":"Bogomila","alt":["Bogumil","Богомила"],"lon":21.47167,"lat":41.59306,"pop":1223},{"id":792508,"name":"Bogorodica","alt":["Bogorojca","Bogorojica","Богородица"],"lon":22.54988,"lat":41.1399,"pop":0},{"id":792505,"name":"Bogoslovec","alt":["Bogoslovac","Богословец"],"lon":22.02181,"lat":41.77304,"pop":0},{"id":792501,"name":"Bogovinje","alt":["Bogovina","Bogovine","Bogovino","Боговиње"],"lon":20.91361,"lat":41.92361,"pop":15166},{"id":792492,"name":"Bohula","alt":["Bokhula","Boula","Бохула"],"lon":22.1626,"lat":41.28744,"pop":0},{"id":798459,"name":"Boište","alt":["Boishte","Boista","Boiste","Boišta","Боиште"],"lon":21.10139,"lat":41.19667,"pop":180},{"id":792490,"name":"Bojančište","alt":["Bojanchishte","Bojanciste","Бојанчиште"],"lon":22.02822,"lat":41.26162,"pop":0},{"id":792489,"name":"Bojane","alt":["Bojana","Бојане"],"lon":21.19265,"lat":42.00009,"pop":1579},{"id":862882,"name":"Bojčoska Maala","alt":["Bojchoska Maala","Bojcoska Maala","Stefanska","Бојчоска Маала"],"lon":22.66713,"lat":41.97333,"pop":0},{"id":792476,"name":"Boletin","alt":["Boljetin","Болетин"],"lon":20.60096,"lat":41.6576,"pop":0},{"id":792464,"name":"Bolno","alt":["Болно"],"lon":20.97222,"lat":41.10944,"pop":0},{"id":9275291,"name":"Boltačka Maala","alt":["Boltachka Maala","Boltacka Maala","Болтачка Маала"],"lon":22.59422,"lat":41.89149,"pop":0},{"id":792460,"name":"Bomovo","alt":["Banova","Bomova","Бомово"],"lon":20.47984,"lat":41.50482,"pop":0},{"id":792459,"name":"Bonče","alt":["Bonce","Bonche","Бонче"],"lon":21.59791,"lat":41.22834,"pop":243},{"id":10409229,"name":"Bončevci","alt":["Boncevci","Bonchevci","Бончевци"],"lon":22.03009,"lat":42.1663,"pop":0},{"id":10409244,"name":"Bončevo","alt":["Boncevo","Bonchevo","Бончево"],"lon":22.03853,"lat":42.17432,"pop":0},{"id":10413211,"name":"Borboška Maala","alt":["Borboshka Maala","Borboska Maala","Борбошка Маала"],"lon":22.45,"lat":42.22488,"pop":0},{"id":8512337,"name":"Borčeto","alt":["Borceto","Borcheto","Борчето"],"lon":22.52416,"lat":42.11725,"pop":0},{"id":792451,"name":"Borievo","alt":["Borijovo","Бориево"],"lon":22.7652,"lat":41.42296,"pop":0},{"id":792446,"name":"Borino","alt":["Борино"],"lon":21.2783,"lat":41.43232,"pop":474},{"id":792444,"name":"Borisovo","alt":["Борисово"],"lon":22.82599,"lat":41.37877,"pop":0},{"id":9112455,"name":"Bornatska Maala","alt":["Борнатска Маала"],"lon":22.00553,"lat":42.06629,"pop":0},{"id":792431,"name":"Boroec","alt":["Borovec","Боровец","Бороец"],"lon":20.59653,"lat":41.28928,"pop":0},{"id":792439,"name":"Borotino","alt":["Боротино"],"lon":21.40095,"lat":41.28983,"pop":336},{"id":835266,"name":"Borovci","alt":["Боровци"],"lon":22.501,"lat":41.97558,"pop":0},{"id":834527,"name":"Borovo","alt":["Борово"],"lon":22.41722,"lat":42.0525,"pop":0},{"id":9114152,"name":"Borovo","alt":["Борово"],"lon":22.27866,"lat":42.1517,"pop":0},{"id":10410554,"name":"Borovska Maala","alt":["Боровска Маала"],"lon":22.18395,"lat":42.23915,"pop":0},{"id":792419,"name":"Bosilovo","alt":["Bosiljovo","Босилово"],"lon":22.72778,"lat":41.44056,"pop":12447},{"id":833977,"name":"Boškov Most","lon":20.61516,"lat":41.5524,"pop":0},{"id":834709,"name":"Boškovci","alt":["Boshkovci","Boskovci","Бошковци"],"lon":22.28776,"lat":42.34254,"pop":0},{"id":10306500,"name":"Boškovci","alt":["Boshkovci","Boskovci","Бошковци"],"lon":21.85195,"lat":42.24353,"pop":0},{"id":10410968,"name":"Boškovska Maala","alt":["Boshkovska Maala","Boskovska Maala","Бошковска Маала"],"lon":22.34077,"lat":42.30369,"pop":0},{"id":833526,"name":"Bošnjani","alt":["Bosnani","Bosnjani","Бошњани"],"lon":21.43444,"lat":42.06333,"pop":0},{"id":792403,"name":"Botun","alt":["Botum","Botur","Ботун"],"lon":20.78986,"lat":41.28627,"pop":0},{"id":863639,"name":"Botuše","lon":21.08667,"lat":41.71611,"pop":0},{"id":9274955,"name":"Božanska Maala","alt":["Bozanska Maala","Bozhanska Maala","Божанска Маала"],"lon":22.55026,"lat":41.90533,"pop":0},{"id":9276421,"name":"Božanska Maala","alt":["Bozanska Maala","Bozhanska Maala","Божанска Маала"],"lon":22.65071,"lat":41.97122,"pop":0},{"id":792386,"name":"Bozovce","alt":["Bezovec","Bozofce","Bozovec","Бозовце"],"lon":20.82727,"lat":42.05362,"pop":0},{"id":10306532,"name":"Bradinovci","alt":["Брадиновци"],"lon":21.78885,"lat":42.17087,"pop":0},{"id":792374,"name":"Brailovo","alt":["Brajilovo","Браилово"],"lon":21.46212,"lat":41.47708,"pop":436},{"id":792373,"name":"Brajčino","alt":["Brajchino","Brajcino","Брајчино"],"lon":21.15917,"lat":40.90639,"pop":755},{"id":792364,"name":"Brajkovci","alt":["Брајковци"],"lon":22.52222,"lat":41.29167,"pop":0},{"id":792351,"name":"Bratin Dol","alt":["Братин Дол"],"lon":21.26139,"lat":41.055,"pop":304},{"id":9275293,"name":"Brbolkovska Maala","alt":["Брболковска Маала"],"lon":22.59257,"lat":41.90797,"pop":0},{"id":792341,"name":"Brčevo","alt":["Brcevo","Brchevo","Брчево"],"lon":20.67284,"lat":41.29769,"pop":0},{"id":860457,"name":"Brdarska Maala","alt":["Брдарска Маала"],"lon":21.91916,"lat":42.26394,"pop":0},{"id":10306664,"name":"Breško","alt":["Breshko","Bresko","Брешко"],"lon":21.96367,"lat":42.20971,"pop":0},{"id":792314,"name":"Brest","alt":["Брест"],"lon":21.47664,"lat":42.19873,"pop":0},{"id":792315,"name":"Brest","alt":["Брест"],"lon":21.15722,"lat":41.72469,"pop":325},{"id":792316,"name":"Brest","alt":["Брест"],"lon":22.32435,"lat":41.60639,"pop":0},{"id":864711,"name":"Breštani","alt":["Breshtani","Brestani","Брештани"],"lon":20.58586,"lat":41.45532,"pop":0},{"id":792296,"name":"Brežani","alt":["Bresani","Brezani","Brezhani","Brešani","Брежани"],"lon":20.96131,"lat":41.27167,"pop":0},{"id":792287,"name":"Breznica","alt":["Borovska Breznica","Bresnica","Brezica","Брезница"],"lon":21.2267,"lat":41.73651,"pop":186},{"id":792282,"name":"Brezno","alt":["Брезно"],"lon":21.03879,"lat":42.08684,"pop":0},{"id":833348,"name":"Brezovec","alt":["Брезовец"],"lon":20.78373,"lat":41.75471,"pop":0},{"id":792274,"name":"Brezovo","alt":["Брезово"],"lon":21.12722,"lat":41.34222,"pop":197},{"id":792267,"name":"Brnik","alt":["Брник"],"lon":21.63918,"lat":41.08187,"pop":30},{"id":792264,"name":"Brnjarci","alt":["Brnarci","Brnjarce","Брњарци"],"lon":21.54837,"lat":42.03422,"pop":384},{"id":792258,"name":"Brod","alt":["Брод"],"lon":21.56498,"lat":40.95115,"pop":0},{"id":792249,"name":"Brodec","alt":["Brodac","Бродец"],"lon":21.44236,"lat":42.13969,"pop":0},{"id":792250,"name":"Brodec","alt":["Бродец"],"lon":20.89257,"lat":42.05866,"pop":0},{"id":792251,"name":"Brodec","alt":["Brodac","Бродец"],"lon":20.68639,"lat":41.78639,"pop":0},{"id":792244,"name":"Broštica","alt":["Brashtica","Broshtica","Brostica","Броштица"],"lon":20.58363,"lat":41.49316,"pop":0},{"id":792239,"name":"Brušani","alt":["Brusani","Brushani","Брушани"],"lon":21.955,"lat":41.40083,"pop":16},{"id":792234,"name":"Brusnik","alt":["Брусник"],"lon":22.20604,"lat":41.51141,"pop":0},{"id":792235,"name":"Brusnik","alt":["Брусник"],"lon":21.28528,"lat":41.02306,"pop":790},{"id":792227,"name":"Brvenica","alt":["Bervenice","Brvence","Bërvenicë","Брвеница","Брвенце"],"lon":20.98083,"lat":41.96722,"pop":16267},{"id":792216,"name":"Brždani","alt":["Brzdani","Brzhdani","Брждани"],"lon":20.91083,"lat":41.44619,"pop":0},{"id":792198,"name":"Bučim","alt":["Buchim","Bucim","Бучим"],"lon":22.33972,"lat":41.67056,"pop":0},{"id":792197,"name":"Bučin","alt":["Buchin","Bucin","Бучин"],"lon":21.31692,"lat":41.27377,"pop":1243},{"id":792193,"name":"Bučište","alt":["Buchishte","Buciste","Бучиште"],"lon":22.19695,"lat":41.92901,"pop":0},{"id":859574,"name":"Bučkovci","alt":["Buchkovci","Buckovci","Vuckovska Mala","Vučkovska Mala","Бучковци"],"lon":21.8175,"lat":42.2675,"pop":0},{"id":792186,"name":"Budakovo","alt":["Будаково"],"lon":21.47461,"lat":41.13923,"pop":309},{"id":792181,"name":"Budimirci","alt":["Budimir","Будимирци"],"lon":21.72916,"lat":41.05683,"pop":188},{"id":792179,"name":"Budinarci","alt":["Будинарци"],"lon":22.77492,"lat":41.76333,"pop":0},{"id":9114166,"name":"Buinska Maala","alt":["Буинска Маала"],"lon":22.32553,"lat":42.18244,"pop":0},{"id":861248,"name":"Bujek","alt":["Бујек"],"lon":21.9546,"lat":42.31571,"pop":0},{"id":10418985,"name":"Bukarska Maala","alt":["Букарска Маала"],"lon":22.7147,"lat":42.06316,"pop":0},{"id":792166,"name":"Bukojčani","alt":["Bukojcani","Bukojchani","Букојчани"],"lon":20.95944,"lat":41.62528,"pop":0},{"id":860454,"name":"Bukolovska Maala","alt":["Буколовска Маала"],"lon":21.92829,"lat":42.25462,"pop":0},{"id":8512376,"name":"Bukoravenci","alt":["Букоравенци"],"lon":22.55228,"lat":42.09444,"pop":0},{"id":792150,"name":"Bukovik","alt":["Bukovic","Buković","Bukoviḱ","Буковиќ"],"lon":21.23905,"lat":41.97103,"pop":1256},{"id":792137,"name":"Bukovljane","alt":["Bukovlane","Буковљане"],"lon":21.99402,"lat":42.30798,"pop":0},{"id":792135,"name":"Bukovo","alt":["Буково"],"lon":21.33228,"lat":40.99435,"pop":0},{"id":10692364,"name":"Bukri","alt":["Букри"],"lon":21.4987,"lat":40.95126,"pop":0},{"id":792129,"name":"Bulacani","alt":["Bulacane","Bulačane","Bulačani"],"lon":21.50278,"lat":42.07056,"pop":1033},{"id":792122,"name":"Buluntuli","alt":["Булунтули"],"lon":22.69139,"lat":41.3175,"pop":0},{"id":9114157,"name":"Bulutska Maala","alt":["Булутска Маала"],"lon":22.33924,"lat":42.23198,"pop":0},{"id":10478973,"name":"Bumbarci","alt":["Бумбарци"],"lon":22.64459,"lat":42.00209,"pop":0},{"id":9276372,"name":"Bumbarska Maala","alt":["Бумбарска Маала"],"lon":22.6709,"lat":41.94682,"pop":0},{"id":792117,"name":"Bunarče","alt":["Bunarce","Bunarche","Бунарче"],"lon":22.08139,"lat":41.33667,"pop":0},{"id":792114,"name":"Buneš","alt":["Bunes","Bunesh","Бунеш"],"lon":22.23611,"lat":41.9525,"pop":0},{"id":792110,"name":"Burilčevo","alt":["Burilcevo","Burilchevo","Бурилчево"],"lon":22.2969,"lat":41.84228,"pop":0},{"id":792109,"name":"Burilovci","alt":["Буриловци"],"lon":22.06555,"lat":41.87931,"pop":0},{"id":792106,"name":"Burinec","alt":["Mahala Burinec","Буринец"],"lon":20.61722,"lat":41.39528,"pop":0},{"id":833351,"name":"Bušalar","alt":["Busalar","Bushalar","Бушалар"],"lon":21.46632,"lat":42.18833,"pop":0},{"id":792099,"name":"Busilci","alt":["Busilca","Бусилци"],"lon":21.70389,"lat":41.62306,"pop":68},{"id":833260,"name":"Butel","alt":["Butelj","Бутел"],"lon":21.44667,"lat":42.03083,"pop":36154},{"id":861271,"name":"Buzalak","alt":["Buzolak","Бузалак"],"lon":22.04222,"lat":42.29667,"pop":0},{"id":792084,"name":"Buzalkovo","alt":["Buzalakovo","Бузалково"],"lon":21.67578,"lat":41.73858,"pop":945},{"id":10306334,"name":"Buzina Mahala","alt":["Buzina Makhala","Бузина Махала"],"lon":21.71956,"lat":42.20476,"pop":0},{"id":832952,"name":"Buzinci","alt":["Бузинци"],"lon":21.84341,"lat":42.15192,"pop":0},{"id":10306692,"name":"Buzoviḱi","alt":["Buzovici","Buzoviki","Buzovići","Бузовиќи"],"lon":21.97798,"lat":42.23339,"pop":0},{"id":8717395,"name":"Čačorica","alt":["Cacorica","Chachorica","Чачорица"],"lon":21.55033,"lat":41.33621,"pop":0},{"id":8695635,"name":"Čagor","alt":["Cagor","Chagor","Чагор"],"lon":21.2569,"lat":41.19112,"pop":0},{"id":833262,"name":"Čair","alt":["Cair","Chair","Чаир"],"lon":21.44111,"lat":42.01528,"pop":64773},{"id":8743587,"name":"Čair","alt":["Cair","Chair","Чаир"],"lon":21.68837,"lat":41.64228,"pop":0},{"id":833854,"name":"Čajane","alt":["Cajane","Chajane","Чајане"],"lon":20.76774,"lat":41.74982,"pop":0},{"id":792068,"name":"Čajlane","alt":["Cajlane","Cajljane","Chajlane","Чајлане"],"lon":21.25503,"lat":41.96245,"pop":510},{"id":792067,"name":"Čajle","alt":["Caile","Cajle","Chajle","Čaile","Чајле"],"lon":20.9319,"lat":41.80466,"pop":4},{"id":9274851,"name":"Čakmačka Maala","alt":["Cakmacka Maala","Chakmachka Maala","Чакмачка Маала"],"lon":22.51897,"lat":41.95241,"pop":0},{"id":10413236,"name":"Čakmadžiska Maala","alt":["Cakmadziska Maala","Chakmadziska Maala","Чакмаџиска Маала"],"lon":22.40143,"lat":42.22994,"pop":0},{"id":9621521,"name":"Čakoj","alt":["Cakoj","Chakoj","Чакој"],"lon":21.14066,"lat":42.06561,"pop":0},{"id":792064,"name":"Čalakli","alt":["Calakli","Canakli","Chalakli","Čanakli","Чалакли"],"lon":22.64,"lat":41.30333,"pop":0},{"id":9114202,"name":"Čalinska Maala","alt":["Calinska Maala","Chalinska Maala","Чалинска Маала"],"lon":22.35385,"lat":42.23448,"pop":0},{"id":792063,"name":"Čaloševo","alt":["Calosevo","Chaloshevo","Чалошево"],"lon":21.79611,"lat":41.75472,"pop":197},{"id":792062,"name":"Čam Čiflik","alt":["Cam Ciflik","Cham Chiflik","Чам Чифлик"],"lon":22.6092,"lat":41.4209,"pop":0},{"id":792059,"name":"Čanaklija","alt":["Canakli","Canaklija","Chanaklija","Čanakli","Чанаклија"],"lon":22.73194,"lat":41.51472,"pop":0},{"id":792057,"name":"Čanište","alt":["Caniste","Chanishte","Чаниште"],"lon":21.68556,"lat":41.16528,"pop":348},{"id":834575,"name":"Čankina Maala","alt":["Cankina Maala","Cankinci","Chankina Maala","Čankinci","Чанкина Маала"],"lon":22.24361,"lat":42.17694,"pop":0},{"id":792055,"name":"Capari","alt":["Цапари"],"lon":21.17884,"lat":41.05656,"pop":1311},{"id":792045,"name":"Čardaklija","alt":["Cardaklija","Chardaklija","Чардаклија"],"lon":22.18446,"lat":41.78057,"pop":0},{"id":792040,"name":"Carev Dvor","alt":["Царев Двор"],"lon":21.00587,"lat":41.04345,"pop":0},{"id":792039,"name":"Careviḱ","alt":["Carevic","Carevik","Carević","Царевиќ"],"lon":21.77194,"lat":41.35639,"pop":32},{"id":792034,"name":"Čaška","alt":["Caska","Chashka","Чашка"],"lon":21.66222,"lat":41.65056,"pop":2878},{"id":792030,"name":"Čaušli","alt":["Causli","Chaushli","Чаушли"],"lon":22.64982,"lat":41.26512,"pop":0},{"id":792019,"name":"Cegrane","alt":["Cegran","Chegrane","Çegran","Чегране"],"lon":20.97583,"lat":41.83889,"pop":12523},{"id":859556,"name":"Čelanska Maala","alt":["Celanska Maala","Celanska Mala","Chelanska Maala","Čelanska Mala","Челанска Маала"],"lon":21.32254,"lat":42.1293,"pop":0},{"id":792014,"name":"Čelevec","alt":["Celevec","Chelevec","Челевец"],"lon":22.27861,"lat":41.42444,"pop":0},{"id":10306524,"name":"Čelopečanci","alt":["Celopecanci","Celopechanci","Целопечанци"],"lon":21.86171,"lat":42.2045,"pop":0},{"id":792008,"name":"Čelopeci","alt":["Celopeci","Chelopeci","Челопеци"],"lon":21.02845,"lat":41.47295,"pop":414},{"id":833685,"name":"Čelopeci","alt":["Celikovci","Celopeci","Chelopeci","Čelikovci","Челопеци"],"lon":20.94826,"lat":41.61481,"pop":0},{"id":792007,"name":"Čelopek","alt":["Callapek","Celopek","Chelopek","Çallapek","Челопек"],"lon":21.01333,"lat":41.93167,"pop":4731},{"id":8548804,"name":"Cementarnica","alt":["Цементарница"],"lon":21.45286,"lat":41.97138,"pop":0},{"id":792000,"name":"Čemersko","alt":["Cemersko","Chemersko","Чемерско"],"lon":22.14193,"lat":41.29283,"pop":0},{"id":861999,"name":"Čengici","alt":["Cengici","Chengici","Ченгици"],"lon":22.28749,"lat":42.26583,"pop":0},{"id":863693,"name":"Cenovska Maala","alt":["Ceena Maala","Ceene Mala","Ценовска Маала"],"lon":21.54541,"lat":41.81492,"pop":0},{"id":7886881,"name":"Centar Župa","alt":["Centar Zhupa","Centar Zsupa","Merkez Jupa","Qendra Zhupa","Tsentar Joupa","Vapa","Вапа","Центар Жупа","ცენტარ-ჟუპა"],"lon":20.55945,"lat":41.47849,"pop":45412},{"id":785897,"name":"Čento","alt":["Asan-Begovo","Asanbegovo","Chento","Metodij Andonov - Chento","Sindelic","Sindelicevo","Singelic","Singelik","Singelić","Sinđelić","Sinđelićevo","Асанбегово","Методиј Андонов - Ченто","Ченто"],"lon":21.51667,"lat":42.01667,"pop":0},{"id":791997,"name":"Čepeli","alt":["Cepeli","Chepeli","Чепели"],"lon":22.54907,"lat":41.37472,"pop":0},{"id":791995,"name":"Čepigovo","alt":["Cepigovo","Chepigovo","Чепигово"],"lon":21.39616,"lat":41.24861,"pop":218},{"id":791992,"name":"Cer","alt":["Цер"],"lon":21.07312,"lat":41.41708,"pop":390},{"id":791991,"name":"Cera","lon":22.4875,"lat":42.06944,"pop":0},{"id":8543165,"name":"Cera","alt":["Цера"],"lon":22.53138,"lat":42.04175,"pop":0},{"id":8512396,"name":"Čergovci","alt":["Cergovci","Chergovci","Черговци"],"lon":22.55843,"lat":42.07247,"pop":0},{"id":10306552,"name":"Čerkezovci","alt":["Cerkezovci","Cherkezovci","Черкезовци"],"lon":21.83934,"lat":42.14724,"pop":0},{"id":791961,"name":"Cerovo","alt":["Cerova","Церово"],"lon":21.13636,"lat":41.99228,"pop":431},{"id":791962,"name":"Cerovo","alt":["Церово"],"lon":20.84583,"lat":41.7225,"pop":0},{"id":791963,"name":"Cerovo","alt":["Церово"],"lon":21.09129,"lat":41.21588,"pop":67},{"id":791954,"name":"Češinovo","alt":["Cesinovis","Cesinovo","Cheshinovo","Češinovis","Чешиново"],"lon":22.28961,"lat":41.87148,"pop":2377},{"id":791950,"name":"Češme Maale","alt":["Cesme Maale","Cesme Mahala","Cesme Male","Cesmemala","Cheshme Maale","Česme Mahala","Česme Male","Češmemala","Чешме Маале"],"lon":22.48582,"lat":41.69163,"pop":0},{"id":9000209,"name":"Češmeder","alt":["Cesmeder","Cheshmeder","Чешмедер"],"lon":22.01179,"lat":41.66173,"pop":0},{"id":791945,"name":"Čestevo","alt":["Cestevo","Cestovo","Cheshtovo","Chestevo","Čestovo","Češtovo","Честево","Чештово"],"lon":22.57299,"lat":41.29417,"pop":0},{"id":791942,"name":"Četirce","alt":["Cetirce","Chetirce","Четирце"],"lon":21.76278,"lat":42.21556,"pop":0},{"id":9112465,"name":"Čezaci","alt":["Cezaci","Chezaci","Чезаци"],"lon":22.01404,"lat":42.05947,"pop":0},{"id":12166946,"name":"Chiflik","alt":["Чифлик"],"lon":20.93484,"lat":41.98474,"pop":0},{"id":834621,"name":"Cibaci","alt":["Цибаци"],"lon":22.38573,"lat":42.23753,"pop":0},{"id":8426746,"name":"Čičino Selo","alt":["Chichino Selo","Cicino Selo","Чичино Село"],"lon":21.32907,"lat":41.9946,"pop":0},{"id":791928,"name":"Čiflik","alt":["Chiflik","Ciflik","Çiflik","Чифлик"],"lon":21.35262,"lat":41.94756,"pop":444},{"id":791929,"name":"Čiflik","alt":["Chiflik","Ciflik","Чифлик"],"lon":21.12056,"lat":41.95139,"pop":854},{"id":791930,"name":"Čiflik","alt":["Chiflik","Ciflik","Poljski Pasadzik","Poljski Pašadžik","Чифлик"],"lon":22.3175,"lat":41.86889,"pop":0},{"id":791931,"name":"Čiflik","alt":["Chiflik","Ciflik","Чифлик"],"lon":22.8568,"lat":41.76101,"pop":0},{"id":791932,"name":"Čiflik","alt":["Budur","Budur Ciflik","Budur Čiflik","Chiflik","Ciflik","Чифлик"],"lon":22.22206,"lat":41.38864,"pop":0},{"id":796088,"name":"Čiflik","alt":["Chiflik","Ciflik","Чифлик"],"lon":22.78,"lat":41.94444,"pop":0},{"id":834521,"name":"Čiflik","alt":["Chiflik","Ciflik","Чифлик"],"lon":22.28041,"lat":42.03311,"pop":0},{"id":835271,"name":"Čiflik","alt":["Chiflik","Ciflik","Чифлик"],"lon":22.53448,"lat":41.97398,"pop":0},{"id":862007,"name":"Čiflik","alt":["Chiflik","Ciflik","Чифлик"],"lon":22.33683,"lat":42.29392,"pop":0},{"id":863677,"name":"Čiflik","alt":["Chiflik","Ciflik","Чифлик"],"lon":21.6794,"lat":41.92576,"pop":0},{"id":9114119,"name":"Čiflik","alt":["Chiflik","Ciflik","Чифлик"],"lon":22.29311,"lat":42.1829,"pop":0},{"id":9272640,"name":"Čiflik","alt":["Chiflik","Ciflik","Чифлик"],"lon":22.27404,"lat":41.67063,"pop":0},{"id":10306325,"name":"Čiflik","alt":["Chiflik","Ciflik","Civluk","Čivluk","Чифлик"],"lon":21.70034,"lat":42.21819,"pop":0},{"id":10410574,"name":"Čiflik","alt":["Chiflik","Ciflik","Чифлик"],"lon":22.12405,"lat":42.19663,"pop":0},{"id":10410462,"name":"Cincarova Maala","alt":["Цинцарова Маала"],"lon":22.17764,"lat":42.21982,"pop":0},{"id":9000217,"name":"Čitaklija","alt":["Chitaklija","Citaklija","Читаклија"],"lon":22.05933,"lat":41.63446,"pop":0},{"id":10409231,"name":"Čivlevci","alt":["Chivlevci","Civlevci","Чивлевци"],"lon":22.03511,"lat":42.15893,"pop":0},{"id":10418925,"name":"Čobanska Maala","alt":["Chobanska Maala","Cobanska Maala","Чобанска Маала"],"lon":22.63467,"lat":42.06165,"pop":0},{"id":10356795,"name":"Cocevci","alt":["Цоцевци"],"lon":21.98651,"lat":42.078,"pop":0},{"id":10306903,"name":"Čoljaci","alt":["Cholaci","Coljaci","Чољаци"],"lon":21.91166,"lat":42.1572,"pop":0},{"id":10642097,"name":"Čorbadžii","alt":["Chorbadzii","Corbadzii","Чорбаџии"],"lon":22.79925,"lat":41.85548,"pop":0},{"id":10418891,"name":"Čorbadžiska Maala","alt":["Chorbadziska Maala","Corbadziska Maala","Чорбаџиска Маала"],"lon":22.62589,"lat":42.0264,"pop":0},{"id":9274927,"name":"Čortanci","alt":["Chortanci","Cortanci","Чортанци"],"lon":22.58736,"lat":41.9796,"pop":0},{"id":791885,"name":"Cresevo","alt":["Creshevo","Tsrechevo","Tsréchévo","Црешево"],"lon":21.50972,"lat":42.05083,"pop":1479},{"id":791884,"name":"Creška","alt":["Creshka","Creska","Creske","Preske","Preške","Čreške","Црешка"],"lon":21.98111,"lat":41.70472,"pop":0},{"id":791883,"name":"Crešnevo","alt":["Creshnevo","Cresnevo","Cresnjevo","Crešnjevo","Црешнево"],"lon":21.2861,"lat":41.64362,"pop":358},{"id":791870,"name":"Crkvino","alt":["Crkvina","Црквино"],"lon":21.79572,"lat":41.657,"pop":471},{"id":861301,"name":"Crkvinska Maala","alt":["Црквинска Маала"],"lon":22.1548,"lat":42.2909,"pop":0},{"id":791770,"name":"Crn Kamen","alt":["Crni Kamen","Црн Камен"],"lon":22.5365,"lat":41.92316,"pop":0},{"id":791752,"name":"Crn Vrv","alt":["Crni Vrh","Crni Vrv","Црн Врв"],"lon":21.37778,"lat":41.81194,"pop":773},{"id":838667,"name":"Crn Vrv","alt":["Crni Vrv","Црн Врв"],"lon":21.24472,"lat":41.10306,"pop":0},{"id":10410459,"name":"Crneška Maala","alt":["Crneshka Maala","Crneska Maala","Црнешка Маала"],"lon":22.21326,"lat":42.21649,"pop":0},{"id":859483,"name":"Crni Vlajkovci","alt":["Црни Влајковци"],"lon":21.86135,"lat":42.30393,"pop":0},{"id":791827,"name":"Crničani","alt":["Cerniste","Crnicane","Crnicani","Crnichani","Crničane","Černište","Црничани"],"lon":22.65456,"lat":41.236,"pop":0},{"id":791828,"name":"Crničani","alt":["Crnicani","Crnichani","Црничани"],"lon":21.54,"lat":41.12472,"pop":140},{"id":791825,"name":"Crnik","alt":["Црник"],"lon":22.88156,"lat":41.82136,"pop":0},{"id":791819,"name":"Crnilište","alt":["Crnilishte","Crniliste","Црнилиште"],"lon":21.41416,"lat":41.53025,"pop":1303},{"id":864713,"name":"Crnoboci","alt":["Црнобоци"],"lon":20.56653,"lat":41.48423,"pop":0},{"id":791769,"name":"Crnobuki","alt":["Crnobok","Црнобуки"],"lon":21.32229,"lat":41.12356,"pop":830},{"id":10356811,"name":"Crnorukovci","alt":["Црноруковци"],"lon":21.95247,"lat":42.08977,"pop":0},{"id":791756,"name":"Crnovec","alt":["Crnec","Crneec","Crnoec","Crnovci","Црновец"],"lon":21.22399,"lat":41.15574,"pop":577},{"id":791746,"name":"Crvena Niva","alt":["Crvena Njiva","Црвена Нива"],"lon":22.39132,"lat":41.9548,"pop":0},{"id":791741,"name":"Crvena Voda","alt":["Црвена Вода"],"lon":21.45889,"lat":41.8575,"pop":98},{"id":791742,"name":"Crvena Voda","alt":["Црвена Вода"],"lon":20.76709,"lat":41.32062,"pop":0},{"id":9007432,"name":"Crveni Bregovi","alt":["Црвени Брегови"],"lon":22.0857,"lat":41.53785,"pop":0},{"id":9274837,"name":"Crveni Bregovi","alt":["Црвени Брегови"],"lon":22.52655,"lat":41.98405,"pop":0},{"id":8512253,"name":"Crvenikovska Maala","alt":["Црвениковска Маала"],"lon":22.51046,"lat":42.01711,"pop":0},{"id":791728,"name":"Crvulevo","alt":["Crvilevo","Crvuljevo","Црвулево"],"lon":22.29498,"lat":41.81095,"pop":0},{"id":862087,"name":"Čukarci","alt":["Chukarci","Cukarci","Чукарци"],"lon":22.31303,"lat":42.27816,"pop":0},{"id":10410572,"name":"Čukarci","alt":["Chukarci","Cukarci","Чукарци"],"lon":22.12039,"lat":42.20936,"pop":0},{"id":9275277,"name":"Čukarliska Maala","alt":["Chukarliska Maala","Cukarliska Maala","Чукарлиска Маала"],"lon":22.59889,"lat":41.89729,"pop":0},{"id":8512257,"name":"Čukarska Maala","alt":["Chukarska Maala","Cukarska Maala","Чукарска Маала"],"lon":22.49679,"lat":42.02784,"pop":0},{"id":9114173,"name":"Čukovci","alt":["Chukovci","Cukovci","Чуковци"],"lon":22.25091,"lat":42.24937,"pop":0},{"id":838614,"name":"Čulovci","alt":["Chulovci","Culovci","Чуловци"],"lon":21.94935,"lat":41.1643,"pop":0},{"id":791905,"name":"Čumovo","alt":["Chumovo","Cmovo","Cumovo","Čmovo","Чумово"],"lon":21.56848,"lat":41.2821,"pop":95},{"id":9114174,"name":"Cuparice","alt":["Цупарице"],"lon":22.26751,"lat":42.24835,"pop":0},{"id":10307700,"name":"Čurilska Maala","alt":["Churilska Maala","Curilska Maala","Чурилска Маала"],"lon":22.92639,"lat":41.58681,"pop":0},{"id":10410541,"name":"Čurina Maala","alt":["Churina Maala","Curina Maala","Чурина Маала"],"lon":22.17025,"lat":42.1607,"pop":0},{"id":10433366,"name":"Čurkovci","alt":["Churkovci","Curkovci","Чурковци"],"lon":22.2012,"lat":42.20026,"pop":0},{"id":834615,"name":"Cvetanovska Maala","alt":["Цветановска Маала"],"lon":22.34173,"lat":42.23616,"pop":0},{"id":8512261,"name":"Cvetanska Maala","alt":["Цветанска Маала"],"lon":22.50468,"lat":42.06225,"pop":0},{"id":9274942,"name":"Cvetanska Maala","alt":["Цветанска Маала"],"lon":22.609,"lat":41.92479,"pop":0},{"id":861260,"name":"Cvetišnica","alt":["Cvetishnica","Cvetisnica","Цветишница"],"lon":22.01537,"lat":42.30097,"pop":0},{"id":10409318,"name":"Cvetkovci","alt":["Цветковци"],"lon":22.09735,"lat":42.23708,"pop":0},{"id":791665,"name":"Cvetovo","alt":["Цветово"],"lon":21.40985,"lat":41.85773,"pop":610},{"id":791663,"name":"Cvilance","alt":["Цвиланце"],"lon":21.92085,"lat":42.2182,"pop":0},{"id":791473,"name":"D'lga","alt":["Д’лга"],"lon":21.78332,"lat":42.00617,"pop":0},{"id":791661,"name":"Dabilja","alt":["Dabila","Dabile","Дабилја"],"lon":22.69056,"lat":41.44315,"pop":0},{"id":791658,"name":"Dabjani","alt":["Дабјани"],"lon":21.36615,"lat":41.42768,"pop":0},{"id":791655,"name":"Dabnica","alt":["Дабница"],"lon":21.56468,"lat":41.39734,"pop":17},{"id":791654,"name":"Dabnište","alt":["Dabnishte","Dabniste","Дабниште"],"lon":22.01404,"lat":41.37863,"pop":0},{"id":8716358,"name":"Dabo","alt":["Дабо"],"lon":21.30384,"lat":41.02416,"pop":0},{"id":791640,"name":"Dalbegovci","alt":["Далбеговци"],"lon":21.47417,"lat":41.10861,"pop":410},{"id":8512425,"name":"Dalevska Maala","alt":["Далевска Маала"],"lon":22.57775,"lat":42.07901,"pop":0},{"id":791637,"name":"Damjan","alt":["Дамјан"],"lon":22.36111,"lat":41.61306,"pop":0},{"id":9276356,"name":"Damjanoska Maala","alt":["Дамјаноска Маала"],"lon":22.69732,"lat":41.97328,"pop":0},{"id":10409401,"name":"Davidovci","alt":["Давидовци"],"lon":22.06352,"lat":42.19372,"pop":0},{"id":791609,"name":"Davidovo","alt":["Давидово"],"lon":22.43274,"lat":41.33204,"pop":0},{"id":791606,"name":"Debar","alt":["Bebar","Debara","Debaras","Debaru","Debre","Debur","Dibra","Dibre-i-Bala","Divri","dbar","de ba er","debaleu","debari","dybar","Δίβρη","Дебар","Дебър","Дєбаръ","دبار","ديبار","დებარი","德巴爾","데바르"],"lon":20.52421,"lat":41.52444,"pop":18074},{"id":791584,"name":"Debreše","alt":["Debrese","Debreshe","Дебреше"],"lon":20.88419,"lat":41.81592,"pop":4},{"id":791583,"name":"Debrešte","alt":["Debreshte","Debreste","Debriste","Debrište","Дебреште"],"lon":21.31716,"lat":41.47953,"pop":0},{"id":791582,"name":"Debrište","alt":["Debrishte","Debriste","Дебриште"],"lon":21.88194,"lat":41.45972,"pop":173},{"id":860829,"name":"Dedavačka Maala","alt":["Dedavachka Maala","Dedavacka Maala","Dedavacka Mahala","Dedavačka Mahala","Дедавачка Маала"],"lon":21.94144,"lat":42.33737,"pop":0},{"id":791575,"name":"Dedebalci","alt":["Dedebal","Дедебалци"],"lon":21.4857,"lat":41.11633,"pop":474},{"id":791574,"name":"Dedeli","alt":["Дедели"],"lon":22.60472,"lat":41.28417,"pop":0},{"id":791567,"name":"Dedino","alt":["Дедино"],"lon":22.42472,"lat":41.57,"pop":0},{"id":791562,"name":"Dejkovec","alt":["Dejkovac","Dekovec","Дејковец"],"lon":21.56747,"lat":41.79198,"pop":156},{"id":791561,"name":"Dejlovce","alt":["Dejlovci","Дејловце"],"lon":22.0187,"lat":42.25518,"pop":0},{"id":791559,"name":"Delcevo","alt":["Carevo Selo","Delchevo","Делчево"],"lon":22.76944,"lat":41.96722,"pop":17415},{"id":791550,"name":"Delisinci","alt":["Delisinciie","Делисинци"],"lon":21.99477,"lat":41.78254,"pop":8},{"id":791549,"name":"Deljadrovci","alt":["Deladrovce","Deladrovci","Дељадровци"],"lon":21.67028,"lat":42.015,"pop":0},{"id":791548,"name":"Delogožda","alt":["Delagozde","Delagožde","Delogozda","Delogozdi","Delogozhda","Delogozhdi","Delogoždi","Делогожда","Делогожди"],"lon":20.7218,"lat":41.25728,"pop":8413},{"id":10306925,"name":"Delovčanci","alt":["Delovcanci","Delovchanci","Деловчанци"],"lon":21.90192,"lat":42.18793,"pop":0},{"id":10306727,"name":"Delovčani","alt":["Delovcani","Delovchani","Деловчани"],"lon":21.89058,"lat":42.14131,"pop":0},{"id":861228,"name":"Delska Maala","alt":["Делска Маала"],"lon":22.19637,"lat":42.3201,"pop":0},{"id":787778,"name":"Demir Hisar","alt":["Demir Chisaras","Demir Hisari","Demir Khisar","Demir-Khisar","Murgasevo","Murgashevo","Murgasjevo","Murgaševo","de mi er xi sa er","demileuhisaleu","demir-hisari","dymyr hysar","Демир Хисар","Демир-Хисар","Мургашево","ديمير هيسار","დემირ-ჰისარი","德米爾希薩爾","데미르히사르"],"lon":21.20302,"lat":41.22097,"pop":2283},{"id":791542,"name":"Demir Kapija","alt":["Banja","Демир Капија"],"lon":22.24631,"lat":41.40613,"pop":4451},{"id":860504,"name":"Derelska Maala","alt":["Дерелска Маала"],"lon":21.93964,"lat":42.285,"pop":0},{"id":8512342,"name":"Derovci","alt":["Деровци"],"lon":22.53788,"lat":42.08441,"pop":0},{"id":859576,"name":"Dešini","alt":["Deshini","Desini","Дешини"],"lon":21.85219,"lat":42.25695,"pop":0},{"id":791517,"name":"Desovo","alt":["Десово"],"lon":21.49111,"lat":41.46278,"pop":1317},{"id":791504,"name":"Devič","alt":["Devic","Devich","Девич"],"lon":21.22606,"lat":41.55098,"pop":171},{"id":791492,"name":"Dihovo","alt":["Dikhovo","Дихово"],"lon":21.26389,"lat":41.03028,"pop":644},{"id":9114115,"name":"Dijamadžaci","alt":["Dijamadzaci","Дијамаџаци"],"lon":22.26962,"lat":42.17402,"pop":0},{"id":10410517,"name":"Dikina Maala","alt":["Дикина Маала"],"lon":22.2045,"lat":42.18658,"pop":0},{"id":9276353,"name":"Dimčoska Maala","alt":["Dimchoska Maala","Dimcoska Maala","Димчоска Маала"],"lon":22.70856,"lat":41.95233,"pop":0},{"id":10409358,"name":"Dimiḱi","alt":["Dimiki","Димиќи"],"lon":22.07876,"lat":42.22371,"pop":0},{"id":10356793,"name":"Dimonce","alt":["Димонце"],"lon":21.98603,"lat":42.10828,"pop":0},{"id":9276405,"name":"Dimoska Maala","alt":["Димоска Маала"],"lon":22.66982,"lat":41.99072,"pop":0},{"id":9112572,"name":"Dingovci","alt":["Динговци"],"lon":22.07154,"lat":42.12386,"pop":0},{"id":9114109,"name":"Divjanci","alt":["Дивјанци"],"lon":22.31566,"lat":42.22474,"pop":0},{"id":791477,"name":"Divlje","alt":["Divle","Дивље"],"lon":21.76764,"lat":41.92703,"pop":121},{"id":791474,"name":"Dlabočica","alt":["Dlabochica","Dlabocia","Dlabocica","Dlabočia","Dlbocica","Dlbočica","Dolbocica","Dolbočica","Dubocica","Dubočica","Длабочица"],"lon":22.0425,"lat":42.29028,"pop":0},{"id":796096,"name":"Dobarce","alt":["Добарце"],"lon":21.08875,"lat":41.9553,"pop":1306},{"id":8623622,"name":"Dobovjani","alt":["Добовјани"],"lon":20.65406,"lat":41.2523,"pop":0},{"id":10306760,"name":"Dobrača","alt":["Dobraca","Dobracha","Добрача"],"lon":21.90039,"lat":42.21788,"pop":0},{"id":791456,"name":"Dobrejci","alt":["Добрејци"],"lon":22.6525,"lat":41.46083,"pop":0},{"id":791454,"name":"Dobrevo","alt":["Dobreovo","Добрево"],"lon":22.19583,"lat":42.02389,"pop":0},{"id":791442,"name":"Dobri Dol","alt":["Добри Дол"],"lon":21.40489,"lat":41.92718,"pop":476},{"id":791443,"name":"Dobri Dol","alt":["Doberdol","Dobri-Do","Dobërdol","Добри Дол"],"lon":20.89009,"lat":41.8652,"pop":4124},{"id":10307690,"name":"Dobrilačka Maala","alt":["Dobrilachka Maala","Dobrilacka Maala","Добрилачка Маала"],"lon":22.92001,"lat":41.59454,"pop":0},{"id":791435,"name":"Dobrino","alt":["Добрино"],"lon":21.59941,"lat":41.78815,"pop":178},{"id":791429,"name":"Dobromiri","alt":["Dobromir","Добромири"],"lon":21.45583,"lat":41.06944,"pop":565},{"id":791422,"name":"Dobrošani","alt":["Dobrisani","Dobrišani","Dobrosani","Dobroshani","Доброшани"],"lon":22.07783,"lat":41.74117,"pop":0},{"id":791455,"name":"Dobrošinci","alt":["Dobrasinci","Dobrašinci","Dobresinci","Dobrešinci","Dobroshinci","Dobrosinci","Доброшинци"],"lon":22.67528,"lat":41.52528,"pop":0},{"id":791419,"name":"Dobrošte","alt":["Dobroshte","Dobroshtë","Dobroste"],"lon":21.07778,"lat":42.10333,"pop":3339},{"id":791414,"name":"Dobrotino","alt":["Добротино"],"lon":21.935,"lat":41.37361,"pop":0},{"id":791413,"name":"Dobroveni","alt":["Dobroven","Добровени"],"lon":21.60225,"lat":40.94992,"pop":0},{"id":834676,"name":"Dobrovnica","alt":["Dubrovnica","Добровница"],"lon":22.31212,"lat":42.27711,"pop":0},{"id":791407,"name":"Dobruševo","alt":["Dobrusevo","Dobrushevo","Добрушево"],"lon":21.4825,"lat":41.16861,"pop":2103},{"id":9112550,"name":"Dodaci","alt":["Додаци"],"lon":22.02213,"lat":42.11407,"pop":0},{"id":10306909,"name":"Dodanci","alt":["Доданци"],"lon":21.94015,"lat":42.17941,"pop":0},{"id":860508,"name":"Dodenska Maala","alt":["Доденска Маала"],"lon":21.92333,"lat":42.28279,"pop":0},{"id":8512373,"name":"Dodevci","alt":["Додевци"],"lon":22.55525,"lat":42.08457,"pop":0},{"id":10356762,"name":"Dodevci","alt":["Додевци"],"lon":21.98408,"lat":42.04048,"pop":0},{"id":862004,"name":"Dojčinovci","alt":["Dojchinovci","Dojcinovci","Dojcinovci Mahala","Dojčinovci Mahala","Дојчиновци"],"lon":22.31444,"lat":42.29139,"pop":0},{"id":8512327,"name":"Dokolenkovci","alt":["Доколенковци"],"lon":22.52631,"lat":42.05709,"pop":0},{"id":791386,"name":"Dolani","alt":["Doljani","Долани"],"lon":22.20101,"lat":41.69344,"pop":0},{"id":791384,"name":"Dolenci","alt":["Доленци"],"lon":21.09795,"lat":41.31537,"pop":242},{"id":791385,"name":"Dolenci","alt":["Доленци"],"lon":21.155,"lat":41.08389,"pop":466},{"id":791383,"name":"Dolgaec","alt":["Dolgavec","Долгаец"],"lon":21.37556,"lat":41.53528,"pop":195},{"id":791382,"name":"Dolgaš","alt":["Dallgash","Dolgas","Dolgash","Долгаш"],"lon":20.58681,"lat":41.42315,"pop":0},{"id":861966,"name":"Dolinarci","alt":["Долинарци"],"lon":22.26422,"lat":42.32068,"pop":0},{"id":791371,"name":"Dolna Banjica","alt":["Dolna Banica","Долна Бањица"],"lon":20.90611,"lat":41.78611,"pop":10147},{"id":791370,"name":"Dolna Bela Crkva","alt":["Долна Бела Црква"],"lon":21.03083,"lat":41.0375,"pop":400},{"id":791369,"name":"Dolna Belica","alt":["Долна Белица"],"lon":20.635,"lat":41.21333,"pop":0},{"id":863631,"name":"Dolna Belica","alt":["Долна Белица"],"lon":21.27827,"lat":41.68139,"pop":0},{"id":791368,"name":"Dolna Bošava","alt":["Dolna Bosava","Dolna Boshava","Donja Bosava","Donja Bošava","Долна Бошава"],"lon":22.10622,"lat":41.29569,"pop":0},{"id":791355,"name":"Dolna Čarlija","alt":["Dolna Carlija","Dolna Charlija","Dolno Carlija","Dolno Čarlija","Долна Чарлија"],"lon":21.43847,"lat":41.14132,"pop":507},{"id":790875,"name":"Dolna Dušegubica","alt":["Dolna Dusegubica","Dolna Dushegubica","Donja Dusogubica","Donja Dušogubica","Dusegubica","Dusogubica","Dušegubica","Dušogubica","Долна Душегубица"],"lon":20.8139,"lat":41.49101,"pop":0},{"id":791367,"name":"Dolna Ǵonovica","alt":["Dolna Djonovica","Dolna Donovica","Dolna GJonovica","Dolna Gjonovica","Dolna Gonovica","Dolna Đonovica","Долна Ѓоновица"],"lon":20.90251,"lat":41.71713,"pop":0},{"id":791366,"name":"Dolna Lešnica","alt":["Dolna Leshnica","Dolna Lesnica","Долна Лешница"],"lon":21.06028,"lat":41.95667,"pop":546},{"id":833625,"name":"Dolna Maala","alt":["Долна Маала"],"lon":21.03026,"lat":42.05869,"pop":0},{"id":860453,"name":"Dolna Maala","alt":["Долна Маала"],"lon":21.90033,"lat":42.25601,"pop":0},{"id":862015,"name":"Dolna Maala","alt":["Долна Маала"],"lon":22.35972,"lat":42.285,"pop":0},{"id":863604,"name":"Dolna Maala","alt":["Долна Маала"],"lon":21.03778,"lat":41.50139,"pop":0},{"id":863613,"name":"Dolna Maala","alt":["Долна Маала"],"lon":21.08538,"lat":41.53534,"pop":0},{"id":863620,"name":"Dolna Maala","alt":["Долна Маала"],"lon":21.03901,"lat":41.61334,"pop":0},{"id":9114178,"name":"Dolna Maala","alt":["Долна Маала"],"lon":22.26064,"lat":42.21801,"pop":0},{"id":9632619,"name":"Dolna Maala","alt":["Donja Mahala","Долна Маала"],"lon":20.59355,"lat":41.67161,"pop":0},{"id":10356810,"name":"Dolna Maala","alt":["Dona Maala","Donja Maala","Долна Маала","Доња Маала"],"lon":21.96242,"lat":42.08228,"pop":0},{"id":838549,"name":"Dolna Mala","alt":["Dolna Maala","Долна Мала"],"lon":21.45749,"lat":41.47165,"pop":0},{"id":10306621,"name":"Dolna Mala","alt":["Долна Мала"],"lon":21.83992,"lat":42.22449,"pop":0},{"id":863669,"name":"Dolna Matka","alt":["Долна Матка"],"lon":21.30372,"lat":41.96616,"pop":0},{"id":791364,"name":"Dolna Vraštica","alt":["Dolna Vrashtica","Dolna Vrasnica","Dolna Vrastica","Dolna Vrašnica","Долна Враштица"],"lon":22.34028,"lat":41.58806,"pop":0},{"id":791363,"name":"Dolneni","alt":["Dolnjane","Dolnjani","Долнени"],"lon":21.45402,"lat":41.42579,"pop":11534},{"id":791362,"name":"Dolni Balvan","alt":["Долни Балван"],"lon":22.20172,"lat":41.80589,"pop":0},{"id":863671,"name":"Dolni Čelopek","alt":["Dolni Celopek","Dolni Chelopek","Долни Челопек"],"lon":21.00783,"lat":41.93912,"pop":0},{"id":862626,"name":"Dolni Čiflik","alt":["Dolni Chiflik","Dolni Ciflik","Долни Чифлик"],"lon":22.24139,"lat":41.40222,"pop":0},{"id":863689,"name":"Dolni Dejkovec","alt":["Dolno Dejkovec","Dolno Dekovec","Долни Дејковец"],"lon":21.59698,"lat":41.80943,"pop":0},{"id":791361,"name":"Dolni Disan","alt":["Долни Дисан"],"lon":22.09556,"lat":41.42833,"pop":0},{"id":833704,"name":"Dolni Dlapkin Dol","alt":["Dolni Dlapin Dol","Долни Длапкин Дол"],"lon":20.95528,"lat":41.56833,"pop":0},{"id":791351,"name":"Dolni Dobrenoec","alt":["Dobrenovac","Dolno Dobrenoec","Долни Добреноец"],"lon":20.89747,"lat":41.49893,"pop":70},{"id":8541294,"name":"Dolni Kosel","alt":["Долни Косел"],"lon":20.83127,"lat":41.16158,"pop":0},{"id":791338,"name":"Dolni Lipoviḱ","alt":["Dolni Lipovik","Dolni Lipovnik","Dolno Lipovik","Долни Липовиќ"],"lon":22.45694,"lat":41.50417,"pop":0},{"id":791360,"name":"Dolni Manastirec","alt":["Долни Манастирец"],"lon":21.21056,"lat":41.62694,"pop":243},{"id":863592,"name":"Dolni Oreovec","alt":["Dolno Oreovec","Долни Ореовец"],"lon":21.1317,"lat":41.49154,"pop":0},{"id":833291,"name":"Dolni Prošovec","alt":["Dolni Proshovec","Dolni Prosovec","Долни Прошовец"],"lon":20.83994,"lat":41.85119,"pop":0},{"id":791359,"name":"Dolni Radeš","alt":["Dolni Rades","Dolni Radesh","Долни Радеш"],"lon":22.35417,"lat":41.5625,"pop":0},{"id":791358,"name":"Dolni Stubol","alt":["Donji Stubol","Долни Стубол"],"lon":22.12056,"lat":41.99917,"pop":0},{"id":833343,"name":"Dolni Stubol","lon":22.11833,"lat":42.00111,"pop":0},{"id":791357,"name":"Dolno Aglarci","alt":["Долно Агларци"],"lon":21.47028,"lat":41.0925,"pop":368},{"id":791356,"name":"Dolno Barbarevo","alt":["Barbarevo","Долно Барбарево"],"lon":22.06366,"lat":41.98136,"pop":0},{"id":829567,"name":"Dolno Blace","alt":["Bllace e Poshteme","Bllacë e Poshtëme","Donje Blace","Долно Блаце"],"lon":21.32139,"lat":42.1325,"pop":0},{"id":796006,"name":"Dolno Botuše","alt":["Dolno Botuse","Dolno Botushe","Dolno Botushje","Dolno Botusje","Dolno Botušje","Долно Ботуше","Долно Ботушје"],"lon":21.09713,"lat":41.72411,"pop":164},{"id":791354,"name":"Dolno Čičevo","alt":["Dolno Chichevo","Dolno Cicevo","Donje Cicevo","Donje Čičevo","Долно Чичево"],"lon":21.87621,"lat":41.54778,"pop":243},{"id":791353,"name":"Dolno Crnilište","alt":["Dolno Crnilishte","Dolno Crniliste","Malo Crniliste","Malo Crnilište","Долно Црнилиште"],"lon":21.96482,"lat":41.81688,"pop":116},{"id":791352,"name":"Dolno Divjaci","alt":["Долно Дивјаци"],"lon":21.18565,"lat":41.39035,"pop":118},{"id":863690,"name":"Dolno Dobrino","alt":["Долно Добрино"],"lon":21.60724,"lat":41.79874,"pop":0},{"id":791348,"name":"Dolno Dupeni","lon":20.98333,"lat":41.06667,"pop":0},{"id":791349,"name":"Dolno Dupeni","alt":["Dupeni","Долно Дупени"],"lon":21.11972,"lat":40.87556,"pop":563},{"id":791347,"name":"Dolno Egri","alt":["Долно Егри"],"lon":21.48688,"lat":40.96578,"pop":0},{"id":9269402,"name":"Dolno Gradče","alt":["Dolno Gradce","Dolno Gradche","Долно Градче"],"lon":22.40818,"lat":41.96309,"pop":0},{"id":791350,"name":"Dolno Ǵuǵance","alt":["Dolno Dudance","Dolno Dudanci","Dolno Dugance","Dolno Dzugance","Dolno GJugance","Dolno Gjugjance","Dolno Gugance","Dolno Ðuđance","Dolno Ðuđanci","Dolno Đugance","Долно Ѓуѓанце"],"lon":21.95778,"lat":41.96833,"pop":377},{"id":10356854,"name":"Dolno Jačince","alt":["Dolno Jachince","Dolno Jacince","Долно Јачинце"],"lon":21.88305,"lat":42.11455,"pop":0},{"id":791345,"name":"Dolno Jelovce","alt":["Долно Јеловце"],"lon":20.83688,"lat":41.8017,"pop":0},{"id":791344,"name":"Dolno Karaslari","alt":["Долно Караслари"],"lon":21.83794,"lat":41.68925,"pop":404},{"id":791343,"name":"Dolno Količani","alt":["Dolno Kolicane","Dolno Kolicani","Dolno Kolichani","Dolno Količane","Donje Kolicane","Donje Količane","Долно Количани"],"lon":21.48556,"lat":41.88639,"pop":1276},{"id":10306316,"name":"Dolno Konjare","alt":["Dolno Konare","Долно Коњаре"],"lon":21.71175,"lat":42.16419,"pop":0},{"id":791342,"name":"Dolno Konjari","alt":["Dolno Konari","Долно Коњари"],"lon":21.70917,"lat":41.94288,"pop":656},{"id":791341,"name":"Dolno Kosovrasti","alt":["Kosovrashti i Poshtem","Kosovrashti i Poshtëm","Долно Косоврасти"],"lon":20.58351,"lat":41.53851,"pop":0},{"id":791340,"name":"Dolno Krušje","alt":["Doljna Krusija","Doljna Krušija","Dolno Krushje","Dolno Krusje","Donje Krusje","Donje Krušje","Krusje","Долно Крушје"],"lon":21.14542,"lat":41.59448,"pop":69},{"id":796112,"name":"Dolno Krušje","alt":["Dolno Krushje","Dolno Krusje","Долно Крушје"],"lon":20.98222,"lat":41.15806,"pop":0},{"id":791339,"name":"Dolno Lakočerej","alt":["Dolno Lakocerej","Dolno Lakoceri","Dolno Lakoceroj","Dolno Lakocherej","Dolno Lakočeri","Dolno Lakočeroj","Долно Лакочереј"],"lon":20.79556,"lat":41.15889,"pop":0},{"id":791337,"name":"Dolno Lisiče","alt":["Dolno Lisice","Dolno Lisiche","Donje Lisicje","Donje Lisičje","Долно Лисиче"],"lon":21.5344,"lat":41.95617,"pop":0},{"id":863637,"name":"Dolno Lupšte","alt":["Dolno Lupshte","Dolno Lupste","Долно Лупште"],"lon":21.15405,"lat":41.67722,"pop":0},{"id":863633,"name":"Dolno Maalo Taževo","alt":["Dolno Malo Tazevo","Dolno Malo Taževo"],"lon":21.24972,"lat":41.71806,"pop":0},{"id":791336,"name":"Dolno Melničani","alt":["Dolno Melinicani","Dolno Meliničani","Dolno Melnicani","Dolno Melnichani","Mjelnjicanje e Poshteme","Mjelnjicanje e Poshtëme","Долно Мелничани"],"lon":20.57262,"lat":41.51671,"pop":0},{"id":833724,"name":"Dolno Orašje","alt":["Dolno Orashje","Dolno Orasje","Долно Орашје"],"lon":21.16028,"lat":42.10137,"pop":0},{"id":787432,"name":"Dolno Orehovo","alt":["Dolno Orekhovo","Orehovo","Oreovo","Долно Орехово"],"lon":21.56194,"lat":41.06444,"pop":286},{"id":791333,"name":"Dolno Orizari","alt":["Donji Orizari","Orizare","Veliki Celtiki","Veliki Čeltiki","Долно Оризари"],"lon":21.74889,"lat":41.67417,"pop":5},{"id":791334,"name":"Dolno Orizari","alt":["Долно Оризари"],"lon":21.37944,"lat":41.05028,"pop":1236},{"id":791332,"name":"Dolno Palčište","alt":["Dolno Palchishte","Dolno Palciste","Pallcishte","Pallçishte","Долно Палчиште"],"lon":20.92899,"lat":41.96859,"pop":2414},{"id":796113,"name":"Dolno Perovo","alt":["Долно Перово"],"lon":20.98944,"lat":41.01417,"pop":0},{"id":791331,"name":"Dolno Sedlarce","alt":["Долно Седларце"],"lon":20.96944,"lat":41.96806,"pop":0},{"id":791330,"name":"Dolno Sonje","alt":["Dolno Solnje","Dolno Sone","Долно Соње"],"lon":21.37861,"lat":41.94077,"pop":617},{"id":791329,"name":"Dolno Sredorečje","alt":["Dolne Sredorece","Dolne Sredoreče","Dolno Sredorece","Dolno Sredorechje","Dolno Sredorecje","Dolno Sredoreče","Долно Средоречје"],"lon":20.84388,"lat":41.29468,"pop":0},{"id":785604,"name":"Dolno Srpci","alt":["Srpci","Долно Српци"],"lon":21.36464,"lat":41.1748,"pop":1433},{"id":785430,"name":"Dolno Štrbovo","alt":["Dolno Shtrbovo","Dolno Strbovo","Strbovo","Strhovo","Štrbovo","Долно Штрбово"],"lon":21.10255,"lat":40.92471,"pop":0},{"id":791328,"name":"Dolno Strogomište","alt":["Dolna Strogomista","Dolna Strogomišta","Dolno Stragoliste","Dolno Stragolište","Dolno Stragomiste","Dolno Stragomište","Dolno Strogomishta","Dolno Strogomishte","Dolno Strogomista","Dolno Strogomiste","Dolno Strogomišta","Долно Строгомишта","Долно Строгомиште"],"lon":20.97306,"lat":41.59278,"pop":0},{"id":863612,"name":"Dolno Sveto Rače","lon":21.07028,"lat":41.5275,"pop":0},{"id":791327,"name":"Dolno Svilare","alt":["Долно Свиларе"],"lon":21.28603,"lat":42.0275,"pop":0},{"id":791326,"name":"Dolno Tateši","alt":["Dolno Tateshi","Dolno Tatesi","Долно Татеши"],"lon":20.68917,"lat":41.25861,"pop":0},{"id":863601,"name":"Dolno Trlo","lon":21.78083,"lat":41.47194,"pop":0},{"id":791325,"name":"Dolno Trogerci","alt":["Долно Трогерци"],"lon":22.17276,"lat":41.83866,"pop":0},{"id":791324,"name":"Dolno Vranovci","alt":["Долно Врановци"],"lon":21.70496,"lat":41.58886,"pop":208},{"id":863589,"name":"Dolno Žitoše","alt":["Dolno Zhitoshe","Dolno Zitose","Долно Житоше"],"lon":21.30007,"lat":41.41456,"pop":0},{"id":863636,"name":"Dolno Zrkle","alt":["Долно Зркле"],"lon":21.16142,"lat":41.6679,"pop":0},{"id":9275294,"name":"Domazetska Maala","alt":["Домазетска Маала"],"lon":22.59701,"lat":41.9086,"pop":0},{"id":10306538,"name":"Domuzinci","alt":["Домузинци"],"lon":21.79989,"lat":42.18008,"pop":0},{"id":791142,"name":"Dorfulija","alt":["Durfuli","Durfulija","Durfulli","Torfali","Дорфулија"],"lon":21.8928,"lat":41.76548,"pop":860},{"id":10306547,"name":"Dorgovci","alt":["Дорговци"],"lon":21.82997,"lat":42.1612,"pop":0},{"id":10410152,"name":"Dorinci","alt":["Доринци"],"lon":22.24292,"lat":42.22744,"pop":0},{"id":791141,"name":"Dorlombos","alt":["Dorlobos","Dorlomboz","Dorlu Obasi","Dorol Obasi","Dorol Obosi","Дорломбос"],"lon":22.66927,"lat":41.33924,"pop":0},{"id":10306894,"name":"Došljaci","alt":["Doshlaci","Dosljaci","Дошљаци"],"lon":21.94029,"lat":42.14952,"pop":0},{"id":791137,"name":"Dovezence","alt":["Dovezance","Довезанце","Довезенце"],"lon":21.9075,"lat":42.10194,"pop":0},{"id":835481,"name":"Drač","alt":["Drac","Drach","Драч"],"lon":22.22222,"lat":41.96444,"pop":0},{"id":791132,"name":"Dračevica","alt":["Dracevica","Drachevica","Драчевица"],"lon":21.44213,"lat":41.88217,"pop":584},{"id":791133,"name":"Dračevica","alt":["Dracevica","Drachevica","Gorna Dracevica","Gorna Dračevica","Gornja Drcevica","Gornja Drčevica","Драчевица"],"lon":22.19611,"lat":41.34972,"pop":0},{"id":791131,"name":"Dračevo","alt":["Draceve","Dracevo","Drachevo","Draçevë","Naselba Dracevo","Naselba Dračevo","Selo Dracevo","Selo Dračevo","Драчево"],"lon":21.52167,"lat":41.93667,"pop":10605},{"id":791129,"name":"Dradnja","alt":["Dradna","Драдња"],"lon":21.90692,"lat":41.39559,"pop":8},{"id":791123,"name":"Dragarino","alt":["Dragarine","Драгарино"],"lon":21.30898,"lat":41.09786,"pop":148},{"id":791115,"name":"Dragobrašte","alt":["Dragobrashta","Dragobrashte","Dragobrasta","Dragobraste","Dragobrasti","Dragobrašta","Dragobrašti","Драгобрашта","Драгобраште"],"lon":22.59944,"lat":41.89722,"pop":0},{"id":791111,"name":"Dragoevo","alt":["Dragovo","Drava","Drogoevo","Драгоево"],"lon":22.13306,"lat":41.67333,"pop":0},{"id":791106,"name":"Dragomance","alt":["Dragomanc","Dragomanci","Драгоманце"],"lon":21.86822,"lat":42.2199,"pop":0},{"id":791104,"name":"Dragoš","alt":["Dragos","Dragosh","Δράγος","Драгош"],"lon":21.35091,"lat":40.88191,"pop":0},{"id":791097,"name":"Dragov Dol","alt":["Dragodol","Драгов Дол"],"lon":21.21748,"lat":41.60237,"pop":46},{"id":791094,"name":"Dragožani","alt":["Dragozani","Dragozhani","Драгожани"],"lon":21.29278,"lat":41.11083,"pop":475},{"id":791093,"name":"Dragožel","alt":["Dragozel","Dragozhel","Драгожел"],"lon":22.01677,"lat":41.3229,"pop":0},{"id":10356784,"name":"Drakarci","alt":["Дракарци"],"lon":21.98444,"lat":42.1221,"pop":0},{"id":791085,"name":"Dramče","alt":["Dramca","Dramce","Dramche","Dramča","Драмче"],"lon":22.68939,"lat":42.01572,"pop":0},{"id":791081,"name":"Draslajca","alt":["Draslavica","Драслајца"],"lon":20.69306,"lat":41.21556,"pop":0},{"id":833292,"name":"Dravska Maala","alt":["Dravska Mahala","Dravska Mala","Дравска Маала"],"lon":21.53336,"lat":42.16076,"pop":0},{"id":791076,"name":"Draževo","alt":["Drazevo","Drazhevo","Дражево"],"lon":22.92063,"lat":41.37356,"pop":629},{"id":791063,"name":"Dren","alt":["Дрен"],"lon":22.24661,"lat":41.36623,"pop":0},{"id":791064,"name":"Dren","alt":["Дрен"],"lon":21.77964,"lat":41.3295,"pop":16},{"id":791057,"name":"Drenak","alt":["Дренак"],"lon":22.3525,"lat":42.1325,"pop":0},{"id":10306926,"name":"Drenčani","alt":["Drencani","Drenchani","Дренчани"],"lon":21.91027,"lat":42.18022,"pop":0},{"id":834614,"name":"Drenje","alt":["Drene","Дрење"],"lon":22.34208,"lat":42.22725,"pop":0},{"id":791048,"name":"Drenok","alt":["Drenak","Дренок"],"lon":22.03083,"lat":42.20111,"pop":0},{"id":791049,"name":"Drenok","alt":["Drenak","Дренок"],"lon":22.15041,"lat":41.96616,"pop":0},{"id":791050,"name":"Drenok","alt":["Drenak","Дренок"],"lon":20.56056,"lat":41.39139,"pop":0},{"id":791032,"name":"Drenovci","alt":["Drenoec","Drenovec","Дреновци"],"lon":21.544,"lat":41.46915,"pop":376},{"id":791027,"name":"Drenovo","alt":["Дреново"],"lon":21.57139,"lat":41.72861,"pop":117},{"id":791028,"name":"Drenovo","alt":["Дреново"],"lon":21.23629,"lat":41.46641,"pop":59},{"id":791029,"name":"Drenovo","alt":["Дреново"],"lon":21.89,"lat":41.41944,"pop":888},{"id":791022,"name":"Drevenik","alt":["Drvenik","Древеник"],"lon":21.29614,"lat":41.20001,"pop":116},{"id":791021,"name":"Dreveno","alt":["Древено"],"lon":22.21104,"lat":42.00809,"pop":0},{"id":863661,"name":"Drežnica","alt":["Drezhnica","Dreznica","Дрежница"],"lon":21.46764,"lat":41.91393,"pop":0},{"id":8549221,"name":"Drma","alt":["Дрма"],"lon":21.5862,"lat":41.95433,"pop":0},{"id":791018,"name":"Drmeni","alt":["Дрмени"],"lon":20.99862,"lat":41.03276,"pop":0},{"id":863654,"name":"Drmos","alt":["Дрмос"],"lon":21.47583,"lat":41.81417,"pop":0},{"id":10306553,"name":"Drtkovci","alt":["Дртковци"],"lon":21.84818,"lat":42.14406,"pop":0},{"id":791009,"name":"Drugovo","alt":["Другово"],"lon":20.92636,"lat":41.4849,"pop":3149},{"id":834576,"name":"Drvendžiska Maala","alt":["Drvendziska Maala","Дрвенџиска Маала"],"lon":22.22198,"lat":42.18499,"pop":0},{"id":859260,"name":"Drviška Maala","alt":["Drvishka Maala","Drviska Maala","Drviska Mahala","Drviška Mahala","Дрвишка Маала"],"lon":21.56605,"lat":42.23959,"pop":0},{"id":791002,"name":"Drvoš","alt":["Drvos","Drvosh","Дрвош"],"lon":22.77306,"lat":41.49824,"pop":0},{"id":791001,"name":"Držani","alt":["Drzanci","Drzani","Drzhani","Držanci","Држани"],"lon":22.51333,"lat":41.67472,"pop":0},{"id":790998,"name":"Držilovo","alt":["Drzhilovo","Drzilovo","Држилово"],"lon":21.34765,"lat":41.85003,"pop":330},{"id":10409395,"name":"Dubin Grob","alt":["Дубин Гроб"],"lon":22.0829,"lat":42.21157,"pop":0},{"id":790964,"name":"Dubrovo","alt":["Dobrovo"],"lon":22.145,"lat":41.47056,"pop":106},{"id":790956,"name":"Duf","alt":["Дуф"],"lon":20.7729,"lat":41.75826,"pop":0},{"id":790936,"name":"Dukatino","alt":["Дукатино"],"lon":22.54542,"lat":41.54462,"pop":0},{"id":790927,"name":"Dulica","alt":["Дулица"],"lon":22.56611,"lat":41.98306,"pop":0},{"id":790925,"name":"Dumanovce","alt":["Dumanovci","Думановце"],"lon":21.54278,"lat":42.21222,"pop":0},{"id":790919,"name":"Dunje","alt":["Dulje","Dune","Дуње"],"lon":21.69297,"lat":41.25769,"pop":333},{"id":9276337,"name":"Duovska Maala","alt":["Дуовска Маала"],"lon":22.737,"lat":41.98037,"pop":0},{"id":790913,"name":"Dupjačani","alt":["Dupjacani","Dupjachani","Дупјачани"],"lon":21.52194,"lat":41.44083,"pop":179},{"id":790912,"name":"Dupjani","alt":["Dupljani","Дупјани"],"lon":21.0725,"lat":41.54167,"pop":45},{"id":790906,"name":"Duračka Reka","alt":["Durachka Reka","Duracka Reka","Дурачка Река"],"lon":22.35603,"lat":42.17883,"pop":0},{"id":862073,"name":"Durčica Maala","alt":["Durchica Maala","Durcica Maala","Дурчица Маала"],"lon":22.3789,"lat":42.25909,"pop":0},{"id":859255,"name":"Durska Maala","alt":["Durska Mahala","Дурска Маала"],"lon":21.51556,"lat":42.21667,"pop":0},{"id":790885,"name":"Durutli","alt":["Dorutli","Дурутли"],"lon":22.67809,"lat":41.29365,"pop":0},{"id":790884,"name":"Durutlija","alt":["Durutli","Дурутлија"],"lon":22.55669,"lat":41.66396,"pop":0},{"id":833677,"name":"Duškovci","alt":["Dushkovci","Duskovci","Душковци"],"lon":20.93333,"lat":41.57373,"pop":0},{"id":9000220,"name":"Duvanci","alt":["Дуванци"],"lon":22.09537,"lat":41.63166,"pop":0},{"id":8548503,"name":"Duzlari","alt":["Дузлари"],"lon":22.21597,"lat":41.74944,"pop":0},{"id":10306551,"name":"Dvizci","alt":["Двизци"],"lon":21.84038,"lat":42.15517,"pop":0},{"id":790867,"name":"Dvorce","alt":["Dvorci","Дворце"],"lon":21.16511,"lat":42.09903,"pop":0},{"id":790866,"name":"Dvorci","alt":["Дворци"],"lon":21.09278,"lat":41.46472,"pop":66},{"id":790864,"name":"Dvorište","alt":["Dvorishte","Dvoriste","Двориште"],"lon":21.83611,"lat":41.57833,"pop":2},{"id":862875,"name":"Dvorište","alt":["Dvorishte","Dvoriste","Trencino Koibe","Trenčino Koibe","Двориште"],"lon":22.9157,"lat":41.59049,"pop":0},{"id":835297,"name":"Džadovci","alt":["Dzadovci","Џадовци"],"lon":22.79015,"lat":41.8614,"pop":0},{"id":862000,"name":"Džadurci","alt":["Dzadurci","Џадурци"],"lon":22.28583,"lat":42.26889,"pop":0},{"id":10306919,"name":"Džambasci","alt":["Dzambasci","Џамбасци"],"lon":21.92572,"lat":42.18926,"pop":0},{"id":9114209,"name":"Džangovci","alt":["Dzangovci","Џанговци"],"lon":22.31245,"lat":42.24368,"pop":0},{"id":10356868,"name":"Džankova Maala","alt":["Dzankova Maala","Џанкова Маала"],"lon":21.90337,"lat":42.09568,"pop":0},{"id":10409418,"name":"Dželepska Maala","alt":["Dzelepska Maala","Џелепска Маала"],"lon":22.09999,"lat":42.19584,"pop":0},{"id":10306665,"name":"Džembasci","alt":["Dzembasci","Џембасци"],"lon":21.96698,"lat":42.2078,"pop":0},{"id":790857,"name":"Džepčište","alt":["Dzepchishte","Dzepciste","Dzepiste","Džepište","Џепчиште"],"lon":20.99817,"lat":42.03287,"pop":8166},{"id":790856,"name":"Džepin","alt":["Dzebin","Dzepin","Džebin","Џепин"],"lon":20.73806,"lat":41.24778,"pop":0},{"id":790855,"name":"Džepište","alt":["Dzepishte","Dzepista","Dzepiste","Džepišta","Xhepishta","Џепиште"],"lon":20.5334,"lat":41.44318,"pop":0},{"id":790852,"name":"Džidimirci","alt":["Dzidimirce","Dzidimirci","Džidimirce","Џидимирци"],"lon":21.79146,"lat":41.89547,"pop":43},{"id":790853,"name":"Džidimirci","alt":["Dzidimirci","Џидимирци"],"lon":22.05694,"lat":41.55056,"pop":0},{"id":9114200,"name":"Džijanovci","alt":["Dzijanovci","Џијановци"],"lon":22.36791,"lat":42.24746,"pop":0},{"id":10413279,"name":"Džikovska Maala","alt":["Dzikovska Maala","Џиковска Маала"],"lon":22.40711,"lat":42.21625,"pop":0},{"id":790849,"name":"Džumabos","alt":["Dzuma Obasi","Dzuma Ovasi","Dzumabos","Dzumaja-Obasi","Džuma Obasi","Džuma Ovasi","Džumaja-Obasi","Juma Obasi","Џумабос"],"lon":22.68169,"lat":41.29518,"pop":0},{"id":783767,"name":"Dzvegor","alt":["Zvegor","Ѕвегор"],"lon":22.80495,"lat":41.96733,"pop":0},{"id":9269858,"name":"Ebeplija","alt":["Ебеплија"],"lon":22.36965,"lat":41.75998,"pop":0},{"id":9006844,"name":"Edeklerci","alt":["Едеклерци"],"lon":22.05793,"lat":41.69489,"pop":0},{"id":790846,"name":"Edinakovci","alt":["Edinakovce","Edinakovo","Единаковци"],"lon":21.24873,"lat":41.26031,"pop":552},{"id":790845,"name":"Ednokuḱevo","alt":["Ednokucevo","Ednokukevo","Ednokućevo","Jednokucevo","Jednokućevo","Еднокуќево"],"lon":22.73306,"lat":41.43222,"pop":0},{"id":790844,"name":"Edrenikovo","alt":["Edrinkovo","Едрениково"],"lon":22.5875,"lat":41.50556,"pop":0},{"id":790843,"name":"Ehlovec","alt":["Ehloec","Ehlovac","Ekhlovec","Evloec","Jehlovac","Ехловец"],"lon":20.76583,"lat":41.45972,"pop":0},{"id":6618901,"name":"El&#353ani","alt":["Elsani","Elshani","Elšani","Елшани"],"lon":20.81592,"lat":41.02699,"pop":0},{"id":12176034,"name":"Eleshec","alt":["Elesec","Elešec","Елешец"],"lon":20.80797,"lat":41.03312,"pop":0},{"id":790841,"name":"Elevci","alt":["Елевци"],"lon":20.62343,"lat":41.42019,"pop":0},{"id":790837,"name":"Elovec","alt":["Jelovci","Еловец"],"lon":21.65518,"lat":41.64671,"pop":164},{"id":790836,"name":"Elovo","alt":["Елово"],"lon":21.37129,"lat":41.84047,"pop":173},{"id":790835,"name":"Emirica","alt":["Емирица"],"lon":22.35031,"lat":42.08547,"pop":0},{"id":863608,"name":"Emrulovci","alt":["Емруловци"],"lon":20.99971,"lat":41.53859,"pop":0},{"id":833856,"name":"Erčevis","alt":["Ercevis","Erchevis","Ерчевис"],"lon":20.77851,"lat":41.74828,"pop":0},{"id":790832,"name":"Erdželija","alt":["Erdzela","Erdzeli","Erdzelija","Erdzelijo","Erdžela","Erdželi","Ерџелија"],"lon":22.03402,"lat":41.83418,"pop":0},{"id":790830,"name":"Erekovci","alt":["Ерековци"],"lon":21.48277,"lat":41.21345,"pop":684},{"id":790827,"name":"Evla","alt":["Евла"],"lon":20.95611,"lat":41.075,"pop":0},{"id":864712,"name":"Evla","alt":["Евла"],"lon":20.60907,"lat":41.42589,"pop":0},{"id":790826,"name":"Ezerani","alt":["Ezereni","Jezerane","Езерани"],"lon":21.02198,"lat":41.02819,"pop":0},{"id":8549262,"name":"Ezerište","alt":["Ezerishte","Ezeriste","Езериште"],"lon":21.60048,"lat":41.9615,"pop":0},{"id":796094,"name":"Fališe","alt":["Falis","Falise","Falishe","Fališ","Фалише"],"lon":21.00647,"lat":41.98103,"pop":510},{"id":790824,"name":"Fariš","alt":["Faris","Farish","Varit","Фариш"],"lon":21.80083,"lat":41.45343,"pop":134},{"id":833454,"name":"Fera Maala","alt":["Fera Mala","Фера Маала"],"lon":21.33884,"lat":42.14725,"pop":0},{"id":790818,"name":"Filipovci","alt":["Филиповци"],"lon":22.09089,"lat":42.05684,"pop":0},{"id":10418984,"name":"Filiska Maala","alt":["Филиска Маала"],"lon":22.65688,"lat":42.00276,"pop":0},{"id":8427041,"name":"Fjorište","alt":["Fjorishte","Fjoriste","Фјориште"],"lon":20.62738,"lat":41.15324,"pop":0},{"id":790812,"name":"Forino","alt":["Форино"],"lon":20.96174,"lat":41.82334,"pop":3637},{"id":790811,"name":"Frangovo","alt":["Frngovo","Франгово"],"lon":20.62546,"lat":41.14479,"pop":0},{"id":9636804,"name":"Fučka","alt":["Fuchka","Fucka","Фучка"],"lon":20.63417,"lat":41.68694,"pop":0},{"id":790810,"name":"Furka","alt":["Фурка"],"lon":22.61327,"lat":41.2418,"pop":0},{"id":790808,"name":"Gabalavci","alt":["Gabolavci","Габалавци"],"lon":21.24109,"lat":41.13394,"pop":0},{"id":862088,"name":"Gabar","alt":["Габар"],"lon":22.2625,"lat":42.25389,"pop":0},{"id":790806,"name":"Gabreš","alt":["Gabres","Gabresh","Габреш"],"lon":21.85579,"lat":42.00836,"pop":0},{"id":790805,"name":"Gabrevci","alt":["Gabres","Gabreš","Габревци"],"lon":22.37917,"lat":41.56444,"pop":0},{"id":9274944,"name":"Gabrošica","alt":["Gabroshica","Gabrosica","Габрошица"],"lon":22.5655,"lat":41.92838,"pop":0},{"id":790801,"name":"Gabrovnik","alt":["Габровник"],"lon":21.49556,"lat":41.52639,"pop":8},{"id":790797,"name":"Gabrovo","alt":["Габрово"],"lon":22.79941,"lat":41.98598,"pop":0},{"id":790798,"name":"Gabrovo","alt":["Габрово"],"lon":22.79528,"lat":41.37639,"pop":0},{"id":790799,"name":"Gabrovo","alt":["Gabres","Gabreš","Габрово"],"lon":22.40194,"lat":41.28556,"pop":0},{"id":9112461,"name":"Ǵačka Maala","alt":["Dacka Maala","Gacka Maala","Gjachka Maala","Đačka Maala","Ѓачка Маала"],"lon":22.01324,"lat":42.05012,"pop":0},{"id":790789,"name":"Gajranci","alt":["Garjanci","Gojranci","Гајранци"],"lon":22.17847,"lat":41.89399,"pop":0},{"id":863472,"name":"Gajre","alt":["Гајре"],"lon":20.94359,"lat":42.01212,"pop":0},{"id":10356796,"name":"Ǵakovci","alt":["Gakovci","Gjakovci","Ѓаковци"],"lon":21.97981,"lat":42.07251,"pop":0},{"id":790786,"name":"Galate","alt":["Galata","Галате"],"lon":20.88031,"lat":41.83924,"pop":0},{"id":790783,"name":"Galičani","alt":["Galicani","Galichani","Галичани"],"lon":21.4783,"lat":41.30433,"pop":338},{"id":790780,"name":"Galičnik","alt":["Galichnik","Galicnik","Галичник"],"lon":20.65284,"lat":41.59423,"pop":0},{"id":790779,"name":"Galište","alt":["Galishte","Galiste","Галиште"],"lon":21.86389,"lat":41.32111,"pop":15},{"id":10418938,"name":"Gaovska Maala","alt":["Гаовска Маала"],"lon":22.66563,"lat":42.05454,"pop":0},{"id":790775,"name":"Garani","alt":["Gorani","Гарани"],"lon":21.01974,"lat":41.53706,"pop":44},{"id":834682,"name":"Garavanica","alt":["Garvanica","Гараваница"],"lon":22.29217,"lat":42.28577,"pop":0},{"id":790767,"name":"Gari","alt":["Gaire","Gare","Sajre","Гари"],"lon":20.68309,"lat":41.50136,"pop":0},{"id":838502,"name":"Garnikovo","alt":["Гарниково"],"lon":22.03835,"lat":41.33397,"pop":0},{"id":790761,"name":"Garvan","alt":["Гарван"],"lon":22.28995,"lat":41.55896,"pop":0},{"id":791615,"name":"Ǵavato","alt":["Davato","Davoto","Djavato","Gavato","Gjavato","Ðavoto","Đavato","Ѓавато"],"lon":22.53561,"lat":41.19387,"pop":0},{"id":791616,"name":"Ǵavato","alt":["Davat","Davato","Djavato","Dzavato","Džavato","Gavato","Gjavato","Ðavat","Đavato","Ѓавато"],"lon":21.13654,"lat":41.08224,"pop":523},{"id":9112543,"name":"Ǵavci","alt":["Davci","Gavci","Gjavci","Đavci","Ѓавци"],"lon":22.054,"lat":42.11506,"pop":0},{"id":9274949,"name":"Gazarska Maala","alt":["Газарска Маала"],"lon":22.56349,"lat":41.92446,"pop":0},{"id":10306848,"name":"Gazdevci","alt":["Газдевци"],"lon":21.98015,"lat":42.1332,"pop":0},{"id":9274876,"name":"Gazijanska Maala","alt":["Газијанска Маала"],"lon":22.58476,"lat":41.99221,"pop":0},{"id":790751,"name":"Gečerlija","alt":["Gecerli","Gecerlija","Gecherlija","Gečerli","Гечерлија"],"lon":22.7135,"lat":41.48554,"pop":0},{"id":8512270,"name":"Ǵerginska Maala","alt":["Gerginska Maala","Gjerginska Maala","Ѓергинска Маала"],"lon":22.51283,"lat":42.05884,"pop":0},{"id":790747,"name":"German","alt":["Derman","Ðerman","Герман"],"lon":22.10333,"lat":42.27806,"pop":0},{"id":10410513,"name":"German Maala","alt":["Герман Маала"],"lon":22.19772,"lat":42.18583,"pop":0},{"id":790746,"name":"Germijan","alt":["Гермијан"],"lon":21.53152,"lat":40.91696,"pop":0},{"id":790745,"name":"Ǵermo","alt":["Derma","Dermo","Dermol","Djermo","Germe","Germo","Germol","Germë","Gerno","Gjermo","Ðermo","Ðermol","Ѓермо"],"lon":20.9683,"lat":42.05252,"pop":0},{"id":790744,"name":"Gevgelija","alt":["Devdelijad","Gevegeli","Gevgeli","Gevgelia","Gevgeliya","Gewgelija","Gjevgjelia","Guevgueliya","Gyevgyelija","gai fu gai li ya","gbglyh","gebeugelliya","gevgelia","gevugeriya","gflya","ghyfghlya","Ðevđelijad","Γευγελή","Ђевђелија","Гевгели","Гевгелия","Гевгелија","Гевгелія","Гєѵгєла","Գևգելիա","גבגליה","غيفغليا","گفلیا","გევგელია","ゲヴゲリヤ","蓋夫蓋利亞","게브겔리야"],"lon":22.50141,"lat":41.14166,"pop":20664},{"id":791149,"name":"Gjorče Petro","alt":["Djorce Petrov","Djorče Petrov","Dolce Petrov","Gjorce Petrov","Gjorche Petrov","Gjorçe Petrov","Gorc Petrov","Gorce Petrov","Gorč Petrov","Gorče Petrov","Ѓорче Петров"],"lon":21.35306,"lat":42.00778,"pop":41000},{"id":9114203,"name":"Gladinska Maala","alt":["Гладинска Маала"],"lon":22.34045,"lat":42.23916,"pop":0},{"id":9112575,"name":"Glaševci","alt":["Glasevci","Glashevci","Глашевци"],"lon":22.1115,"lat":42.10915,"pop":0},{"id":862064,"name":"Glavinci Maala","alt":["Главинци Маала"],"lon":22.4069,"lat":42.25218,"pop":0},{"id":834525,"name":"Glavovica","alt":["Главовица"],"lon":22.49731,"lat":42.03743,"pop":0},{"id":833297,"name":"Glažnja","alt":["Glazhna","Glaznja","Presnica","Presnica Mahala","Глажња"],"lon":21.54438,"lat":42.18382,"pop":0},{"id":860507,"name":"Glečenska Maala","alt":["Glecenska Maala","Glechenska Maala","Глеченска Маала"],"lon":21.93026,"lat":42.28928,"pop":0},{"id":862001,"name":"Glinčarci","alt":["Glincarci","Glincharci","Глинчарци"],"lon":22.30141,"lat":42.26659,"pop":0},{"id":790715,"name":"Glišiḱ","alt":["Glishik","Glisic","Glisik","Glišić","Глишиќ"],"lon":22.0251,"lat":41.4529,"pop":0},{"id":790712,"name":"Globočica","alt":["Globochica","Globocica","Глобочица"],"lon":20.64278,"lat":41.31694,"pop":0},{"id":790703,"name":"Gloǵi","alt":["Glode","Glodi","Glodji","Glog","Glogi","Glogji","Glođe","Glođi","Глоѓи"],"lon":21.0618,"lat":42.08823,"pop":0},{"id":790680,"name":"Glumovo","alt":["Глумово"],"lon":21.30495,"lat":41.98012,"pop":0},{"id":833504,"name":"Gluvo","alt":["Глуво"],"lon":21.39806,"lat":42.08611,"pop":494},{"id":790678,"name":"Gneotino","alt":["Gneotin","Gneotina","Гнеотино"],"lon":21.48481,"lat":40.98427,"pop":0},{"id":790677,"name":"Gnileš","alt":["Gniles","Gnilesh","Gnilez","Gnilež","Gnjiles","Gnjileš","Гнилеш"],"lon":21.58583,"lat":41.01278,"pop":23},{"id":9115309,"name":"Gnoište","alt":["Gnoishte","Gnoiste","Гноиште"],"lon":22.29963,"lat":42.03002,"pop":0},{"id":790662,"name":"Godivje","alt":["Godivije","Годивје"],"lon":20.79056,"lat":41.40167,"pop":0},{"id":790663,"name":"Godivle","alt":["Godivje","Годивле","Годивје"],"lon":21.3175,"lat":41.36861,"pop":297},{"id":835487,"name":"Golem Gaber","alt":["Голем Габер"],"lon":22.30427,"lat":41.75089,"pop":0},{"id":790605,"name":"Golem Papradnik","alt":["Golem Papradink","Golem Papranik","Mal-Papradnik","Papranik","Veliki-Papranik","Голем Папрадник"],"lon":20.54444,"lat":41.47667,"pop":0},{"id":790604,"name":"Golem Radobil","alt":["Golemi Radobil","Golemi Radobili","Golemi Radobilj","Veliki Radobilj","Голем Радобил"],"lon":21.80569,"lat":41.37864,"pop":196},{"id":834685,"name":"Golema Crcorija","alt":["Velika Crcorija","Голема Црцорија"],"lon":22.32664,"lat":42.31152,"pop":0},{"id":790634,"name":"Golema Rečica","alt":["Golema Rechica","Golema Recica","Recica","Recice e Eperme","Reçicë e Epërme","Rečica","Velika Recica","Velika Rečica","Голема Речица"],"lon":20.94517,"lat":41.98803,"pop":3050},{"id":9269372,"name":"Golemčeška Maala","alt":["Golemceska Maala","Golemcheshka Maala","Големчешка Маала"],"lon":22.49103,"lat":41.96381,"pop":0},{"id":863603,"name":"Golemi Bigor Dolenci","lon":21.0075,"lat":41.50306,"pop":0},{"id":834703,"name":"Golemi Gar","alt":["Големи Гар"],"lon":22.27194,"lat":42.34806,"pop":0},{"id":834658,"name":"Golemi Vrv","alt":["Големи Врв"],"lon":22.35692,"lat":42.265,"pop":0},{"id":790610,"name":"Golemo Crsko","alt":["Veliko Crsko","Големо Црско"],"lon":20.99467,"lat":41.3997,"pop":0},{"id":790609,"name":"Golemo Ilino","alt":["Velike Ilino","Големо Илино"],"lon":21.00298,"lat":41.31399,"pop":208},{"id":790608,"name":"Golemo Konjari","alt":["Golemo Kojnari","Golemo Konari","Големо Коњари"],"lon":21.44028,"lat":41.34306,"pop":906},{"id":8695235,"name":"Golemo Mramorani","alt":["Големо Мраморани"],"lon":21.49243,"lat":41.40418,"pop":0},{"id":8544379,"name":"Goleš","alt":["Goles","Golesh","Голеш"],"lon":21.93687,"lat":41.39639,"pop":0},{"id":9504085,"name":"Goleševo","alt":["Golesevo","Goleshevo","Голешево"],"lon":22.77222,"lat":41.99388,"pop":0},{"id":861244,"name":"Goli Rid","alt":["Голи Рид"],"lon":21.95111,"lat":42.3275,"pop":0},{"id":790564,"name":"Golozinci","alt":["Голозинци"],"lon":21.62852,"lat":41.64217,"pop":134},{"id":861953,"name":"Goluvska Maala","alt":["Golujska Maala","Голувска Маала"],"lon":22.33161,"lat":42.30971,"pop":0},{"id":791151,"name":"Ǵopčeli","alt":["Donceli","Dopceli","Gjokceli","Gjokčeli","Gjopcheli","Gopceli","Gopčeli","Ðončeli","Đopčeli","Ѓопчели"],"lon":22.6651,"lat":41.25594,"pop":0},{"id":790551,"name":"Gopeš","alt":["Gopes","Gopesh","Гопеш"],"lon":21.12194,"lat":41.12,"pop":0},{"id":790548,"name":"Goračino","alt":["Gorachino","Goracino","Горачино"],"lon":22.2784,"lat":41.64152,"pop":0},{"id":862866,"name":"Gorance","lon":22.40861,"lat":41.96306,"pop":0},{"id":8512460,"name":"Goranska Maala","alt":["Горанска Маала"],"lon":22.60533,"lat":42.05576,"pop":0},{"id":10409304,"name":"Gorejci","alt":["Горејци"],"lon":22.10664,"lat":42.24516,"pop":0},{"id":790542,"name":"Gorenci","alt":["Gornci","Gornçi","Горенци"],"lon":20.55635,"lat":41.50227,"pop":0},{"id":790543,"name":"Gorenci","alt":["Горенци"],"lon":20.7575,"lat":41.19028,"pop":0},{"id":10356798,"name":"Ǵorgovci","alt":["Gjorgovci","Gorgovci","Ѓорговци"],"lon":21.99072,"lat":42.07012,"pop":0},{"id":10409272,"name":"Ǵorinci","alt":["Gjorinci","Gorinci","Ѓоринци"],"lon":21.99713,"lat":42.23043,"pop":0},{"id":10410142,"name":"Ǵorinska Maala","alt":["Gjorinska Maala","Gorinska Maala","Ѓоринска Маала"],"lon":22.22754,"lat":42.13092,"pop":0},{"id":790537,"name":"Gorjane","alt":["Горјане"],"lon":20.88139,"lat":41.89778,"pop":0},{"id":12166944,"name":"Gorna Arnakija","alt":["Горна Арнакија"],"lon":21.27169,"lat":41.98432,"pop":0},{"id":790535,"name":"Gorna Banjica","alt":["Gorna Banica","Горна Бањица"],"lon":20.89374,"lat":41.78034,"pop":0},{"id":790534,"name":"Gorna Bela Crkva","alt":["Горна Бела Црква"],"lon":21.02806,"lat":41.05028,"pop":591},{"id":790532,"name":"Gorna Belica","alt":["Belica","Gornja Belica","Горна Белица"],"lon":21.30478,"lat":41.67617,"pop":241},{"id":790533,"name":"Gorna Belica","alt":["Горна Белица"],"lon":20.55658,"lat":41.22352,"pop":0},{"id":790531,"name":"Gorna Bošava","alt":["Gorna Bosava","Gorna Boshava","Gornja Bosava","Gornja Bošava","Горна Бошава"],"lon":22.10778,"lat":41.28333,"pop":0},{"id":790342,"name":"Gorna Čarlija","alt":["Gorna Carlija","Gorna Charlija","Gorno Carlija","Gorno Čarlija","Горна Чарлија"],"lon":21.43361,"lat":41.15278,"pop":31},{"id":790530,"name":"Gorna Ǵonovica","alt":["Gorna Donovica","Gorna GJonovica","Gorna Gjonovica","Gorna Gonovica","Gorna Đonovica","Горна Ѓоновица"],"lon":20.90763,"lat":41.70846,"pop":0},{"id":796097,"name":"Gorna Lešnica","alt":["Gorna Leshnica","Gorna Lesnica","Горна Лешница"],"lon":21.06236,"lat":41.9284,"pop":271},{"id":838664,"name":"Gorna Maala","alt":["Gorna Mala","Горна Маала"],"lon":21.19056,"lat":41.09389,"pop":0},{"id":860458,"name":"Gorna Maala","alt":["Горна Маала"],"lon":21.91306,"lat":42.26667,"pop":0},{"id":861300,"name":"Gorna Maala","alt":["Gornja Maala","Горна Маала"],"lon":22.18389,"lat":42.28889,"pop":0},{"id":863615,"name":"Gorna Maala","alt":["Горна Маала"],"lon":21.09616,"lat":41.5322,"pop":0},{"id":863621,"name":"Gorna Maala","alt":["Горна Маала"],"lon":21.05132,"lat":41.62139,"pop":0},{"id":9113285,"name":"Gorna Maala","alt":["Горна Маала"],"lon":22.12256,"lat":42.09153,"pop":0},{"id":10305859,"name":"Gorna Maala","alt":["Gornja Mahala","Горна Маала"],"lon":21.6114,"lat":42.22228,"pop":0},{"id":10306852,"name":"Gorna Maala","alt":["Горна Маала"],"lon":21.98379,"lat":42.15221,"pop":0},{"id":10409409,"name":"Gorna Maala","alt":["Горна Маала"],"lon":22.09842,"lat":42.21556,"pop":0},{"id":838570,"name":"Gorna Mala","alt":["Gorna Maala","Горна Мала"],"lon":22.46833,"lat":41.34778,"pop":0},{"id":10306619,"name":"Gorna Mala","alt":["Горна Мала"],"lon":21.8266,"lat":42.23336,"pop":0},{"id":833594,"name":"Gorna Raduša","alt":["Gorna Radusa","Gorna Radusha","Горна Радуша"],"lon":21.20979,"lat":42.0886,"pop":0},{"id":790528,"name":"Gorna Vraštica","alt":["Gorna Vrashtica","Gorna Vrasnica","Gorna Vrastica","Gorna Vrašnica","Горна Враштица"],"lon":22.35467,"lat":41.59786,"pop":0},{"id":790527,"name":"Gorni Balvan","alt":["Горни Балван"],"lon":22.20116,"lat":41.84217,"pop":0},{"id":863672,"name":"Gorni Čelopek","alt":["Gorni Celopek","Gorni Chelopek","Горни Челопек"],"lon":21.01891,"lat":41.92427,"pop":0},{"id":790525,"name":"Gorni Disan","alt":["Горни Дисан"],"lon":22.10749,"lat":41.39246,"pop":0},{"id":833703,"name":"Gorni Dlapkin Dol","alt":["Dlapkin Dol","Gorni Dlapin Dol","Горни Длапкин Дол"],"lon":20.93528,"lat":41.55917,"pop":576},{"id":790338,"name":"Gorni Dobrenoec","alt":["Gorno Dobrenoec","Gorno Dobrenovac","Горни Добреноец"],"lon":20.88833,"lat":41.50861,"pop":0},{"id":863667,"name":"Gorni Grčec","alt":["Gorni Grcec","Gorni Grchec","Горни Грчец"],"lon":21.335,"lat":41.97167,"pop":0},{"id":790324,"name":"Gorni Lipoviḱ","alt":["Gorni Lipovik","Gorno Lipovik","Горни Липовиќ"],"lon":22.49306,"lat":41.51139,"pop":0},{"id":790524,"name":"Gorni Manastirec","alt":["Gorno Manastirec","Горни Манастирец"],"lon":21.18616,"lat":41.62257,"pop":65},{"id":863591,"name":"Gorni Oreovec","alt":["Gorno Oreovec","Горни Ореовец"],"lon":21.12811,"lat":41.49764,"pop":0},{"id":796057,"name":"Gorni Podlog","alt":["Dolni Podlog","Podlog","Горни Подлог"],"lon":22.38139,"lat":41.88806,"pop":0},{"id":790523,"name":"Gorni Stubol","alt":["Gornji Stubol","Горни Стубол"],"lon":22.09945,"lat":42.01166,"pop":0},{"id":9632618,"name":"Gornja Maala","alt":["Gorna Maala","Gorna Mahala","Горна Маала"],"lon":20.58359,"lat":41.67595,"pop":0},{"id":790481,"name":"Gornjane","alt":["Gorjani","Gornane","Горњане"],"lon":21.38011,"lat":42.10994,"pop":0},{"id":790343,"name":"Gorno Aglarci","alt":["Горно Агларци"],"lon":21.47639,"lat":41.08472,"pop":369},{"id":793823,"name":"Gorno Barbarevo","alt":["Горно Барбарево"],"lon":22.07028,"lat":41.99361,"pop":0},{"id":796005,"name":"Gorno Botuše","alt":["Gorno Botuse","Gorno Botushe","Gorno Botusje","Gorno Botušje","Горно Ботуше"],"lon":21.07505,"lat":41.71327,"pop":140},