[{"id":2563232,"name":"Attard","alt":["Casal Attard","H'Attard","Ħ’Attard","Аттард"],"lon":14.4425,"lat":35.88972,"pop":11377},{"id":2563230,"name":"Baħar iċ-Ċagħaq","alt":["Bahar ic-Caghaq","Bahar it Chiak"],"lon":14.45417,"lat":35.93861,"pop":0},{"id":2563217,"name":"Balzan","alt":["Casal Balzan","Hal Balzan","Ħal Balzan"],"lon":14.455,"lat":35.90028,"pop":4689},{"id":2563210,"name":"Bengħisa","alt":["Benghaisa","Benghajsa","Benghisa","Bengħajsa","Irras","Jew ir-Ras"],"lon":14.53861,"lat":35.81306,"pop":0},{"id":2563205,"name":"Beżbeżija","alt":["Bezbezija","Il Busbesia"],"lon":14.40861,"lat":35.91222,"pop":0},{"id":2564765,"name":"Bighi","lon":14.52459,"lat":35.89235,"pop":0},{"id":2563197,"name":"Binġemma","alt":["Bingemma","Binjemma","Il Wilgia ta Bengemma","Il Wilgia ta Bingemma","Ta Bengemma"],"lon":14.37361,"lat":35.91,"pop":0},{"id":2563192,"name":"Bir id-Deheb","lon":14.52806,"lat":35.85139,"pop":0},{"id":2563193,"name":"Birbuba","alt":["Ta Birbuba"],"lon":14.19861,"lat":36.06417,"pop":0},{"id":2563191,"name":"Birkirkara","alt":["B'Kara","Birchircara","B’Kara","Casal Birchircara","byrqyrqrh","Биркиркара","בירקירקרה","ቢርኪርካራ"],"lon":14.46111,"lat":35.89722,"pop":24356},{"id":2563189,"name":"Birżebbuġa","alt":["B'Buga","B'Bugia","Birzbbu","Birzebbu","Birzebbudzha","Birzebbuga","Birzebbugia","Birzebuggia","B’Bugia","B’Buġa","bi er ze bu jia","Бирзеббуджа","比尔泽布贾"],"lon":14.52694,"lat":35.82583,"pop":12915},{"id":2563186,"name":"Biskra","alt":["Il Biskra"],"lon":14.34694,"lat":35.96639,"pop":0},{"id":2563182,"name":"Borġ in-Nadur","alt":["Borg in-Nadur","Nadur"],"lon":14.53028,"lat":35.83389,"pop":0},{"id":2563180,"name":"Bubaqra","alt":["Bubakra"],"lon":14.47806,"lat":35.82472,"pop":0},{"id":2563178,"name":"Buġibba","alt":["Budzhibba","Bugibba","Bujebba","Буджибба"],"lon":14.41056,"lat":35.95139,"pop":0},{"id":2563176,"name":"Buleben il-Kbir","alt":["Bulebel Il Cbir"],"lon":14.52,"lat":35.8625,"pop":0},{"id":2563175,"name":"Buleben iż-Żgħir","alt":["Buleben iz-Zghir","Kasam Bulebel Iz-Zghir","Kasam Bulebel Iż-Żghir","Qasam Bulebel iz-Zghir","Qasam Bulebel iż-Żgħir"],"lon":14.52778,"lat":35.87028,"pop":0},{"id":2563173,"name":"Bur Magħtab","alt":["Bur Maghtab","Bur Maghtub"],"lon":14.51361,"lat":35.84278,"pop":0},{"id":2563172,"name":"Bur Marrad","lon":14.41389,"lat":35.93583,"pop":0},{"id":2563167,"name":"Busugrilla","lon":14.39194,"lat":35.88333,"pop":0},{"id":7522265,"name":"Comino","alt":["Ephaestia","JCO","Kemmuna","Komino","Комино"],"lon":14.33571,"lat":36.01465,"pop":10},{"id":2564275,"name":"Corradino Heights","lon":14.51028,"lat":35.88278,"pop":0},{"id":2563181,"name":"Cospicua","alt":["Bormla","Cospiosa","Kospikoua","boleumla","kaspykwa","ke si pi kua","kwsbykw","kwspykwa","Κοσπίκουα","Бормла","Բորմլա","كوسبيكو","کاسپیکوا","کوسپیکوا","کۆسپیکوا","科斯皮夸","보름라"],"lon":14.5275,"lat":35.88556,"pop":6096},{"id":11856604,"name":"Debba","lon":14.20057,"lat":36.05058,"pop":65},{"id":2563150,"name":"Delimara","lon":14.55972,"lat":35.82472,"pop":0},{"id":2563140,"name":"Dingli","alt":["Casal Dingli","Had-Dingli","Ħad-Dingli"],"lon":14.38222,"lat":35.86139,"pop":3711},{"id":2563129,"name":"Dwejra","alt":["Dueira"],"lon":14.38361,"lat":35.90528,"pop":0},{"id":11856601,"name":"Dwejra","lon":14.1909,"lat":36.05207,"pop":121},{"id":2563125,"name":"Erba’ Mwieżeb","alt":["Erba' Mwiezeb","Ta Erba Muiezep"],"lon":14.41056,"lat":35.94444,"pop":0},{"id":9653600,"name":"Fanal","lon":14.22139,"lat":36.06374,"pop":0},{"id":2563115,"name":"Fgura","alt":["Figura","Il-Fgura","Kunsill Lokali Fgura","fgwra","fu gu la","peugula","Фгура","فگورا","弗古拉","프구라"],"lon":14.51333,"lat":35.87028,"pop":12877},{"id":2563109,"name":"Fleur de Lys","alt":["Fleur de Lis","Ta' Fleur-De-Lis","Ta’ Fleur-De-Lis"],"lon":14.47056,"lat":35.89222,"pop":0},{"id":2562955,"name":"Floriana","alt":["Furjana","Il-Furjana","flwryana","peulloliana","Φλοριάνα","Флориана","Флоріана","פלוריאנה","فلوریانا","플로리아나"],"lon":14.50833,"lat":35.89583,"pop":2032},{"id":8337342,"name":"Fontana","lon":14.23611,"lat":36.0375,"pop":922},{"id":11049533,"name":"Freeport","lon":14.53148,"lat":35.8188,"pop":0},{"id":2563031,"name":"Ġnien il-Kbir","alt":["Gnien el Gbir","Gnien il-Kbir","Gnien-Il Gbir"],"lon":14.39639,"lat":35.87083,"pop":0},{"id":11856605,"name":"Gebla","lon":14.20215,"lat":36.0533,"pop":112},{"id":11856608,"name":"Ghonoq","lon":14.20089,"lat":36.05767,"pop":76},{"id":2563020,"name":"Gudja","alt":["Gudia","Il-Gudja","MLA"],"lon":14.50306,"lat":35.84917,"pop":3184},{"id":2563018,"name":"Gwardamanġa","alt":["Guarda Mangia","Gwardamanga","Ta Guardamangia","Tal Guardamangia"],"lon":14.49167,"lat":35.89056,"pop":0},{"id":2562946,"name":"Gżira","alt":["Gzira","Il-Gzira","Il-Gżira","Гзира"],"lon":14.48806,"lat":35.90583,"pop":11669},{"id":2563092,"name":"Għajn Dwieli","alt":["Ghain Dueili","Ghain Dwieli","Ghajn Dwieli"],"lon":14.51333,"lat":35.8775,"pop":0},{"id":2563089,"name":"Għajn il-Kbira","alt":["Ghain il K'bira","Ghain il K’bira","Ghajn il-Kbira"],"lon":14.23972,"lat":36.03861,"pop":0},{"id":2563090,"name":"Għajn il-Kbira","alt":["Ghain Il Cbira","Ghajn il-Kbira"],"lon":14.40806,"lat":35.85444,"pop":0},{"id":2563088,"name":"Għajn Klieb","alt":["Ghain Clieb","Ghain Klieb","Ghajn Klieb"],"lon":14.38472,"lat":35.88556,"pop":0},{"id":2563086,"name":"Għajn Mhelhel","alt":["Ghajn Melel","Għajn Melel"],"lon":14.23917,"lat":36.07611,"pop":0},{"id":2563085,"name":"Għajn Qajjied","alt":["Ghain Kaiet","Ghain Kaijet","Ghajn Qajjet","Ghajn Qajjied","Għajn Qajjet"],"lon":14.38667,"lat":35.88611,"pop":0},{"id":2563079,"name":"Għajn Tuffieħa","alt":["Ghain Tuffieha","Ghajn Tuffieha"],"lon":14.35333,"lat":35.92583,"pop":0},{"id":2563075,"name":"Għajn Żejtuna","alt":["Ghain Zeituna","Ghajn Zejtuna"],"lon":14.36722,"lat":35.96639,"pop":0},{"id":2563081,"name":"Għajnsielem","alt":["Ainsielem","Ghain Sielem","Ghajnsielem"],"lon":14.285,"lat":36.02639,"pop":2931},{"id":2563066,"name":"Għammar","lon":14.21833,"lat":36.06611,"pop":0},{"id":2563065,"name":"Għammieri","alt":["Ghammieri","Tal Hammieri"],"lon":14.48083,"lat":35.8725,"pop":0},{"id":2563056,"name":"Għar Mundu","lon":14.40611,"lat":35.84944,"pop":0},{"id":2563055,"name":"Għar Ram","lon":14.45833,"lat":35.87222,"pop":0},{"id":2563063,"name":"Għarb","alt":["Gharb","Il-Gharb","Il-Għarb"],"lon":14.20889,"lat":36.06,"pop":1298},{"id":2563052,"name":"Għasri","alt":["Ghasri","Il-Ghasri","Il-Għasri","L-Ghasri","L-Għasri"],"lon":14.22639,"lat":36.05778,"pop":631},{"id":2563046,"name":"Għaxaq","alt":["Ashiak","Axiak","Casal Asciak","Ghashiak","Ghaxaq","Hal Ghaxaq","Hal Ghaxiak","Ħal Għaxaq"],"lon":14.51667,"lat":35.84889,"pop":4860},{"id":2563044,"name":"Għemieri","alt":["'Emieri","Ghemieri","Gomerino","Lands Ghemieri","’Emieri"],"lon":14.36583,"lat":35.89222,"pop":0},{"id":2563062,"name":"Hal Gharghur","alt":["Gharghur","Għargħur"],"lon":14.45118,"lat":35.92409,"pop":2857},{"id":2562261,"name":"Haz-Zebbug","alt":["Lebbug","Zebbudzh","Ħaż-Żebbuġ","Зеббудж"],"lon":14.44111,"lat":35.87194,"pop":11079},{"id":2563015,"name":"Ħal Bajjada","lon":14.39583,"lat":35.87806,"pop":0},{"id":2563013,"name":"Ħal Dwin","alt":["Hal Duiel","Hal Dwin","Hall Duiel","Ħall Duiel"],"lon":14.43583,"lat":35.86806,"pop":0},{"id":2567540,"name":"Ħal Far","alt":["Hal Far"],"lon":14.50667,"lat":35.81667,"pop":0},{"id":2563009,"name":"Ħal Ġinwi","alt":["Hal Ginwi","Hal Jinwi"],"lon":14.5425,"lat":35.84667,"pop":0},{"id":2563007,"name":"Ħal Lew","lon":14.46917,"lat":35.82944,"pop":0},{"id":2563006,"name":"Ħal Mula","alt":["Hal Mula","Hall Mula","Ta' Hal-Mula","Ta’ Ħal-Mula","Ħall Mula"],"lon":14.44444,"lat":35.87028,"pop":0},{"id":2563005,"name":"Ħal Muxi","alt":["Hal Mushi","Hal Muxi"],"lon":14.43583,"lat":35.87556,"pop":0},{"id":2563003,"name":"Ħal Saflieni","alt":["Hal Saflieni","Hal Saflini","Has-Saflieni","Ta Hal Saflieni"],"lon":14.50528,"lat":35.86944,"pop":0},{"id":2563004,"name":"Ħalq Dieri","alt":["Halk Dieri","Halq Dieri"],"lon":14.42361,"lat":35.86861,"pop":0},{"id":2562998,"name":"Ħamrun","alt":["Ham Rum","Hamrun","Il-Hamrun"],"lon":14.48444,"lat":35.88472,"pop":9743},{"id":2562989,"name":"Ħas-Sajd","alt":["Has-Said","Has-Sajd"],"lon":14.54333,"lat":35.87083,"pop":0},{"id":2562980,"name":"Ħofret ir-Rizz","alt":["Hofret ir-Rizz","Hofriet ir Ritz"],"lon":14.37667,"lat":35.87333,"pop":0},{"id":2562971,"name":"Id-Daħar","lon":14.33278,"lat":35.97639,"pop":0},{"id":2564671,"name":"Il-Baħrija","lon":14.34861,"lat":35.89444,"pop":0},{"id":2562968,"name":"Il-Bidni","alt":["Bidni"],"lon":14.55444,"lat":35.86889,"pop":0},{"id":2562961,"name":"Il-Brolli","lon":14.52139,"lat":35.83056,"pop":0},{"id":2562960,"name":"Il-Bwieraq","alt":["Il Buierak"],"lon":14.46,"lat":35.90139,"pop":0},{"id":2562959,"name":"Il-Fawwara","lon":14.40194,"lat":35.84028,"pop":0},{"id":2565303,"name":"Il-Gwejdi","lon":14.44139,"lat":35.91694,"pop":0},{"id":2562947,"name":"Il-Gżira","lon":14.5,"lat":35.9,"pop":0},{"id":2562943,"name":"Il-Ħammieri","lon":14.46083,"lat":35.88222,"pop":0},{"id":2562942,"name":"Il-Ħamra","lon":14.41861,"lat":35.94972,"pop":0},{"id":2562940,"name":"Il-Ħamrija","alt":["Hamria","Hamrija","Il-Hamrija"],"lon":14.56944,"lat":35.86222,"pop":0},{"id":2562941,"name":"Il-Ħamrija","alt":["Hamria","Il-Hamrija"],"lon":14.42333,"lat":35.85889,"pop":0},{"id":2564601,"name":"Il-Ħamrija","lon":14.44083,"lat":35.91222,"pop":0},{"id":2562933,"name":"Il-Ħofra","lon":14.54472,"lat":35.88194,"pop":0},{"id":2564646,"name":"Il-Kamp tal-Mellieħa","lon":14.34667,"lat":35.96722,"pop":0},{"id":2562928,"name":"Il-Kappara","alt":["Il Cappara"],"lon":14.56889,"lat":35.86444,"pop":0},{"id":2562781,"name":"Il-Madliena","alt":["El Madliena","Madliena"],"lon":14.46611,"lat":35.9275,"pop":0},{"id":2563604,"name":"Il-Maħsel","lon":14.565,"lat":35.85639,"pop":0},{"id":2562912,"name":"Il-Mielaħ","lon":14.47028,"lat":35.92472,"pop":0},{"id":2562910,"name":"Il-Minżel","lon":14.53222,"lat":35.86,"pop":0},{"id":2562906,"name":"Il-Miżieb","alt":["Il Misiep","Il Miziep","Il-Mizieb"],"lon":14.49528,"lat":35.81722,"pop":0},{"id":2562904,"name":"Il-Palma","lon":14.36722,"lat":35.93556,"pop":0},{"id":2562897,"name":"Il-Qajjenza","alt":["Il Kaiienza","Il-Qajenza","Kaienza","Kayenza"],"lon":14.535,"lat":35.83389,"pop":0},{"id":2564350,"name":"Il-Qasbija","lon":14.45556,"lat":35.90361,"pop":0},{"id":2562892,"name":"Il-Qattara","alt":["Il Kattara","Il-Qat-ara"],"lon":14.40889,"lat":35.9025,"pop":0},{"id":2563074,"name":"Il-Qortin ta’ Għajn Żejtuna","alt":["Il Kortin ta Ghain Zeituna","Il Kortin ta' Ghain Zejtuna","Il Kortin ta’ Ghain Zejtuna","Il-Kortin ta' Ghajn Zejtuna","Il-Kortin ta’ Għajn Żejtuna","Il-Qortin ta' Ghajn Zejtuna"],"lon":14.37139,"lat":35.96389,"pop":0},{"id":2562883,"name":"Il-Wileġ","alt":["Il Willeq","Il-Wileg"],"lon":14.53389,"lat":35.88667,"pop":0},{"id":2562881,"name":"Il-Wilġa","lon":14.20944,"lat":36.0575,"pop":0},{"id":2562746,"name":"Imdina","alt":["Citta Notabile","Citta Vecchia","Citta Vechia","Città Notabile","L-Imdina","Mdina","Mdina a Rabat","Medina Notabile","Melita","Notabile","Мдина"],"lon":14.4025,"lat":35.88694,"pop":193},{"id":2562735,"name":"Imġarr","alt":["Imgarr","Imgiar","Imjar","L-Mgarr","L-Mġarr","Mgar","Mgarr","Mġarr","Мгар"],"lon":14.36639,"lat":35.92056,"pop":3802},{"id":2562698,"name":"Imsida","alt":["L-Imsida","Misida","Msida","Мсида"],"lon":14.48278,"lat":35.8925,"pop":13713},{"id":2562694,"name":"Imtarfa","alt":["Imtarfa Barracks","L-Imtarfa","Mtarfa"],"lon":14.39889,"lat":35.89333,"pop":2615},{"id":2562877,"name":"In-Naħħalija","alt":["In-Nahhalija","In-nah-Halia"],"lon":14.34278,"lat":35.93528,"pop":0},{"id":2562860,"name":"Is-Sellum","lon":14.35889,"lat":35.96639,"pop":0},{"id":2562855,"name":"Is-Simblija","alt":["Is-Simb-blia"],"lon":14.44722,"lat":35.9125,"pop":0},{"id":2562851,"name":"Is-Swatar","alt":["Is-Suatar"],"lon":14.47722,"lat":35.89667,"pop":0},{"id":2564642,"name":"It-Troll","lon":14.44306,"lat":35.86639,"pop":0},{"id":2562843,"name":"Ix-Xagħra l-Ħamra","alt":["Ix-Xaghra l-Hamra","Ixaghra il Hamra","Ixxaghara-il-Hamra"],"lon":14.3525,"lat":35.94083,"pop":0},{"id":2564546,"name":"Ix-Xagħra ta’ Barra","lon":14.37,"lat":35.95667,"pop":0},{"id":2562842,"name":"Ix-Xagħra ta’ l-Isqof","alt":["Ix-Xaghra ta' l-Isqof","Sha'ra tal Iskof","Shaghra tal Iskof","Sha’ra tal Iskof","Xaghra ta Liskof"],"lon":14.40639,"lat":35.86528,"pop":0},{"id":2562840,"name":"Ix-Xgħajriet","alt":["Ix Xghairat","Ix-Xghajriet"],"lon":14.46278,"lat":35.92139,"pop":0},{"id":2562837,"name":"Ix-Xlejli","alt":["Ta Xlejli"],"lon":14.50722,"lat":35.85111,"pop":0},{"id":2562262,"name":"Iż-Żebbiegħ","alt":["Iz-Zebbiegh","Iz-Zebbieh","Zeb-Bieh","Zebbiegh","Zebbieh","Żebbiegħ","Żebbieħ"],"lon":14.37944,"lat":35.92028,"pop":0},{"id":2563609,"name":"Iż-Żlielaq","lon":14.56417,"lat":35.86667,"pop":0},{"id":2562831,"name":"Kalafrana","lon":14.53444,"lat":35.81806,"pop":0},{"id":2562830,"name":"Kalkara","alt":["Calcara","Il-Kalkara"],"lon":14.53278,"lat":35.88917,"pop":3059},{"id":2562816,"name":"Kerċem","alt":["Kercem","Kerchem"],"lon":14.22667,"lat":36.04194,"pop":1627},{"id":2562815,"name":"Kirkop","alt":["Casal Chircop","Hal-Kirkop","Ħal-Kirkop"],"lon":14.48528,"lat":35.84222,"pop":2397},{"id":2562813,"name":"Kordin","alt":["Cordin","Ta Cordin","Ta' Kordin","Ta’ Kordin"],"lon":14.50639,"lat":35.8825,"pop":0},{"id":2565295,"name":"L-Aħrax tal-Għajn","lon":14.33222,"lat":35.98111,"pop":0},{"id":2562809,"name":"L-Andrijiet","alt":["L`Andrijet","L‘Andrijet"],"lon":14.36583,"lat":35.88611,"pop":0},{"id":2562807,"name":"L-Armier","lon":14.47083,"lat":35.87528,"pop":0},{"id":2562800,"name":"L-Iklin","alt":["Iklin","L'Inglin","L-Iclin"],"lon":14.45415,"lat":35.90414,"pop":3422},{"id":2562798,"name":"L-Imbordin","alt":["Tal-Imbordin"],"lon":14.37167,"lat":35.94333,"pop":0},{"id":2562795,"name":"L-Ingiered","alt":["L-Imghieret","L-Ingieret"],"lon":14.48528,"lat":35.8725,"pop":0},{"id":2562793,"name":"L-Iskorvit","alt":["L-Iskirvit","Ta Liscurvit","Ta' L-Iskirvit","Tal Iscorvit","Tal Iskolviet","Ta’ L-Iskirvit"],"lon":14.35556,"lat":35.91306,"pop":0},{"id":2562791,"name":"L-Istabar","lon":14.4817,"lat":35.87813,"pop":0},{"id":2562801,"name":"Lija","alt":["Casal Lia","Hal Lija","Lia","Lidza","Lidža","liya","lyya","Ħal Lija","لییا","리야"],"lon":14.44639,"lat":35.90056,"pop":3202},{"id":2562788,"name":"Luqa","alt":["Casal Luca","Hal Luqa","Luca","MLA","Ħal Luqa"],"lon":14.48861,"lat":35.85889,"pop":6162},{"id":2562774,"name":"Magħtab","alt":["El Mghatap","El Mghatáp","Il Maghtab","Il Magħtab","Maghtab"],"lon":14.44778,"lat":35.93639,"pop":0},{"id":2562766,"name":"Manikata","alt":["Il Manikata"],"lon":14.35333,"lat":35.94,"pop":539},{"id":9653601,"name":"Manresa","lon":14.23913,"lat":36.03806,"pop":0},{"id":10171154,"name":"Marfa","lon":14.34625,"lat":35.98584,"pop":0},{"id":2562755,"name":"Marsa","alt":["Il-Marsa","ma er sa","maleusa","marsa","Μάρσα","Марса","Մարսա","مارسا","مارسا، مالٹا","馬爾薩","마르사"],"lon":14.49528,"lat":35.87917,"pop":5454},{"id":2562753,"name":"Marsalforn","alt":["Marsalforno"],"lon":14.25861,"lat":36.07111,"pop":168},{"id":2562750,"name":"Marsaskala","alt":["M'Skala","Marsa Scala","Marsascala","Wied il Ghain","Wied il-Ghajn","Wied il-Għajn","Марсаскала"],"lon":14.56701,"lat":35.8622,"pop":10024},{"id":2562247,"name":"Marsaxlokk","alt":["M'Xloxx","Marsa Scirocco","Marsa Shlok","Marsashlokk","Marsaxlok","M’Xloxx","Марсашлокк"],"lon":14.54306,"lat":35.84194,"pop":3660},{"id":2562744,"name":"Mellieħa","alt":["Il-Mellieha","Il-Mellieħa","Mellieha","Mellikha","Меллиха"],"lon":14.36222,"lat":35.95639,"pop":11389},{"id":2562734,"name":"Mġarr","alt":["Imjar","L-Imgarr","L-Imġarr","Mgarr"],"lon":14.295,"lat":36.02528,"pop":2868},{"id":2562719,"name":"Minsija","alt":["Tal Minsia","Tal-Minsija"],"lon":14.48111,"lat":35.91333,"pop":0},{"id":2562717,"name":"Misraħ Ħlantun","alt":["Misrah Blandon","Misrah Blandun","Misrah Hlantun"],"lon":14.49083,"lat":35.82806,"pop":0},{"id":2564380,"name":"Misraħ Il-Barrieri","lon":14.48639,"lat":35.89583,"pop":0},{"id":2562715,"name":"Misraħ Lewża","alt":["Misrah Lewza","Ta Misrah Lewza","Ta Misrah Lewża"],"lon":14.47278,"lat":35.90861,"pop":0},{"id":2562714,"name":"Misraħ Miel","lon":14.36139,"lat":35.92083,"pop":0},{"id":2562713,"name":"Misraħ Strejnu","alt":["Misrah Srajnu","Misrah Strejnu"],"lon":14.54528,"lat":35.85056,"pop":0},{"id":2562712,"name":"Misraħ Suffara","lon":14.37361,"lat":35.86861,"pop":0},{"id":2562707,"name":"Miżieb","alt":["Il Miziep","Il-Mizieb","Il-Miżieb","Mizieb"],"lon":14.35806,"lat":35.95,"pop":0},{"id":2562704,"name":"Mosta","alt":["Il-Mosta","Masta","Musta","Моста"],"lon":14.42556,"lat":35.90917,"pop":23482},{"id":2562701,"name":"Mqabba","alt":["Casal Micabiba","Imkabba","L-Imqabba","Micabba"],"lon":14.46824,"lat":35.84763,"pop":3339},{"id":2562700,"name":"Mrejżbiet","lon":14.28556,"lat":36.02889,"pop":0},{"id":2562696,"name":"Msieraħ","alt":["L-Imsierah","Msierah"],"lon":14.48333,"lat":35.9,"pop":0},{"id":2562693,"name":"Munxar","alt":["Monsciar","Munshar"],"lon":14.23333,"lat":36.03,"pop":840},{"id":2562687,"name":"Nadur","alt":["In-Nadur"],"lon":14.29417,"lat":36.03778,"pop":3933},{"id":2562683,"name":"Naxxar","alt":["In-Naxxar","Nasaras","Nasciar","Nasciaro","Nashar","Naxaro","Našaras","na sha er","nasar","nashar","nasyaleu","ناسار","ناشار","納沙爾","나샤르"],"lon":14.44361,"lat":35.91361,"pop":14890},{"id":2562677,"name":"Nigred","alt":["In-Nigret","Negret","Nigret"],"lon":14.46806,"lat":35.82444,"pop":0},{"id":2562679,"name":"Nigred","alt":["In-Nigret"],"lon":14.38583,"lat":35.88278,"pop":0},{"id":7302254,"name":"Paceville","lon":14.48949,"lat":35.92378,"pop":0},{"id":2562617,"name":"Paola","alt":["Casal Paola","Casal Paolo","Casal Paula","Paula","Pawla","Rahal Gdid","Rahal Jedid","Raħal Ġdid","bao la","paolla","paywla","Πάολα","Паола","پائولا","پائۆلا","پاولا، مالٹا","保拉","파올라"],"lon":14.49889,"lat":35.87306,"pop":8706},{"id":11856611,"name":"Pawluzzu","lon":14.20658,"lat":36.05509,"pop":56},{"id":8337353,"name":"Pembroke","alt":["Pembrukas","Pemproouk","pembeulokeu","Πέμπροουκ","پیمبروک، مالٹا","펨브로크"],"lon":14.47639,"lat":35.93056,"pop":3842},{"id":2562664,"name":"Pietà","alt":["P'eta","Pieta","Tal-Pieta","Tal-Pietà","pieta","Пьета","پیئتا، مالٹا","피에타"],"lon":14.495,"lat":35.89472,"pop":4892},{"id":2562655,"name":"Qala","alt":["Casal Qala","Il-Qala","Kala","La Cala","alla","آلا، مالٹا","알라"],"lon":14.30944,"lat":36.03611,"pop":1929},{"id":2562641,"name":"Qawra","alt":["Aura","Kaura","Аура"],"lon":14.42306,"lat":35.95694,"pop":0},{"id":2562634,"name":"Qbajjar","lon":14.25028,"lat":36.07778,"pop":0},{"id":2562629,"name":"Qormi","alt":["Hal Qormi","Kormi","Kormis","Ormi","awrmy","ge er mi","kwrmy","oleumi","Ħal Qormi","Όρμι","Корми","Кормі","آورمی","قۆرمی","کورمی","戈爾米","오르미"],"lon":14.472,"lat":35.87601,"pop":16801},{"id":2562622,"name":"Qrendi","alt":["Casal Krendi","Crendi","Il-Qrendi","Krendi","Krendis","aryndy","kui lun di","lendi","آریندی","奎倫迪","렌디"],"lon":14.45833,"lat":35.83472,"pop":3148},{"id":2562620,"name":"Rabat","alt":["Ir-Rabat","Ir-Rabt","Rabatas","Rabato","Rampat","alrabat","la ba te","labateu","rbat  malt","Ραμπάτ","Рабат","الرابات","رابات، مالٹا","ربات، مالت","ڕابات، ماڵتا","拉巴特","라바트"],"lon":14.39872,"lat":35.88152,"pop":11936},{"id":11856610,"name":"Rosa","lon":14.19829,"lat":36.05937,"pop":32},{"id":2562598,"name":"Safi","alt":["Casal Safi","Hal Safi","Ħal Safi"],"lon":14.48472,"lat":35.83306,"pop":2280},{"id":2562528,"name":"Saint Lucia","alt":["Santa Lucia","Santa Lucija","Santa Luċia","Santa Luċija","St. Lucia"],"lon":14.21722,"lat":36.04306,"pop":0},{"id":2562557,"name":"San Ġiljan","alt":["Saint Julian","Saint Julian's","San Gilian","San Giljan","San Julian","San Julian's","San Julián","San Ġilian","Sent-Dzhulians","St. Julian's","Сент-Джулианс"],"lon":14.48977,"lat":35.91839,"pop":13792},{"id":2567539,"name":"San Ġwann","alt":["San Gwann"],"lon":14.47611,"lat":35.90556,"pop":14720},{"id":2562554,"name":"San Ġwann tal-Għargħar","alt":["San Gwann tal-Gharghar","San Gwann tal-Ghorghar","San Ġwann tal-Għorgħar","Ta San Guann Tal Ghorghar","Ta San Ġuann Tal Ghorghar"],"lon":14.47611,"lat":35.905,"pop":0},{"id":2562553,"name":"San Katald","lon":14.20583,"lat":36.06556,"pop":0},{"id":2562552,"name":"San Lawrenz","alt":["Saint Lawrence","San Laurenz"],"lon":14.20361,"lat":36.05556,"pop":530},{"id":2562551,"name":"San Leonardo","alt":["San Annard"],"lon":14.55583,"lat":35.87833,"pop":0},{"id":2562541,"name":"San Pawl il-Baħar","alt":["Baia di San Paolo","Saint Paul's Bay","San Paul Amere","San Paul a Mare","San Paul à Mare","San Pawl il-Bahar","St Paul's Bay"],"lon":14.41561,"lat":35.95064,"pop":32042},{"id":2562540,"name":"San Pawl Milqgħi","alt":["San Paul Milkei","San Pawl Milqghi"],"lon":14.41278,"lat":35.93528,"pop":0},{"id":2565304,"name":"San Pawl tat-Tarġa","lon":14.4425,"lat":35.92028,"pop":0},{"id":2562538,"name":"San Pietru","alt":["San Pietro"],"lon":14.54,"lat":35.88639,"pop":0},{"id":2562545,"name":"Sannat","alt":["Is-Sannat","Sanatas","Ta' Sannat","sanateu","sannat","ساننات","사나트"],"lon":14.24278,"lat":36.02444,"pop":1681},{"id":9794199,"name":"Santa Katarina","lon":14.38595,"lat":35.87133,"pop":350},{"id":2562529,"name":"Santa Luċija","alt":["Santa Lucia","Santa Lucija"],"lon":14.5075,"lat":35.86278,"pop":2954},{"id":2562518,"name":"Santa Venera","alt":["Saint Venera","Santa Vennera","St. Venera"],"lon":14.47417,"lat":35.89083,"pop":7590},{"id":2562515,"name":"Santu Pietru","alt":["San Pietru"],"lon":14.20111,"lat":36.06083,"pop":0},{"id":2562514,"name":"Santu Rokku","alt":["San Rocco"],"lon":14.54056,"lat":35.89083,"pop":0},{"id":2562792,"name":"Senglea","alt":["Isla","L-Isla","Sen'nklea","sen ge lai a","seng-geullea","snjlya","synglya","Σενγκλέα","Исла","Сенглеа","סנגלאה","سنجليا","سینگلیا","森格萊阿","셍글레아"],"lon":14.51694,"lat":35.8875,"pop":2720},{"id":2562504,"name":"Siġġiewi","alt":["Is-Siggiewi","Is-Siġġiewi","Sidzivis","Sidživis","Siggieui","Siggiewi","Sigijevi","Sijuwi","Suggeui","sijiwi","sygywy","syjjywy","syjywy","xi jie wei","Сигијеви","سیججیوی","سیجیوی","سیگیوی","錫傑維","시지위"],"lon":14.43639,"lat":35.85556,"pop":8721},{"id":2562502,"name":"Skorba","alt":["Liscolba"],"lon":14.37694,"lat":35.91972,"pop":0},{"id":2562501,"name":"Sliema","alt":["Slijema","Slima","Tas-Sliema","seullima","si li ma","slyma","slymh","Σλιέμα","Слима","Слијема","Сліма","סלימה","سلیما","斯利馬","슬리마"],"lon":14.50194,"lat":35.9125,"pop":22591},{"id":10401834,"name":"Smart City","alt":["SmartCity"],"lon":14.54032,"lat":35.8903,"pop":0},{"id":11049532,"name":"St Andrews","lon":14.47556,"lat":35.92388,"pop":0},{"id":2562850,"name":"Swieqi","alt":["Is Suieki","Is-Swieki","Is-Swieqi","Sviji","Svikis","seuwii","si wei ji","swyky","swyqy","swyyay","Свийи","سویئای","سویقی","سویکی","斯維吉","스위이"],"lon":14.48,"lat":35.9225,"pop":14452},{"id":2562491,"name":"Ta’ Abram","lon":14.23333,"lat":36.065,"pop":0},{"id":2562486,"name":"Ta’ Bir Miftuħ","lon":14.49056,"lat":35.85278,"pop":0},{"id":2562483,"name":"Ta’ Brared","alt":["Ta Braret","Ta' Brared"],"lon":14.40222,"lat":35.92889,"pop":0},{"id":2562477,"name":"Ta’ Bullara","lon":14.26139,"lat":36.05583,"pop":0},{"id":2562474,"name":"Ta’ Ċantar","alt":["Ta' Cantar","Ta' Ciantar","Ta’ Ciantar"],"lon":14.53667,"lat":35.86972,"pop":0},{"id":2562469,"name":"Ta’ Ċeppuna","alt":["Lands Ceppuna","Ta' Ceppuna"],"lon":14.49361,"lat":35.87361,"pop":0},{"id":2564374,"name":"Ta’ Ċikkun","lon":14.48333,"lat":35.91167,"pop":0},{"id":2562465,"name":"Ta’ Danieli","lon":14.48417,"lat":35.85667,"pop":0},{"id":2562450,"name":"Ta’ Ġokondu","alt":["Ta Giocondu","Ta' Gokondu"],"lon":14.47222,"lat":35.9225,"pop":0},{"id":2564371,"name":"Ta’ Giorni","alt":["Ta' Giorni"],"lon":14.48639,"lat":35.91333,"pop":0},{"id":2562449,"name":"Ta’ Gorgun","lon":14.25889,"lat":36.02944,"pop":0},{"id":2562447,"name":"Ta’ Ħamet","lon":14.26472,"lat":36.04,"pop":0},{"id":2562443,"name":"Ta’ Ħaxxluq","alt":["Ta Haxxluk","Ta' Haxxluq"],"lon":14.445,"lat":35.84667,"pop":0},{"id":2562442,"name":"Ta’ Ħida","lon":14.28444,"lat":36.04528,"pop":0},{"id":2562438,"name":"Ta’ Kandja","alt":["Ta Candia","Ta Kandia","Ta' Kandja"],"lon":14.46722,"lat":35.84944,"pop":0},{"id":2564373,"name":"Ta’ Kappara","lon":14.48417,"lat":35.90889,"pop":0},{"id":2562433,"name":"Ta’ l-Abatija","alt":["Ta L-Abatia","Ta' l-Abatija"],"lon":14.35028,"lat":35.9075,"pop":0},{"id":2562397,"name":"Ta’ l-Imgħajjen","lon":14.25306,"lat":36.03861,"pop":0},{"id":2562395,"name":"Ta’ l-Infetti","lon":14.44361,"lat":35.87472,"pop":0},{"id":2564442,"name":"Ta’ Lampuka","lon":14.50861,"lat":35.86694,"pop":0},{"id":2562367,"name":"Ta’ Mlit","lon":14.42861,"lat":35.90361,"pop":0},{"id":2563610,"name":"Ta’ Monita","lon":14.56472,"lat":35.86611,"pop":0},{"id":2564534,"name":"Ta’ Penza","lon":14.52139,"lat":35.875,"pop":0},{"id":2562362,"name":"Ta’ Qali","alt":["Ta Kali","Ta' Qali","Ta-Ali","Та-Али"],"lon":14.42722,"lat":35.89417,"pop":0},{"id":2562343,"name":"Ta’ San Ġwakkin","alt":["Ta San Giuacchin","Ta' San Gwakkin"],"lon":14.46583,"lat":35.88667,"pop":0},{"id":2562344,"name":"Ta’ San Girgor","alt":["Ta San Ghirgor","Ta' San Girgor"],"lon":14.53694,"lat":35.85278,"pop":0},{"id":2562342,"name":"Ta’ San Niklaw","alt":["Ta San Niclau","Ta' San Niklaw"],"lon":14.44167,"lat":35.83556,"pop":0},{"id":2562339,"name":"Ta’ Sardina","lon":14.28444,"lat":36.04583,"pop":0},{"id":2562320,"name":"Ta’ Xbiex","alt":["Ta' Shbiesh","Ta' Xbiex","Ta-Shbish","Tas Biesh","Tasbiesch","Ta’ Shbiesh","Та-Шбиш"],"lon":14.49444,"lat":35.89917,"pop":2012},{"id":2562471,"name":"Taċ-Ċawla","lon":14.24056,"lat":36.0375,"pop":0},{"id":2562472,"name":"Taċ-Ċawla","lon":14.48944,"lat":35.85694,"pop":0},{"id":2562463,"name":"Tad-Dawl","lon":14.47222,"lat":35.85083,"pop":0},{"id":2562461,"name":"Tad-Duluri","lon":14.49056,"lat":35.88778,"pop":0},{"id":2562460,"name":"Tad-Dwieli","lon":14.47639,"lat":35.88444,"pop":0},{"id":2562429,"name":"Tal-Bajjada","alt":["Tal Baiada"],"lon":14.42556,"lat":35.83722,"pop":0},{"id":2562425,"name":"Tal-Barmil","lon":14.255,"lat":36.04806,"pop":0},{"id":2562424,"name":"Tal-Barrani","lon":14.52028,"lat":35.85639,"pop":0},{"id":2562421,"name":"Tal-Blata","lon":14.39111,"lat":35.96389,"pop":0},{"id":2562420,"name":"Tal-Borġ","alt":["Tal Borj","Tal-Borg"],"lon":14.51472,"lat":35.87111,"pop":0},{"id":2562419,"name":"Tal-Faqqani","alt":["Tal Fakkani"],"lon":14.50111,"lat":35.86222,"pop":0},{"id":2562418,"name":"Tal-Fieres","lon":14.4825,"lat":35.84083,"pop":0},{"id":2562417,"name":"Tal-Franċiż","alt":["Tal Francis","Tal-Franciz"],"lon":14.48,"lat":35.91944,"pop":0},{"id":2562416,"name":"Tal-Fulija","lon":14.46222,"lat":35.83361,"pop":0},{"id":2562409,"name":"Tal-Għoqod","alt":["Tal Ghokod","Tal-Ghoqod"],"lon":14.48389,"lat":35.91778,"pop":0},{"id":2564528,"name":"Tal-Ħamra","lon":14.5325,"lat":35.87889,"pop":0},{"id":2562407,"name":"Tal-Ħamrija","lon":14.25389,"lat":36.03667,"pop":0},{"id":2562406,"name":"Tal-Ħandaq","alt":["Il Handak","Tal Handak","Tal-Handaq"],"lon":14.46806,"lat":35.87083,"pop":0},{"id":2562405,"name":"Tal-Ħawlija","alt":["Tal Haulija","Tal-Hawlija"],"lon":14.52889,"lat":35.87833,"pop":0},{"id":2562404,"name":"Tal-Ħlas","lon":14.45167,"lat":35.87306,"pop":0},{"id":2562401,"name":"Tal-Ħriereb","lon":14.48556,"lat":35.90056,"pop":0},{"id":2562398,"name":"Tal-Ibraġ","alt":["Tal-Ibrag"],"lon":14.46444,"lat":35.91556,"pop":0},{"id":2562391,"name":"Tal-Kittienija","alt":["Tal Chittienija"],"lon":14.46833,"lat":35.83694,"pop":0},{"id":2562388,"name":"Tal-Liebru","lon":14.49444,"lat":35.83472,"pop":0},{"id":2562387,"name":"Tal-Liedna","lon":14.51472,"lat":35.87389,"pop":0},{"id":2562384,"name":"Tal-Mejda","lon":14.46889,"lat":35.91611,"pop":0},{"id":2562383,"name":"Tal-Mentna","lon":14.46444,"lat":35.84278,"pop":0},{"id":2562381,"name":"Tal-Merħla","lon":14.34389,"lat":35.87889,"pop":0},{"id":2562380,"name":"Tal-Milord","lon":14.39833,"lat":35.92694,"pop":0},{"id":2565314,"name":"Tal-Mirakli","lon":14.43583,"lat":35.89611,"pop":0},{"id":2562378,"name":"Tal-Munxar","alt":["Tal-Munxiar"],"lon":14.56222,"lat":35.84944,"pop":0},{"id":2562375,"name":"Tal-Palazz l-Aħmar","lon":14.4725,"lat":35.88861,"pop":0},{"id":2562374,"name":"Tal-Papa","lon":14.52278,"lat":35.81778,"pop":0},{"id":2562373,"name":"Tal-Pitkal","alt":["Tal Pictal","Tal Pitcal"],"lon":14.37056,"lat":35.86,"pop":0},{"id":2564446,"name":"Tal-Qtates","lon":14.49278,"lat":35.86944,"pop":0},{"id":2562369,"name":"Tal-Veċċa","alt":["Tal Veccia","Tal Vechia","Tal-Vecca"],"lon":14.37694,"lat":35.85611,"pop":0},{"id":2565330,"name":"Tal’ Uai","lon":14.43611,"lat":35.91611,"pop":0},{"id":2562349,"name":"Tarxien","alt":["Casal Tarxien","Hal Tarxien","Tarscen","Tarshien","Tarshin","Tarsinas","Taršinas","Tirix","ta er xin","taleusin","tarshyn","tarshyyn","trzyn","Ħal Tarxien","Таршин","Таршіен","تارشیئن","تارشین","ترزین","塔爾欣","타르신"],"lon":14.515,"lat":35.86583,"pop":8627},{"id":2564381,"name":"Tas-Salib","lon":14.46722,"lat":35.89583,"pop":0},{"id":2562334,"name":"Tas-Salvatur","alt":["Ta Salvatur"],"lon":14.45194,"lat":35.85083,"pop":0},{"id":2562333,"name":"Tas-Samra","lon":14.49028,"lat":35.88444,"pop":0},{"id":2562332,"name":"Tas-Santi","lon":14.35639,"lat":35.90611,"pop":0},{"id":2562330,"name":"Tas-Sienja","alt":["Tas-Sinia","Tas-Sinja"],"lon":14.55972,"lat":35.86056,"pop":0},{"id":2562312,"name":"Taż-Żejt","lon":14.47,"lat":35.90583,"pop":0},{"id":2562305,"name":"Valletta","alt":["A Valeta","A Valletta","Baleta","Baletta","La Valet","La Valeta","La Valeto","La Valetta","La Valette","La Valletta","La Valèt","La Valëtta","La-Valeto","MLA","Vaileite","Valeta","Valetta","Valleta","Vallett","Valletta osh","Vallettae","Waleta","balleta","baretta","bhaleta","bhalletta","falyta","hua lie ta","valaita","valerra","valletta","vheleta","wa lai ta","wal let ta","walta","wlth","Ła Vałeta","Βαλέτα","Βαλέττα","Валета","Валлеттæ","Валлетта","Валлетта ош","Ла Валета","Վալետա","וואלעטא","ולטה","فاليتا","والتا","والیٹا","ولیٹا","ڤالێتا","भलेट","व्हॅलेटा","ভাল্লেত্তা","ਵਲੈਟਾ","வல்லெட்டா","വലേറ്റ","วัลเลตตา","ཝ་ལེ་ཐ།","ვალეტა","ቫሌታ","バレッタ","瓦莱塔","華列他","발레타"],"lon":14.5148,"lat":35.89968,"pop":6794},{"id":2562619,"name":"Victoria","alt":["Ir-Rabat","Rabat","Victoria Town","Victoria pa Gozo","Victoria på Gozo","Victòria","Viktori","Viktorija","Vittoria","bigtolia","wei duo li ya","wyktwrya  malt","wyqtwryh","Виктори","Виктория","Викторија","Вікторія","Рабат","ויקטוריה","وکٹوریہ، گوزو","ویکتوریا، مالت","ڤیکتۆریا، ماڵتا","維多利亞","빅토리아"],"lon":14.23972,"lat":36.04444,"pop":6596},{"id":2562966,"name":"Vittoriosa","alt":["Birgu","Il-Birgu","Vittorioza","Биргу","Витториоза"],"lon":14.51833,"lat":35.89222,"pop":2489},{"id":2562290,"name":"Wardija Crossroads","alt":["Wardia Cross Roads"],"lon":14.41111,"lat":35.93806,"pop":0},{"id":2562288,"name":"Wied Fulija","lon":14.4775,"lat":35.81833,"pop":0},{"id":2562287,"name":"Wied Għammieq","alt":["Ta Wied Ghammiek","Ta' Wied Ghammieq","Ta’ Wied Għammieq","Wied Ghammieq"],"lon":14.52944,"lat":35.89694,"pop":0},{"id":2562284,"name":"Wied l-Arkata","alt":["Il Gnien Nesciuf"],"lon":14.41444,"lat":35.92472,"pop":0},{"id":11856607,"name":"Wileg","lon":14.2023,"lat":36.05639,"pop":98},{"id":2562280,"name":"Xagħra","alt":["Caccia","Ix-Xaghra","Ix-Xagħra","Kacca","Kacha","Kaċċa","Shaghra","Xaghra"],"lon":14.26444,"lat":36.05,"pop":3680},{"id":11152670,"name":"Xemxija","lon":14.38033,"lat":35.94959,"pop":0},{"id":2562274,"name":"Xewkija","alt":["Ix-Xewkija","Seukidza","Showkiya","Xeuchia","shwkyt","shywkya","syeukiya","Šeukidža","شوكية","شیوکیا","셰우키야"],"lon":14.25806,"lat":36.03278,"pop":3303},{"id":2562273,"name":"Xgħajra","alt":["Ix-Xghara","Ix-Xgħara","Sh'ayra","Shghaira","Sh’ayra","Xghaira","Xghajra"],"lon":14.5475,"lat":35.88556,"pop":1830},{"id":6692380,"name":"Xlendi","alt":["Shlendi","Шленди"],"lon":14.21803,"lat":36.02883,"pop":120},{"id":2562268,"name":"Xrobb il-Għaġin","alt":["Xorb-il-Ghagin","Xrobb il-Ghagin"],"lon":14.56972,"lat":35.84056,"pop":0},{"id":2562266,"name":"Żabbar","alt":["Haz-Zabbar","Haż-Żabbar","Zabar","Zabaras","Zabbar","jabaleu","zabar","zha ba er","Ħaż-Żabbar","Забар","Заббар","زابار","扎巴爾","자바르"],"lon":14.535,"lat":35.87611,"pop":15648},{"id":2562260,"name":"Żebbuġ","alt":["Iz-Zebbug","Iz-Zebbug (Gozo)","Iż-Żebbuġ","Iż-Żebbuġ (Gozo)","Zebbug","Zebbug (Gozo)","Zebbuj","Zebudzas","Zebudžas","jebuji","zybwj  gwzw","Żebbuġ (Gozo)","زیبوج، گوزو","제부지"],"lon":14.23583,"lat":36.07222,"pop":1770},{"id":2562258,"name":"Żejtun","alt":["Casal Zeitun","Iz Zeitun","Iz-Zejtun","Iż-Żejtun","Zeitun","Zeitunas","Zeitūnas","Zejtun","jeitun","zi dun","zytwn  malt","Зейтун","Зејтун","زیتون، مالت","زیتون، مالٹا","زەیتوون، ماڵتا","榟橔","제이툰"],"lon":14.53306,"lat":35.85583,"pop":11549},{"id":2562254,"name":"Żonqor","alt":["Zonkor","Zonqor"],"lon":14.565,"lat":35.87083,"pop":0},{"id":2562250,"name":"Żurrieq","alt":["Casal Zurrico","Iz-Zurrieq","Iż-Żurrieq","Zebbudzh","Zouriek","Zurikas","Zurrico","Zurriek","Zurrieq","Zurrik","julikeu","zu li ge","zwryk","zwryq","zwryya","Ζουριέκ","Зеббудж","Зуррик","Зуррік","زوریئا","زوریق","زوریک","祖里格","주리크"],"lon":14.47417,"lat":35.83111,"pop":10962}]