[{"id":931920,"name":"Aaron","lon":34.21667,"lat":-12.75,"pop":0},{"id":931921,"name":"Aaron","lon":33.82912,"lat":-11.20442,"pop":0},{"id":12177815,"name":"Aaron Hara","lon":33.42004,"lat":-11.99456,"pop":0},{"id":12177629,"name":"Aaron Jere","lon":33.60336,"lat":-11.30957,"pop":0},{"id":12177451,"name":"Aaron Makwakwa","lon":33.66372,"lat":-11.19178,"pop":0},{"id":931919,"name":"Abel Chunga","lon":33.49184,"lat":-12.16747,"pop":0},{"id":931918,"name":"Abele","lon":33.66667,"lat":-14.13333,"pop":0},{"id":931917,"name":"Abindanjoke","lon":33.9,"lat":-13.4,"pop":0},{"id":931916,"name":"Abisai","lon":34.46667,"lat":-13.78333,"pop":0},{"id":12185127,"name":"Abiyatu","lon":33.0936,"lat":-13.75839,"pop":0},{"id":931915,"name":"Abraham","lon":33.17007,"lat":-13.65751,"pop":0},{"id":12185215,"name":"Abraham","lon":33.34567,"lat":-13.78463,"pop":0},{"id":12177408,"name":"Absolomu Ngulube","lon":33.38858,"lat":-11.43513,"pop":0},{"id":931914,"name":"Abute","lon":33.1,"lat":-13.75,"pop":0},{"id":12185026,"name":"Abuyuti","lon":33.06249,"lat":-13.67441,"pop":0},{"id":12169981,"name":"Adam Musukwa","lon":33.63683,"lat":-9.72116,"pop":0},{"id":235771,"name":"Adam Mwamkumbwa","alt":["Adam"],"lon":33.21835,"lat":-9.51159,"pop":0},{"id":926187,"name":"Adamu Mphonde","alt":["Mphande","Nphonde"],"lon":33.28449,"lat":-13.52789,"pop":0},{"id":931913,"name":"Agabu","lon":34.75619,"lat":-14.59657,"pop":0},{"id":931912,"name":"Agamonje","lon":33.86192,"lat":-13.51063,"pop":0},{"id":931910,"name":"Agrippa Jere","lon":33.35318,"lat":-11.4314,"pop":0},{"id":12183559,"name":"Akimu","lon":33.81874,"lat":-13.45275,"pop":0},{"id":931909,"name":"Akoyo","lon":33.91406,"lat":-11.0257,"pop":0},{"id":931908,"name":"Akubilila","lon":34.80197,"lat":-14.74521,"pop":0},{"id":931907,"name":"Alamu","lon":33.45,"lat":-12.56667,"pop":0},{"id":931906,"name":"Alexander Liti","lon":35.41667,"lat":-15.33333,"pop":0},{"id":931901,"name":"Ali Kanyenda","lon":34.26667,"lat":-12.96667,"pop":0},{"id":931905,"name":"Alick Chisi","alt":["Alick Cisi"],"lon":33.61194,"lat":-11.93326,"pop":0},{"id":12183038,"name":"Alick Mafuleka","lon":33.68814,"lat":-12.54899,"pop":0},{"id":12182561,"name":"Alick Malepa Manda","lon":33.43503,"lat":-12.20777,"pop":0},{"id":12169988,"name":"Alick Mponda","lon":33.64278,"lat":-9.6557,"pop":0},{"id":12170009,"name":"Alick Mponda","lon":33.7339,"lat":-9.65241,"pop":0},{"id":12182706,"name":"Alick Mziya","lon":33.53268,"lat":-12.38971,"pop":0},{"id":931903,"name":"Alick Ndabandaba","alt":["Alick Ndawandawa"],"lon":33.56552,"lat":-11.97773,"pop":0},{"id":12177744,"name":"Alick Ngwira","lon":33.94915,"lat":-11.36908,"pop":0},{"id":931902,"name":"Alifandaka","lon":35.08333,"lat":-17.06667,"pop":0},{"id":12177644,"name":"Alifeyo Bota","lon":33.45674,"lat":-11.21706,"pop":0},{"id":12182596,"name":"Alifeyo Jere","lon":33.46287,"lat":-12.19854,"pop":0},{"id":12182664,"name":"Alifeyo Jere","lon":33.53366,"lat":-12.15252,"pop":0},{"id":12182667,"name":"Alifeyo Moyo","lon":33.51208,"lat":-12.18088,"pop":0},{"id":12177499,"name":"Alifeyo Nyasulu","lon":33.70171,"lat":-11.16528,"pop":0},{"id":12185250,"name":"Alikisando","lon":33.25866,"lat":-13.88221,"pop":0},{"id":931900,"name":"Alikishani","lon":33.66667,"lat":-12.68333,"pop":0},{"id":931899,"name":"Alimenda","lon":34.66936,"lat":-16.22373,"pop":0},{"id":931896,"name":"Alufasi","lon":34.91667,"lat":-16.48333,"pop":0},{"id":931897,"name":"Alufasi","lon":34.95,"lat":-16.46667,"pop":0},{"id":12177676,"name":"Alufeyo Nyoni","lon":33.76152,"lat":-11.36852,"pop":0},{"id":931895,"name":"Alumenda","lon":34.71667,"lat":-16.2,"pop":0},{"id":12185135,"name":"Amania","lon":33.08521,"lat":-13.8089,"pop":0},{"id":931894,"name":"Amazi","lon":33.37539,"lat":-12.75728,"pop":0},{"id":931893,"name":"Ambale Phaso","lon":34.17015,"lat":-12.57998,"pop":0},{"id":931892,"name":"Amenta","lon":33.98333,"lat":-14.2,"pop":0},{"id":931889,"name":"Amon","lon":33.86667,"lat":-13.36667,"pop":0},{"id":12169647,"name":"Amon Kameme","lon":33.16314,"lat":-9.56565,"pop":0},{"id":12182573,"name":"Amon Lungu","lon":33.48829,"lat":-12.15011,"pop":0},{"id":931886,"name":"Amon Munthali","lon":33.49478,"lat":-11.34498,"pop":0},{"id":12169962,"name":"Amon Musukwa","lon":33.55543,"lat":-9.69124,"pop":0},{"id":12177824,"name":"Amon Nyirongo","lon":33.46454,"lat":-11.97649,"pop":0},{"id":12182553,"name":"Amon Phiri","lon":33.45633,"lat":-12.23945,"pop":0},{"id":931888,"name":"Amoni","lon":33.91667,"lat":-12.2,"pop":0},{"id":12178035,"name":"Amoni Moyo","lon":33.63057,"lat":-11.94145,"pop":0},{"id":12177856,"name":"Amoni Mvula","lon":33.44337,"lat":-11.86363,"pop":0},{"id":931887,"name":"Amonis","lon":33.58333,"lat":-13.18333,"pop":0},{"id":12182969,"name":"Amos Jere","lon":33.57335,"lat":-12.57282,"pop":0},{"id":931885,"name":"Amos Zakocera","lon":33.46667,"lat":-13.11667,"pop":0},{"id":12170079,"name":"Amosi Mwenechilanga","lon":33.56231,"lat":-9.89601,"pop":0},{"id":12170082,"name":"Amosi Mwenechilanga","lon":33.58864,"lat":-9.90136,"pop":0},{"id":931883,"name":"Andama","lon":33.2328,"lat":-13.65661,"pop":0},{"id":12177721,"name":"Anderson Mkandawire","lon":33.94647,"lat":-11.41219,"pop":0},{"id":12169957,"name":"Andrea Musukwa","lon":33.57318,"lat":-9.64882,"pop":0},{"id":931882,"name":"Andreya","lon":34.1,"lat":-14.43333,"pop":0},{"id":12177450,"name":"Andreya Kumwenda","lon":33.65685,"lat":-11.15707,"pop":0},{"id":12169998,"name":"Angetile Mughona","lon":33.65658,"lat":-9.62525,"pop":0},{"id":931880,"name":"Anoki Mkhere","lon":33.68333,"lat":-11.85,"pop":0},{"id":931879,"name":"Antonio","lon":33.23333,"lat":-13.85,"pop":0},{"id":12182550,"name":"Aramu Mhone","lon":33.42233,"lat":-12.22756,"pop":0},{"id":11467744,"name":"Area 1","lon":33.77271,"lat":-14.00119,"pop":0},{"id":11281902,"name":"Area 18","lon":33.76596,"lat":-13.94169,"pop":0},{"id":11237674,"name":"Area 21","lon":33.81115,"lat":-13.99375,"pop":0},{"id":11205198,"name":"Area 22","lon":33.7991,"lat":-14.01161,"pop":0},{"id":11205660,"name":"Area 23","lon":33.79409,"lat":-14.01676,"pop":0},{"id":11205128,"name":"Area 24","lon":33.79561,"lat":-14.02602,"pop":0},{"id":11204663,"name":"Area 25","lon":33.72425,"lat":-13.87953,"pop":0},{"id":11205559,"name":"Area 36","lon":33.7847,"lat":-14.0226,"pop":0},{"id":11205221,"name":"Area 44","lon":33.85257,"lat":-13.96072,"pop":0},{"id":11281453,"name":"Area 47","lon":33.75481,"lat":-13.95814,"pop":0},{"id":11204895,"name":"Area 49","lon":33.74674,"lat":-13.9209,"pop":0},{"id":11353057,"name":"Area 50","lon":33.77011,"lat":-13.90955,"pop":0},{"id":11205479,"name":"Area 55","lon":33.76313,"lat":-13.83433,"pop":0},{"id":11205594,"name":"Area 57","lon":33.70217,"lat":-14.01056,"pop":0},{"id":11280411,"name":"Area 7","lon":33.798,"lat":-13.987,"pop":0},{"id":235770,"name":"Arfairyu","lon":33.33333,"lat":-9.61667,"pop":0},{"id":12170325,"name":"Aron Kaira","lon":33.63016,"lat":-10.2073,"pop":0},{"id":12169983,"name":"Arthur Musukwa","lon":33.66685,"lat":-9.72726,"pop":0},{"id":11775704,"name":"Asayile Nyondo","lon":33.35964,"lat":-9.66202,"pop":0},{"id":931878,"name":"Asembe","lon":33.74143,"lat":-13.68189,"pop":0},{"id":931877,"name":"Augustino","lon":34.31667,"lat":-13.08333,"pop":0},{"id":931875,"name":"Austeni","lon":34.9075,"lat":-14.76667,"pop":0},{"id":931873,"name":"Azimbare","lon":33.7,"lat":-14.25,"pop":0},{"id":931872,"name":"Azyuda","lon":34.75,"lat":-16.16667,"pop":0},{"id":931812,"name":"Baba Banda","alt":["Bawa Banda"],"lon":33.33306,"lat":-12.15317,"pop":0},{"id":12182504,"name":"Baba Banda","lon":33.36645,"lat":-12.14073,"pop":0},{"id":931871,"name":"Baghaya","lon":33.92545,"lat":-10.98583,"pop":0},{"id":12182484,"name":"Baghaya Mhango","lon":34.21071,"lat":-10.75298,"pop":0},{"id":931870,"name":"Bakali","lon":35.41843,"lat":-14.6674,"pop":0},{"id":931869,"name":"Bakhili","lon":35.82351,"lat":-14.68526,"pop":0},{"id":931868,"name":"Bakile","lon":35.16667,"lat":-13.98333,"pop":0},{"id":12177899,"name":"Bala Katazuka","lon":33.79819,"lat":-11.56367,"pop":0},{"id":931865,"name":"Balaka","alt":["Balakas","Palaka","Балака"],"lon":34.95575,"lat":-14.97928,"pop":18902},{"id":931866,"name":"Balaka","lon":35.5,"lat":-14.96667,"pop":0},{"id":931864,"name":"Balakas","lon":34.86611,"lat":-14.91995,"pop":0},{"id":931862,"name":"Balakasi","lon":35.35,"lat":-15.48333,"pop":0},{"id":931861,"name":"Balala","lon":34.95,"lat":-16.45,"pop":0},{"id":12185680,"name":"Balangombe","lon":33.94031,"lat":-13.87096,"pop":0},{"id":12182415,"name":"Bale","lon":34.10721,"lat":-10.81642,"pop":0},{"id":12182574,"name":"Baleni Jere","lon":33.46959,"lat":-12.22155,"pop":0},{"id":12170543,"name":"Bamantha","lon":33.75288,"lat":-10.93608,"pop":0},{"id":12170644,"name":"Bamantha","lon":33.74468,"lat":-10.93858,"pop":0},{"id":931855,"name":"Bana","lon":34.12119,"lat":-12.405,"pop":0},{"id":931851,"name":"Banda","lon":34.9,"lat":-14.83333,"pop":0},{"id":931852,"name":"Banda","lon":33.63333,"lat":-12.85,"pop":0},{"id":931853,"name":"Banda","lon":33.67597,"lat":-12.63667,"pop":0},{"id":931846,"name":"Bandawe","lon":34.59516,"lat":-13.69561,"pop":0},{"id":931847,"name":"Bandawe","lon":34.59514,"lat":-13.68567,"pop":0},{"id":931848,"name":"Bandawe","alt":["Old Bandawe Church"],"lon":34.14902,"lat":-11.87429,"pop":0},{"id":12177595,"name":"Bandawe Luhanga","lon":33.56472,"lat":-11.43472,"pop":0},{"id":931842,"name":"Bande","lon":33.95,"lat":-13.45,"pop":0},{"id":931841,"name":"Bang","lon":34.28333,"lat":-13.21667,"pop":0},{"id":931837,"name":"Bangani","lon":34.61667,"lat":-14.23333,"pop":0},{"id":931834,"name":"Bango","lon":34.02801,"lat":-14.35873,"pop":0},{"id":931835,"name":"Bango","lon":33.41667,"lat":-12.55,"pop":0},{"id":7839220,"name":"Bangula","lon":35.12483,"lat":-16.58194,"pop":0},{"id":7840046,"name":"Bangwe","lon":35.10059,"lat":-15.82263,"pop":0},{"id":931826,"name":"Bani","lon":34.13333,"lat":-14.41667,"pop":0},{"id":931825,"name":"Banja","lon":34,"lat":-13.21667,"pop":0},{"id":931823,"name":"Bano","lon":33.53333,"lat":-13.11667,"pop":0},{"id":931822,"name":"Baquira","lon":35.18333,"lat":-13.9,"pop":0},{"id":12183020,"name":"Bartimeyo Nhlane","lon":33.68583,"lat":-12.6054,"pop":0},{"id":12177666,"name":"Barton Juba","lon":33.86098,"lat":-11.34883,"pop":0},{"id":931819,"name":"Barton Nzima","alt":["Barton Mzima"],"lon":33.80283,"lat":-11.22749,"pop":0},{"id":931818,"name":"Bartumeyo Tembo","lon":33.41132,"lat":-12.14715,"pop":0},{"id":12169945,"name":"Basaleghe Kanjere","lon":33.50621,"lat":-9.65587,"pop":0},{"id":931815,"name":"Basikolo","lon":33.61667,"lat":-12.15,"pop":0},{"id":931814,"name":"Basopo Lungu","lon":33.43454,"lat":-11.76506,"pop":0},{"id":12185143,"name":"Batolomeyo","lon":33.0907,"lat":-13.86529,"pop":0},{"id":12177687,"name":"Baula","lon":33.77969,"lat":-11.42698,"pop":0},{"id":12178051,"name":"Bauleni Sibande","lon":33.64417,"lat":-11.7669,"pop":0},{"id":12177960,"name":"Bayane Munyenyembe","lon":33.73186,"lat":-11.70211,"pop":0},{"id":12177795,"name":"Bayiwelo Zulu","lon":33.98097,"lat":-11.43539,"pop":0},{"id":931806,"name":"Bechani","lon":33.03333,"lat":-13.88333,"pop":0},{"id":931807,"name":"Bechani","lon":33.39623,"lat":-12.55981,"pop":0},{"id":12185381,"name":"Bechani","lon":33.44143,"lat":-13.76905,"pop":0},{"id":931804,"name":"Belekia","lon":33.83333,"lat":-12.16667,"pop":0},{"id":931805,"name":"Belekia","lon":33.81667,"lat":-12.16667,"pop":0},{"id":927438,"name":"Bembe","lon":33.62705,"lat":-10.92805,"pop":0},{"id":931799,"name":"Bemberi","lon":33.53333,"lat":-13.76667,"pop":0},{"id":12183055,"name":"Bemisa Chirwa","lon":33.76115,"lat":-12.62384,"pop":0},{"id":12183059,"name":"Bemisa Chirwa","lon":33.80748,"lat":-12.67332,"pop":0},{"id":931797,"name":"Ben","lon":33.73904,"lat":-14.37774,"pop":0},{"id":931795,"name":"Benga","lon":33.95649,"lat":-13.5213,"pop":0},{"id":931796,"name":"Benga","lon":34.28566,"lat":-13.36077,"pop":0},{"id":931794,"name":"Beni","lon":33.25634,"lat":-13.67962,"pop":0},{"id":12177828,"name":"Benjamin Zimba","lon":33.41891,"lat":-11.96729,"pop":0},{"id":12185168,"name":"Benjamini","lon":33.11641,"lat":-13.88098,"pop":0},{"id":12177853,"name":"Benkashombe","lon":33.40043,"lat":-11.85357,"pop":0},{"id":12177872,"name":"Benkashombe","lon":33.39276,"lat":-11.83136,"pop":0},{"id":12170418,"name":"Benthu","lon":33.61021,"lat":-10.29402,"pop":0},{"id":931793,"name":"Benula","lon":33.54885,"lat":-12.73864,"pop":0},{"id":931791,"name":"Besera","lon":33.87881,"lat":-13.65831,"pop":0},{"id":931789,"name":"Biambiri Mramu","lon":33.7241,"lat":-11.46366,"pop":0},{"id":931787,"name":"Bibi","lon":34.41667,"lat":-13.76667,"pop":0},{"id":931788,"name":"Bibi","lon":34.53333,"lat":-13.61667,"pop":0},{"id":12177819,"name":"Bichi Chiswa Mumba","lon":33.47249,"lat":-11.99662,"pop":0},{"id":12177823,"name":"Bichi Chiswa Mumba","lon":33.45935,"lat":-11.99138,"pop":0},{"id":12177663,"name":"Bichi Moyo","lon":33.81721,"lat":-11.34031,"pop":0},{"id":931785,"name":"Bikivai","lon":33.20349,"lat":-13.52109,"pop":0},{"id":931784,"name":"Bilale","lon":33.38104,"lat":-13.05048,"pop":0},{"id":931783,"name":"Bile","lon":34.86667,"lat":-16.41667,"pop":0},{"id":931778,"name":"Billiate","alt":["Billiati"],"lon":34.6,"lat":-15.05,"pop":0},{"id":931777,"name":"Bimbi","lon":35.48333,"lat":-15.3,"pop":0},{"id":931774,"name":"Bimpi","lon":33.999,"lat":-13.64157,"pop":0},{"id":12183555,"name":"Binda","lon":33.76734,"lat":-13.49387,"pop":0},{"id":12183580,"name":"Bingamvula","lon":33.87869,"lat":-13.42818,"pop":0},{"id":931773,"name":"Bingo","lon":34.41667,"lat":-13.76667,"pop":0},{"id":12185204,"name":"Bintoni","lon":33.35211,"lat":-13.7611,"pop":0},{"id":931769,"name":"Bisa","lon":33.95,"lat":-13.46667,"pop":0},{"id":931770,"name":"Bisa Banda","alt":["Bisa"],"lon":33.83929,"lat":-12.4587,"pop":0},{"id":931767,"name":"Bisai","lon":33.95784,"lat":-14.1953,"pop":0},{"id":931766,"name":"Bisenti","lon":35.3,"lat":-16.98333,"pop":0},{"id":931765,"name":"Bitchilipa","lon":34.93333,"lat":-14.71667,"pop":0},{"id":931764,"name":"Biti Kalanje","lon":35.23819,"lat":-14.25932,"pop":0},{"id":931763,"name":"Bitoni Karuwa","lon":33.4,"lat":-12.13333,"pop":0},{"id":931761,"name":"Biwi","lon":33.96667,"lat":-14.18333,"pop":0},{"id":931762,"name":"Biwi","lon":34.05969,"lat":-13.38423,"pop":0},{"id":12183494,"name":"Biwi","lon":33.78987,"lat":-13.2173,"pop":0},{"id":931760,"name":"Biwi Mzamba","alt":["Biwi Mazamba"],"lon":33.73333,"lat":-14.13333,"pop":0},{"id":931756,"name":"Blair","lon":35.12596,"lat":-16.07529,"pop":0},{"id":931755,"name":"Blantyre","alt":["BLZ","Blantair","Blantairas","Blantajer","Blantajr","Blantajur","Blantire","Blantjiro","Blantyre-Limbe","Kapeni","beullaentaieo","blamtayara","blantayr","blantayr  malawy","blantyyr","blntyyr","bu lan tai er","burantaiya","Μπλαντάιρ","Блантайр","Блантайър","Блантајер","בלנטייר","بلانتاير","بلانتایر، مالاوی","بلانتیئر","ब्लँटायर","ブランタイヤ","布兰太尔","블랜타이어"],"lon":35.00854,"lat":-15.78499,"pop":584877},{"id":12177778,"name":"Bob Mkandawire","lon":33.96881,"lat":-11.4077,"pop":0},{"id":931751,"name":"Boghoyo","lon":34.2252,"lat":-11.10226,"pop":0},{"id":12178006,"name":"Bokola","lon":33.53244,"lat":-11.8313,"pop":0},{"id":931750,"name":"Bokosi","lon":33.39694,"lat":-12.59839,"pop":0},{"id":931747,"name":"Bokosi Hunga","alt":["Bokosi Kunga"],"lon":33.68364,"lat":-11.9903,"pop":0},{"id":931748,"name":"Bokosi Kunga","lon":33.66667,"lat":-11.96667,"pop":0},{"id":931749,"name":"Bokosi Ndindi","alt":["Bokosi Dindi"],"lon":33.50712,"lat":-11.93049,"pop":0},{"id":931746,"name":"Bolero","lon":33.74137,"lat":-10.97653,"pop":0},{"id":12182524,"name":"Boli Nyirenda","lon":33.35989,"lat":-12.16619,"pop":0},{"id":12182564,"name":"Boli Nyirenda","lon":33.38676,"lat":-12.18161,"pop":0},{"id":12182385,"name":"Bombo","lon":34.18851,"lat":-10.69742,"pop":0},{"id":931745,"name":"Bomombo","lon":33.64489,"lat":-12.7371,"pop":0},{"id":931739,"name":"Bondo","lon":33.54249,"lat":-13.15132,"pop":0},{"id":931740,"name":"Bondo","lon":33.55,"lat":-13.11667,"pop":0},{"id":931741,"name":"Bondo","lon":33.76528,"lat":-12.89169,"pop":0},{"id":931742,"name":"Bondo","lon":34.01839,"lat":-12.30912,"pop":0},{"id":931743,"name":"Bondo","lon":33.96847,"lat":-12.29925,"pop":0},{"id":931744,"name":"Bondo","alt":["Bonda"],"lon":33.328,"lat":-13.65384,"pop":0},{"id":931737,"name":"Bonga","lon":34.53033,"lat":-14.60808,"pop":0},{"id":931735,"name":"Bongera","lon":33.04373,"lat":-13.7614,"pop":0},{"id":12177883,"name":"Bongobongo Wayenga","lon":33.4723,"lat":-11.76393,"pop":0},{"id":12170659,"name":"Bongololo","lon":33.71988,"lat":-10.97542,"pop":0},{"id":931733,"name":"Bongoya Msimuko","alt":["Bongoya"],"lon":33.39439,"lat":-12.16501,"pop":0},{"id":931732,"name":"Bongwe","lon":35.41667,"lat":-15.45,"pop":0},{"id":931731,"name":"Boni Kumwenda","alt":["Boni"],"lon":33.51306,"lat":-12.48847,"pop":0},{"id":931730,"name":"Bonongwe","lon":35.22284,"lat":-15.99725,"pop":0},{"id":931728,"name":"Bota","lon":33.40108,"lat":-11.26679,"pop":0},{"id":931726,"name":"Boti","lon":33.80462,"lat":-12.99954,"pop":0},{"id":931727,"name":"Boti","lon":33.50964,"lat":-11.6073,"pop":0},{"id":928130,"name":"Boti Kumwenda","alt":["Kumwenda"],"lon":33.53217,"lat":-11.63061,"pop":0},{"id":931725,"name":"Boti Kumwenda","lon":33.47992,"lat":-11.56064,"pop":0},{"id":931723,"name":"Bowa","lon":33.75,"lat":-13.78333,"pop":0},{"id":931724,"name":"Bowa","lon":34.12185,"lat":-12.53548,"pop":0},{"id":12183259,"name":"Bowa","lon":33.17748,"lat":-13.43906,"pop":0},{"id":12177509,"name":"Bowe","lon":33.68665,"lat":-11.10159,"pop":0},{"id":931720,"name":"Bowmande","lon":33.67812,"lat":-13.73199,"pop":0},{"id":12182868,"name":"Bozo","lon":33.49851,"lat":-12.71809,"pop":0},{"id":12185251,"name":"Bratomeyo","lon":33.2512,"lat":-13.89784,"pop":0},{"id":931713,"name":"Budu","lon":35.6,"lat":-14.5,"pop":0},{"id":931712,"name":"Buku","lon":33.39249,"lat":-12.80534,"pop":0},{"id":931711,"name":"Bula","lon":34.7712,"lat":-14.86491,"pop":0},{"id":931710,"name":"Bulala","lon":33.44657,"lat":-11.67769,"pop":0},{"id":12170693,"name":"Bulawala Mkandawire","lon":33.95836,"lat":-10.96894,"pop":0},{"id":931707,"name":"Buluzi","lon":33.78019,"lat":-14.05212,"pop":0},{"id":931705,"name":"Bumba","lon":33.83333,"lat":-11.01667,"pop":0},{"id":931703,"name":"Bumphula","alt":["Bumphola"],"lon":33.93754,"lat":-13.14655,"pop":0},{"id":12182247,"name":"Bundi","lon":34.17203,"lat":-10.48906,"pop":0},{"id":12182401,"name":"Bundi","lon":34.1767,"lat":-10.50514,"pop":0},{"id":12177427,"name":"Bundi Chisokwe Mswaya","lon":33.40604,"lat":-11.365,"pop":0},{"id":12185606,"name":"Bundu","lon":33.86973,"lat":-13.76187,"pop":0},{"id":12182335,"name":"Bunga","lon":34.17342,"lat":-10.74541,"pop":0},{"id":931696,"name":"Bunganiro","lon":34.07786,"lat":-10.29348,"pop":0},{"id":12185443,"name":"Buno","lon":33.57754,"lat":-13.62191,"pop":0},{"id":931690,"name":"Bunyenga","lon":34.76602,"lat":-14.78576,"pop":0},{"id":931688,"name":"Burnett","alt":["Gotangota"],"lon":35.82206,"lat":-15.29575,"pop":0},{"id":931687,"name":"Butani","lon":34.26359,"lat":-11.36657,"pop":0},{"id":931686,"name":"Butani Nyirenda","lon":33.58333,"lat":-11.16667,"pop":0},{"id":931685,"name":"Butari","lon":34.20847,"lat":-11.16752,"pop":0},{"id":12183651,"name":"Buzi","lon":33.91932,"lat":-13.34032,"pop":0},{"id":12185398,"name":"Bvimango","lon":33.49378,"lat":-13.7962,"pop":0},{"id":923471,"name":"Bvizimba","alt":["Vizimba"],"lon":33.35723,"lat":-13.84184,"pop":0},{"id":7840048,"name":"Bvumbwe","lon":35.06667,"lat":-15.91667,"pop":0},{"id":12185482,"name":"Bvumo Kazoma","lon":33.69331,"lat":-13.59225,"pop":0},{"id":12185362,"name":"Bvunguti","lon":33.41698,"lat":-13.79943,"pop":0},{"id":12185541,"name":"Bvunguti","lon":33.78041,"lat":-13.86989,"pop":0},{"id":12185546,"name":"Bvunguti","lon":33.75997,"lat":-13.8936,"pop":0},{"id":931677,"name":"Bwala","lon":34.11667,"lat":-13.31667,"pop":0},{"id":931676,"name":"Bwamba","lon":33.75,"lat":-14.01667,"pop":0},{"id":12177679,"name":"Bwambwa","lon":33.80247,"lat":-11.39346,"pop":0},{"id":931675,"name":"Bwanaisa","lon":35.63424,"lat":-15.82422,"pop":0},{"id":931673,"name":"Bwanali","lon":35.34286,"lat":-14.58428,"pop":0},{"id":931674,"name":"Bwanali","lon":33.49498,"lat":-13.11604,"pop":0},{"id":12182673,"name":"Bwanali Mkhalipi","lon":33.52626,"lat":-12.20326,"pop":0},{"id":12183025,"name":"Bwanamudoko Mgemezulu","lon":33.66731,"lat":-12.58161,"pop":0},{"id":931671,"name":"Bwanasompho","lon":34.91374,"lat":-15.79348,"pop":0},{"id":931668,"name":"Bwanthuwa","lon":34.20711,"lat":-11.47451,"pop":0},{"id":931667,"name":"Bwatalika","lon":33.56667,"lat":-13.98333,"pop":0},{"id":12170665,"name":"Bwati","lon":33.74806,"lat":-10.98273,"pop":0},{"id":12170547,"name":"Bwati Gondwe","lon":33.7556,"lat":-10.97275,"pop":0},{"id":12178126,"name":"Bwelero","lon":34.29507,"lat":-11.63226,"pop":0},{"id":931666,"name":"Bwemba","lon":34.91667,"lat":-16.41667,"pop":0},{"id":12185023,"name":"Bwemba","lon":33.03459,"lat":-13.65288,"pop":0},{"id":931665,"name":"Bwengu","lon":33.9158,"lat":-11.06476,"pop":0},{"id":931664,"name":"Bweteka","alt":["Bweteka Village","Bwetweha"],"lon":34.21689,"lat":-11.27494,"pop":0},{"id":12185517,"name":"Bwetu","lon":33.74534,"lat":-13.73308,"pop":0},{"id":931663,"name":"Bweya","lon":33.61164,"lat":-13.26066,"pop":0},{"id":12170226,"name":"Bwiba","lon":33.89632,"lat":-9.94961,"pop":0},{"id":931662,"name":"Bwikito","lon":34.27102,"lat":-11.42837,"pop":0},{"id":931659,"name":"Cabwedzeka","lon":34.6,"lat":-16.11667,"pop":0},{"id":931658,"name":"Cacecedza","lon":34.18737,"lat":-14.38543,"pop":0},{"id":931657,"name":"Cadzowa","lon":33.51667,"lat":-13.83333,"pop":0},{"id":931655,"name":"Caera","lon":35.4,"lat":-15.7,"pop":0},{"id":931656,"name":"Caera","lon":34.33333,"lat":-14.1,"pop":0},{"id":931652,"name":"Cagweluka","lon":33.51423,"lat":-12.95017,"pop":0},{"id":931648,"name":"Cakulembera","lon":34.61263,"lat":-15.30275,"pop":0},{"id":931646,"name":"Cakuzizwa","lon":33.51667,"lat":-12.55,"pop":0},{"id":931639,"name":"Camama","lon":33.55,"lat":-12.9,"pop":0},{"id":931621,"name":"Caola","lon":33.38011,"lat":-12.76899,"pop":0},{"id":931618,"name":"Cape Maclear","lon":34.85,"lat":-14.01667,"pop":0},{"id":931615,"name":"Capuka","lon":35.55,"lat":-14.7,"pop":0},{"id":235768,"name":"Cardi","lon":33.56667,"lat":-9.61667,"pop":0},{"id":931613,"name":"Casamwalala","lon":34.33877,"lat":-13.65573,"pop":0},{"id":931611,"name":"Cassapa","lon":34.61667,"lat":-15.63333,"pop":0},{"id":931608,"name":"Cavura","lon":33.63883,"lat":-12.81894,"pop":0},{"id":931607,"name":"Cavwelema","lon":33.68333,"lat":-12.8,"pop":0},{"id":931606,"name":"Cawala","lon":32.9461,"lat":-13.59133,"pop":0},{"id":931605,"name":"Cawanje","lon":34.82651,"lat":-14.64516,"pop":0},{"id":931600,"name":"Celemu","lon":34.99659,"lat":-14.80384,"pop":0},{"id":931599,"name":"Cendesula","lon":33.98333,"lat":-12.31667,"pop":0},{"id":931596,"name":"Cesalino","lon":34.27944,"lat":-13.70375,"pop":0},{"id":931593,"name":"Chabuka","lon":33.87669,"lat":-13.39514,"pop":0},{"id":931391,"name":"Chabvinda","alt":["Charinda"],"lon":33.3064,"lat":-13.6113,"pop":0},{"id":12185206,"name":"Chabvunga Two","alt":["Chabvunga II"],"lon":33.29066,"lat":-13.76825,"pop":0},{"id":931609,"name":"Chabvunguma","alt":["Cavunguma"],"lon":33.35305,"lat":-12.81232,"pop":0},{"id":931592,"name":"Chabwela","lon":35.44125,"lat":-14.94267,"pop":0},{"id":931591,"name":"Chabwera","lon":33.03333,"lat":-13.88333,"pop":0},{"id":931588,"name":"Chadagha","lon":34.27635,"lat":-11.52066,"pop":0},{"id":931589,"name":"Chadagha","lon":34.27581,"lat":-11.50898,"pop":0},{"id":931590,"name":"Chadagha","lon":34.26149,"lat":-11.48957,"pop":0},{"id":931587,"name":"Chadika","lon":33.88173,"lat":-14.30057,"pop":0},{"id":931585,"name":"Chadza","lon":33.37975,"lat":-14.09818,"pop":0},{"id":931586,"name":"Chadza","lon":33.88228,"lat":-13.73263,"pop":0},{"id":12185393,"name":"Chadza","lon":33.46614,"lat":-13.76744,"pop":0},{"id":931584,"name":"Chadza Mkwenda","alt":["Chadza","Chadza Nkhwenda"],"lon":33.84286,"lat":-14.15704,"pop":0},{"id":931339,"name":"Chadzuka","alt":["Chazuka"],"lon":34.17658,"lat":-12.45402,"pop":0},{"id":931583,"name":"Chadzuka","alt":["Casuka"],"lon":33.31245,"lat":-14.02572,"pop":0},{"id":12185059,"name":"Chadzuma","lon":33.2159,"lat":-13.64329,"pop":0},{"id":12182621,"name":"Chafisi","lon":33.49275,"lat":-12.27546,"pop":0},{"id":931580,"name":"Chafudzika","lon":34.65,"lat":-16.13333,"pop":0},{"id":931579,"name":"Chafukira","lon":33.5,"lat":-12.78333,"pop":0},{"id":12185014,"name":"Chafulumila","lon":33.06529,"lat":-13.59422,"pop":0},{"id":12183295,"name":"Chafumbulura","lon":33.29926,"lat":-13.31982,"pop":0},{"id":931577,"name":"Chafumbwa","alt":["Capuhkwa"],"lon":33.93973,"lat":-14.37353,"pop":0},{"id":931576,"name":"Chafumukwa","lon":33.08333,"lat":-13.51667,"pop":0},{"id":12183267,"name":"Chafuwa","lon":33.06338,"lat":-13.43839,"pop":0},{"id":931654,"name":"Chafwamba Moyo","alt":["Cafwamba"],"lon":33.30747,"lat":-12.87962,"pop":0},{"id":12183630,"name":"Chagalawanda","lon":33.95071,"lat":-13.42389,"pop":0},{"id":931573,"name":"Chagambatuka","lon":34.89944,"lat":-16.12256,"pop":0},{"id":931572,"name":"Chagocha","lon":33.13333,"lat":-13.63333,"pop":0},{"id":931571,"name":"Chagogo","lon":33.83333,"lat":-14.06667,"pop":0},{"id":12182259,"name":"Chagoma","lon":34.11788,"lat":-10.44654,"pop":0},{"id":12178141,"name":"Chagowo","lon":34.13705,"lat":-11.93309,"pop":0},{"id":931570,"name":"Chaguza","lon":33.86542,"lat":-13.56406,"pop":0},{"id":931569,"name":"Chagwalugwa","lon":34.08333,"lat":-14.45,"pop":0},{"id":931568,"name":"Chagwambala","lon":33.69668,"lat":-10.24585,"pop":0},{"id":931565,"name":"Chaima","lon":33.2986,"lat":-13.4335,"pop":0},{"id":931566,"name":"Chaima","lon":33.48368,"lat":-13.3028,"pop":0},{"id":12185623,"name":"Chaima","lon":33.89366,"lat":-13.81849,"pop":0},{"id":12185326,"name":"Chaipa","lon":33.42916,"lat":-13.8851,"pop":0},{"id":931563,"name":"Chaiso Ndhlovu","lon":33.38333,"lat":-11.75,"pop":0},{"id":931564,"name":"Chaiso Ndhlovu","lon":33.38414,"lat":-11.73072,"pop":0},{"id":12182198,"name":"Chakaka","lon":34.02755,"lat":-10.64643,"pop":0},{"id":12185441,"name":"Chakale","lon":33.60301,"lat":-13.62058,"pop":0},{"id":931561,"name":"Chakalira","lon":33.26664,"lat":-13.66073,"pop":0},{"id":931560,"name":"Chakanza","lon":35.06667,"lat":-16.3,"pop":0},{"id":931559,"name":"Chakapama","lon":33.15,"lat":-13.61667,"pop":0},{"id":931558,"name":"Chakasa","lon":33.64028,"lat":-13.4352,"pop":0},{"id":931557,"name":"Chakazika","lon":33.48333,"lat":-13.53333,"pop":0},{"id":931551,"name":"Chakhala","alt":["Chakhaza"],"lon":33.73702,"lat":-13.6491,"pop":0},{"id":931555,"name":"Chakhala","alt":["Chakhala II"],"lon":33.3484,"lat":-13.32394,"pop":0},{"id":931556,"name":"Chakhala","lon":33.49281,"lat":-13.32598,"pop":0},{"id":12183509,"name":"Chakhala","lon":33.90982,"lat":-13.18009,"pop":0},{"id":12185082,"name":"Chakhalika","lon":33.26765,"lat":-13.66305,"pop":0},{"id":931554,"name":"Chakhame","lon":35.86667,"lat":-14.96667,"pop":0},{"id":931552,"name":"Chakhaza","lon":33.6467,"lat":-13.44707,"pop":0},{"id":931553,"name":"Chakhaza","lon":33.63455,"lat":-13.41423,"pop":0},{"id":931549,"name":"Chakhumbira","lon":34.93333,"lat":-16.28333,"pop":0},{"id":931550,"name":"Chakhumbira","lon":34.7,"lat":-14.56667,"pop":0},{"id":12177596,"name":"Chakolagalu Jere","lon":33.59291,"lat":-11.43805,"pop":0},{"id":12182847,"name":"Chakolagaru","lon":33.39897,"lat":-12.54212,"pop":0},{"id":12170643,"name":"Chakoma","lon":33.74111,"lat":-10.92483,"pop":0},{"id":12185675,"name":"Chakoma","lon":33.9478,"lat":-13.88651,"pop":0},{"id":931547,"name":"Chakongwa","lon":33.66667,"lat":-13.18333,"pop":0},{"id":12183521,"name":"Chakulunjala","lon":33.89175,"lat":-13.10597,"pop":0},{"id":931546,"name":"Chakuma","lon":33.98585,"lat":-13.65419,"pop":0},{"id":12183143,"name":"Chakumbuka","lon":32.89924,"lat":-13.46757,"pop":0},{"id":931544,"name":"Chakupompha","lon":33.95869,"lat":-11.7485,"pop":0},{"id":931647,"name":"Chakutola","alt":["Cakutola"],"lon":33.9248,"lat":-12.88118,"pop":0},{"id":931543,"name":"Chakuwala","alt":["Chakuwara"],"lon":33.15031,"lat":-13.71514,"pop":0},{"id":931542,"name":"Chakuzamutu","lon":33.36667,"lat":-14.06667,"pop":0},{"id":931645,"name":"Chakwanika Ngulube","alt":["Cakwanika"],"lon":33.61296,"lat":-12.49903,"pop":0},{"id":931541,"name":"Chakwanila","lon":33.76403,"lat":-14.03914,"pop":0},{"id":931540,"name":"Chakwawa","lon":33.58333,"lat":-13.55,"pop":0},{"id":931644,"name":"Chakwawa","alt":["Cakwawa"],"lon":33.40372,"lat":-12.77582,"pop":0},{"id":12185007,"name":"Chakwawa","lon":33.00436,"lat":-13.53303,"pop":0},{"id":12182805,"name":"Chakwela","lon":33.38792,"lat":-12.74595,"pop":0},{"id":12170216,"name":"Chakwera","lon":33.87764,"lat":-9.75768,"pop":0},{"id":931643,"name":"Chakwila","alt":["Cakwila"],"lon":33.3011,"lat":-12.60462,"pop":0},{"id":12170463,"name":"Chalaghala","lon":33.65221,"lat":-10.34053,"pop":0},{"id":11775741,"name":"Chalambwene","lon":33.45054,"lat":-9.73221,"pop":0},{"id":931537,"name":"Chale","lon":33.83694,"lat":-13.40059,"pop":0},{"id":931535,"name":"Chalendewa","lon":33.796,"lat":-14.08919,"pop":0},{"id":931534,"name":"Chalera","lon":34.08333,"lat":-14.25,"pop":0},{"id":931533,"name":"Chaletuwa","lon":34.9,"lat":-16.58333,"pop":0},{"id":931532,"name":"Chali","lon":34.40238,"lat":-15.73381,"pop":0},{"id":931531,"name":"Chalilima","lon":33.02451,"lat":-13.82815,"pop":0},{"id":931530,"name":"Chalilo","lon":33.98333,"lat":-14.06667,"pop":0},{"id":12181978,"name":"Chalimba","lon":33.36616,"lat":-14.15307,"pop":0},{"id":12185327,"name":"Chalonga","lon":33.41465,"lat":-13.883,"pop":0},{"id":931526,"name":"Chalotwa","lon":33.3302,"lat":-12.20703,"pop":0},{"id":931527,"name":"Chalotwa","lon":33.33369,"lat":-12.20732,"pop":0},{"id":12182526,"name":"Chalotwa Mtonga","lon":33.34339,"lat":-12.24014,"pop":0},{"id":12182711,"name":"Chalowa","lon":33.55478,"lat":-12.41556,"pop":0},{"id":12182570,"name":"Chalowataya Zulanga","lon":33.49516,"lat":-12.19791,"pop":0},{"id":12185658,"name":"Chalula","lon":33.88232,"lat":-13.99429,"pop":0},{"id":12183563,"name":"Chalumbe","lon":33.81996,"lat":-13.33489,"pop":0},{"id":931525,"name":"Chalunda","lon":34.46667,"lat":-13.81667,"pop":0},{"id":12183626,"name":"Chalundu","lon":33.90866,"lat":-13.47745,"pop":0},{"id":929652,"name":"Chalusa","alt":["Jalusa"],"lon":33.43014,"lat":-14.0467,"pop":0},{"id":931522,"name":"Chamadenga","lon":33.9,"lat":-14.16667,"pop":0},{"id":12182431,"name":"Chamahomwa Nyirenda","lon":34.02143,"lat":-10.91117,"pop":0},{"id":12182680,"name":"Chamaji","lon":33.66938,"lat":-12.33846,"pop":0},{"id":931520,"name":"Chamaka","lon":35.27856,"lat":-16.86719,"pop":0},{"id":931519,"name":"Chamakala","lon":33.47636,"lat":-12.73551,"pop":0},{"id":12170700,"name":"Chamala","lon":33.95978,"lat":-10.93361,"pop":0},{"id":931510,"name":"Chamama","lon":33.77024,"lat":-12.94017,"pop":0},{"id":931511,"name":"Chamama","lon":33.79954,"lat":-12.9279,"pop":0},{"id":931507,"name":"Chamande","lon":35.38333,"lat":-15.4,"pop":0},{"id":931505,"name":"Chamanga","lon":34.73333,"lat":-16.4,"pop":0},{"id":931506,"name":"Chamanga","lon":34.71667,"lat":-16.38333,"pop":0},{"id":931504,"name":"Chamara","alt":["Chamera"],"lon":34.59739,"lat":-16.08608,"pop":0},{"id":931502,"name":"Chamatete","lon":33.48333,"lat":-10.91667,"pop":0},{"id":931499,"name":"Chamawoya","lon":34.08254,"lat":-11.52561,"pop":0},{"id":931498,"name":"Chamba","lon":34.91784,"lat":-15.90549,"pop":0},{"id":931495,"name":"Chambala","lon":33.44483,"lat":-13.68682,"pop":0},{"id":931496,"name":"Chambala","lon":33.44427,"lat":-13.66457,"pop":0},{"id":931637,"name":"Chambalekani","alt":["Cambalekani"],"lon":33.34099,"lat":-12.57727,"pop":0},{"id":931494,"name":"Chambamkuya","lon":34.06667,"lat":-13.4,"pop":0},{"id":12169712,"name":"Chambo","lon":33.3967,"lat":-9.94246,"pop":0},{"id":12182263,"name":"Chambogho","lon":34.19647,"lat":-10.45001,"pop":0},{"id":12185373,"name":"Chambu","lon":33.48402,"lat":-13.79842,"pop":0},{"id":931486,"name":"Chambukira","lon":33.73333,"lat":-13.98333,"pop":0},{"id":12183131,"name":"Chambukira","lon":32.93351,"lat":-13.47964,"pop":0},{"id":931485,"name":"Chambuluka","lon":34.76667,"lat":-16.46667,"pop":0},{"id":931482,"name":"Chambwe","lon":33.76858,"lat":-13.67562,"pop":0},{"id":931483,"name":"Chambwe","lon":33.43333,"lat":-13.55,"pop":0},{"id":931484,"name":"Chambwe","lon":33.65531,"lat":-13.19231,"pop":0},{"id":12182581,"name":"Chamimba Nkhoma","lon":33.47302,"lat":-12.11765,"pop":0},{"id":12170225,"name":"Chaminade","lon":33.88669,"lat":-9.95439,"pop":0},{"id":931437,"name":"Chamkakala","alt":["Chankakhala"],"lon":33.54264,"lat":-13.62535,"pop":0},{"id":931474,"name":"Chamkoma","lon":33.65,"lat":-14.35,"pop":0},{"id":931475,"name":"Chamkoma","lon":33.99923,"lat":-13.64657,"pop":0},{"id":931476,"name":"Chamkoma","lon":34.28333,"lat":-13.45,"pop":0},{"id":931471,"name":"Chamonsi","lon":33.91667,"lat":-13.96667,"pop":0},{"id":12181963,"name":"Chamoto","lon":33.4015,"lat":-14.09495,"pop":0},{"id":12185331,"name":"Champhenzi","lon":33.39088,"lat":-13.87421,"pop":0},{"id":931466,"name":"Champhila","alt":["Champira"],"lon":33.60992,"lat":-12.33321,"pop":0},{"id":931465,"name":"Champongo","lon":34.06667,"lat":-14.46667,"pop":0},{"id":931463,"name":"Chamuhanya Gondwe","lon":33.61119,"lat":-11.44993,"pop":0},{"id":12182408,"name":"Chamumonu Gondwe","lon":34.05747,"lat":-10.77704,"pop":0},{"id":11774413,"name":"Chamunguma","lon":33.44483,"lat":-11.52271,"pop":0},{"id":12185033,"name":"Chamveka","lon":33.11937,"lat":-13.71691,"pop":0},{"id":931462,"name":"Chamvu","lon":33.98037,"lat":-13.60788,"pop":0},{"id":12183343,"name":"Chamvu","lon":33.44844,"lat":-13.38854,"pop":0},{"id":12183414,"name":"Chamwabvi","lon":33.69752,"lat":-13.08638,"pop":0},{"id":931460,"name":"Chamyeka","lon":32.95,"lat":-13.83333,"pop":0},{"id":931459,"name":"Chana","lon":34.4603,"lat":-13.87947,"pop":0},{"id":931452,"name":"Chanamana Mwandira","alt":["Chandamana Mwandira"],"lon":33.46787,"lat":-11.65375,"pop":0},{"id":12177643,"name":"Chanangika Chawinga","lon":33.45613,"lat":-11.22013,"pop":0},{"id":931458,"name":"Chanasa","alt":["Chanza"],"lon":35.55261,"lat":-15.8352,"pop":0},{"id":11775731,"name":"Chanda Nakachenja Sikaro","lon":33.26463,"lat":-9.74845,"pop":0},{"id":12185387,"name":"Chandale","lon":33.41076,"lat":-13.76247,"pop":0},{"id":12183606,"name":"Chandawila","lon":33.88789,"lat":-13.38641,"pop":0},{"id":12185633,"name":"Chandawila","lon":33.91122,"lat":-13.8604,"pop":0},{"id":931451,"name":"Chande","lon":35.46667,"lat":-15.48333,"pop":0},{"id":12185674,"name":"Chandika","lon":33.99056,"lat":-13.90242,"pop":0},{"id":931449,"name":"Chandiwira Moyo","lon":33.92147,"lat":-11.0543,"pop":0},{"id":931448,"name":"Chandiwu","lon":33.61885,"lat":-13.4496,"pop":0},{"id":12170332,"name":"Changala","lon":33.68219,"lat":-10.18343,"pop":0},{"id":931447,"name":"Changali","alt":["Changalis Village"],"lon":35.17175,"lat":-14.71401,"pop":0},{"id":931444,"name":"Changaluwa","lon":33.3423,"lat":-13.21214,"pop":0},{"id":12185191,"name":"Changata","lon":33.12109,"lat":-13.78251,"pop":0},{"id":12182775,"name":"Changuluwe","lon":33.28957,"lat":-12.63595,"pop":0},{"id":12183194,"name":"Changuluwe","lon":33.31601,"lat":-13.0978,"pop":0},{"id":931438,"name":"Chanika","lon":34.2,"lat":-12.96667,"pop":0},{"id":931439,"name":"Chanika","lon":34.20426,"lat":-12.96677,"pop":0},{"id":12182540,"name":"Chanjobvu","lon":33.38175,"lat":-12.08032,"pop":0},{"id":12183421,"name":"Chanjowa","lon":33.64466,"lat":-13.05367,"pop":0},{"id":12170698,"name":"Chankauta Munthali","lon":33.96979,"lat":-10.96176,"pop":0},{"id":12170618,"name":"Chankhalamu","lon":33.55683,"lat":-10.89332,"pop":0},{"id":931430,"name":"Chankhamatete","lon":34.01796,"lat":-11.84937,"pop":0},{"id":12177552,"name":"Chankhanga","lon":33.79329,"lat":-11.23097,"pop":0},{"id":12178055,"name":"Chankhaza Ndhlovu","lon":33.72687,"lat":-11.78145,"pop":0},{"id":12182244,"name":"Chankholombe","lon":34.16273,"lat":-10.49474,"pop":0},{"id":931477,"name":"Chankoma","alt":["Chamkoma"],"lon":33.41023,"lat":-13.37649,"pop":0},{"id":931424,"name":"Chanunkha Shaba","alt":["Chanunkha Shawa"],"lon":33.54771,"lat":-11.88648,"pop":0},{"id":7869937,"name":"Chanyama","lon":33.40428,"lat":-11.6443,"pop":0},{"id":931420,"name":"Chaola","lon":34.06667,"lat":-13.65,"pop":0},{"id":931604,"name":"Chaola","alt":["Cawola"],"lon":33.40658,"lat":-12.72745,"pop":0},{"id":931419,"name":"Chaolamokanda","lon":33.86667,"lat":-13.43333,"pop":0},{"id":931418,"name":"Chaonanjiwa","lon":34.76667,"lat":-16.41667,"pop":0},{"id":931415,"name":"Chaowa","lon":33.8477,"lat":-13.71714,"pop":0},{"id":9968919,"name":"Chapananga","lon":34.77769,"lat":-16.05278,"pop":0},{"id":931412,"name":"Chapanza","lon":33.81186,"lat":-13.70829,"pop":0},{"id":931411,"name":"Chapanzi","lon":32.84922,"lat":-13.74579,"pop":0},{"id":931410,"name":"Chapasuka","lon":33.94172,"lat":-12.28903,"pop":0},{"id":931409,"name":"Chapata","lon":33.8,"lat":-14.06667,"pop":0},{"id":12185578,"name":"Chapata","lon":33.85896,"lat":-13.89071,"pop":0},{"id":931408,"name":"Chapendeha","lon":33.71667,"lat":-14.13333,"pop":0},{"id":12182580,"name":"Chaphonya Banda","lon":33.46809,"lat":-12.13105,"pop":0},{"id":931616,"name":"Chaphuka","alt":["Caphuka"],"lon":33.30765,"lat":-12.59681,"pop":0},{"id":12183084,"name":"Chapingama","lon":33.80725,"lat":-12.92706,"pop":0},{"id":12183456,"name":"Chapingama","lon":33.84367,"lat":-13.07756,"pop":0},{"id":931404,"name":"Chapita","lon":33.24293,"lat":-13.69233,"pop":0},{"id":12182593,"name":"Chapitamuno Mphembe","lon":33.46966,"lat":-12.02879,"pop":0},{"id":931401,"name":"Chapola","lon":35.48333,"lat":-15.33333,"pop":0},{"id":931402,"name":"Chapola","lon":35.23333,"lat":-14.26667,"pop":0},{"id":931399,"name":"Chapsinja","lon":33.7,"lat":-14.16667,"pop":0},{"id":931398,"name":"Chapu","lon":35.28333,"lat":-17,"pop":0},{"id":12183624,"name":"Chapuchapu","lon":33.92714,"lat":-13.44026,"pop":0},{"id":931414,"name":"Chapulapula","alt":["Chapalapula"],"lon":33.98026,"lat":-13.29616,"pop":0},{"id":12183635,"name":"Chapulapula","lon":33.95196,"lat":-13.32617,"pop":0},{"id":931397,"name":"Chapuma","lon":33.59881,"lat":-13.41371,"pop":0},{"id":12182672,"name":"Chapuma Malili","lon":33.51976,"lat":-12.0174,"pop":0},{"id":931396,"name":"Chapumbwa","lon":34.25,"lat":-11.61667,"pop":0},{"id":931394,"name":"Chapuwala","lon":33.55345,"lat":-13.32155,"pop":0},{"id":931393,"name":"Chapwaitika","lon":33.83333,"lat":-14.08333,"pop":0},{"id":931614,"name":"Chapwawa","alt":["Capwawa"],"lon":33.59925,"lat":-12.69347,"pop":0},{"id":931392,"name":"Charenga","lon":33.65,"lat":-13.96667,"pop":0},{"id":12178019,"name":"Charles Chinula","lon":33.54002,"lat":-11.93255,"pop":0},{"id":12183482,"name":"Charundu","lon":33.86054,"lat":-13.18844,"pop":0},{"id":12178037,"name":"Chasato","lon":33.65986,"lat":-11.87764,"pop":0},{"id":12183018,"name":"Chasefu","lon":33.70471,"lat":-12.62448,"pop":0},{"id":931385,"name":"Chaseta","lon":34.37319,"lat":-13.97677,"pop":0},{"id":931386,"name":"Chaseta","lon":34.35,"lat":-13.93333,"pop":0},{"id":931387,"name":"Chaseta","lon":34.34038,"lat":-13.90679,"pop":0},{"id":931388,"name":"Chaseta","lon":33.92654,"lat":-13.29409,"pop":0},{"id":12185103,"name":"Chaseta","lon":33.41046,"lat":-13.54017,"pop":0},{"id":931382,"name":"Chasowa","lon":33.6,"lat":-14.2,"pop":0},{"id":12182898,"name":"Chasukusila","lon":33.37443,"lat":-12.95546,"pop":0},{"id":931380,"name":"Chataghara Munthari","lon":34.12209,"lat":-11.01386,"pop":0},{"id":931378,"name":"Chataika","lon":35.26667,"lat":-16.91667,"pop":0},{"id":931379,"name":"Chataika","lon":34.36435,"lat":-13.62679,"pop":0},{"id":928510,"name":"Chatama","alt":["Katama"],"lon":33.76758,"lat":-13.30293,"pop":0},{"id":931375,"name":"Chatama","lon":33.86667,"lat":-13.4,"pop":0},{"id":931376,"name":"Chatama","lon":33.74022,"lat":-13.33559,"pop":0},{"id":931374,"name":"Chatambalala","lon":34.01667,"lat":-13.66667,"pop":0},{"id":12185090,"name":"Chatambwa","lon":33.29037,"lat":-13.65518,"pop":0},{"id":931372,"name":"Chatanga","lon":33.52393,"lat":-13.64401,"pop":0},{"id":931373,"name":"Chatanga","lon":33.18125,"lat":-13.46147,"pop":0},{"id":931371,"name":"Chateka","alt":["Chateka Chipamphale"],"lon":33.38636,"lat":-13.76651,"pop":0},{"id":931370,"name":"Chatewa","lon":33.72822,"lat":-13.40342,"pop":0},{"id":931369,"name":"Chatile","lon":34.1,"lat":-13.41667,"pop":0},{"id":12182867,"name":"Chatoloma","lon":33.48973,"lat":-12.70184,"pop":0},{"id":12169970,"name":"Chatu","lon":33.52183,"lat":-9.72757,"pop":0},{"id":12170571,"name":"Chatumbwa Khunga","lon":33.48591,"lat":-10.84961,"pop":0},{"id":931368,"name":"Chatupa","lon":34.1522,"lat":-11.83692,"pop":0},{"id":12177990,"name":"Chauluma Jere","lon":33.66405,"lat":-11.51459,"pop":0},{"id":12177623,"name":"Chauluma Nyirenda","lon":33.57605,"lat":-11.39133,"pop":0},{"id":12185693,"name":"Chauma","lon":33.96957,"lat":-13.80682,"pop":0},{"id":12182843,"name":"Chaundwa","lon":33.46666,"lat":-12.58657,"pop":0},{"id":931364,"name":"Chautala Msiska","alt":["Chautela"],"lon":34.07223,"lat":-10.66786,"pop":0},{"id":12182237,"name":"Chauteka","lon":34.11074,"lat":-10.39241,"pop":0},{"id":12182271,"name":"Chauteka","lon":34.13226,"lat":-10.39403,"pop":0},{"id":931362,"name":"Chauwa","lon":33.90564,"lat":-13.72739,"pop":0},{"id":931361,"name":"Chavara","lon":34.83015,"lat":-15.83568,"pop":0},{"id":931358,"name":"Chavukuka","lon":34.21599,"lat":-11.64926,"pop":0},{"id":931661,"name":"Chavula","alt":["Cabvula"],"lon":33.27984,"lat":-13.43408,"pop":0},{"id":931357,"name":"Chavura","lon":33.6356,"lat":-12.82202,"pop":0},{"id":12178091,"name":"Chavura","lon":34.05514,"lat":-11.95014,"pop":0},{"id":12178093,"name":"Chavura","lon":34.04167,"lat":-11.98917,"pop":0},{"id":12182811,"name":"Chavura","lon":33.45408,"lat":-12.74148,"pop":0},{"id":931353,"name":"Chawa Mvula","lon":33.53134,"lat":-11.17062,"pop":0},{"id":931354,"name":"Chawala","lon":33.9,"lat":-14.26667,"pop":0},{"id":931355,"name":"Chawala","lon":32.96667,"lat":-13.55,"pop":0},{"id":931356,"name":"Chawala","alt":["Chiwala"],"lon":34.1798,"lat":-12.55358,"pop":0},{"id":931352,"name":"Chawanda","lon":33.91667,"lat":-13.43333,"pop":0},{"id":931350,"name":"Chawanta","lon":33.37078,"lat":-14.11781,"pop":0},{"id":12185304,"name":"Chawantha","lon":33.38341,"lat":-13.94179,"pop":0},{"id":12182405,"name":"Chawayi","lon":34.02826,"lat":-10.76039,"pop":0},{"id":931349,"name":"Chawesa","alt":["Chawosa"],"lon":35.60727,"lat":-15.53088,"pop":0},{"id":12170443,"name":"Chawezga","lon":33.67463,"lat":-10.42028,"pop":0},{"id":931348,"name":"Chawuluma Jere","lon":33.71667,"lat":-11.48333,"pop":0},{"id":931346,"name":"Chawuwa","lon":34.66667,"lat":-16.23333,"pop":0},{"id":931347,"name":"Chawuwa","lon":33.44304,"lat":-13.7078,"pop":0},{"id":930319,"name":"Chayankhu Chimaliro","alt":["Chiyankhu Chimaliro"],"lon":33.97905,"lat":-11.31841,"pop":0},{"id":11775733,"name":"Chayiwera","lon":33.30637,"lat":-9.73737,"pop":0},{"id":931344,"name":"Chazama","lon":33.89594,"lat":-13.56962,"pop":0},{"id":931345,"name":"Chazama","lon":34.06858,"lat":-13.34809,"pop":0},{"id":931340,"name":"Chaziya","lon":33.55,"lat":-13.71667,"pop":0},{"id":12183114,"name":"Chaziya","lon":33.92578,"lat":-12.89131,"pop":0},{"id":931338,"name":"Chazuka","alt":["Chasuka"],"lon":35.28662,"lat":-16.85494,"pop":0},{"id":931335,"name":"Checufikeni","alt":["Checufikene"],"lon":34.28333,"lat":-14.4,"pop":0},{"id":12170395,"name":"Chegama","lon":33.88626,"lat":-10.03258,"pop":0},{"id":931325,"name":"Chelinda","alt":["CEH"],"lon":33.8083,"lat":-10.58173,"pop":0},{"id":931321,"name":"Chembe","lon":34.84911,"lat":-14.01993,"pop":0},{"id":12185342,"name":"Chembe","lon":33.45277,"lat":-13.84331,"pop":0},{"id":12170590,"name":"Chembe Mufuni","lon":33.54503,"lat":-10.73716,"pop":0},{"id":931320,"name":"Chemlima","lon":34.4,"lat":-13.76667,"pop":0},{"id":12182568,"name":"Chenderamwano Jere","lon":33.44343,"lat":-12.17315,"pop":0},{"id":235765,"name":"Chendo","lon":33.40883,"lat":-9.88823,"pop":0},{"id":931315,"name":"Chenje","lon":33.7,"lat":-13.2,"pop":0},{"id":12182916,"name":"Chenjewazi","lon":33.47028,"lat":-12.78866,"pop":0},{"id":931311,"name":"Chenyentha","alt":["Chinyenta"],"lon":34.19579,"lat":-11.79837,"pop":0},{"id":12185529,"name":"Chepa","lon":33.79638,"lat":-13.78228,"pop":0},{"id":12183192,"name":"Chesa","lon":33.34534,"lat":-13.07595,"pop":0},{"id":235643,"name":"Chesa Sabuni","alt":["Sabun"],"lon":33.27271,"lat":-9.72949,"pop":0},{"id":12177452,"name":"Chesamu","lon":33.6622,"lat":-11.23362,"pop":0},{"id":931307,"name":"Chesen","lon":33.71799,"lat":-13.43472,"pop":0},{"id":931306,"name":"Chesenda","lon":35.46667,"lat":-15.35,"pop":0},{"id":12182289,"name":"Chesese","lon":34.18589,"lat":-10.3191,"pop":0},{"id":925070,"name":"Chewere","alt":["Nchewere","Nchewete"],"lon":34.23183,"lat":-10.36521,"pop":0},{"id":12170656,"name":"Cheyeka Gondwe","lon":33.74964,"lat":-10.96212,"pop":0},{"id":931302,"name":"Cheza","lon":34.7966,"lat":-14.93932,"pop":0},{"id":12170468,"name":"Cheza","lon":33.68761,"lat":-10.31806,"pop":0},{"id":931301,"name":"Chia","lon":34.1891,"lat":-12.52475,"pop":0},{"id":931299,"name":"Chiam","lon":33.83333,"lat":-14.3,"pop":0},{"id":12185537,"name":"Chibade","lon":33.77302,"lat":-13.8437,"pop":0},{"id":931295,"name":"Chibaka","lon":34.24131,"lat":-11.67171,"pop":0},{"id":931296,"name":"Chibaka","lon":34.24618,"lat":-11.65843,"pop":0},{"id":931293,"name":"Chibako","lon":34.05,"lat":-12.01667,"pop":0},{"id":931294,"name":"Chibako","lon":34.08343,"lat":-11.96968,"pop":0},{"id":12177529,"name":"Chibalaze Gondwe","lon":33.84618,"lat":-11.0521,"pop":0},{"id":931292,"name":"Chibamba","lon":33.63333,"lat":-12.35,"pop":0},{"id":12182746,"name":"Chibamu Moyo","lon":33.60488,"lat":-12.48235,"pop":0},{"id":930095,"name":"Chibandauka Chisi","alt":["Ciwandauka"],"lon":33.65531,"lat":-12.65391,"pop":0},{"id":11774433,"name":"Chibandauka Mwandira","lon":33.44772,"lat":-11.72086,"pop":0},{"id":11774435,"name":"Chibandauka Mwandira","lon":33.42124,"lat":-11.73352,"pop":0},{"id":931290,"name":"Chibara","lon":34.06667,"lat":-12,"pop":0},{"id":12177633,"name":"Chibeko Kasyombe","lon":33.50797,"lat":-11.29162,"pop":0},{"id":12178050,"name":"Chibembe","lon":33.65812,"lat":-11.77923,"pop":0},{"id":931287,"name":"Chibene","lon":33.91667,"lat":-13.38333,"pop":0},{"id":931286,"name":"Chibeni","lon":33.85,"lat":-14.03333,"pop":0},{"id":12182333,"name":"Chibingo Chisango","lon":34.08027,"lat":-10.63275,"pop":0},{"id":12177733,"name":"Chibiri","lon":33.94218,"lat":-11.45381,"pop":0},{"id":931284,"name":"Chibisa","lon":33.82687,"lat":-13.45218,"pop":0},{"id":931285,"name":"Chibisa","lon":33.45025,"lat":-12.98244,"pop":0},{"id":931283,"name":"Chibisa Chirwa","lon":33.32649,"lat":-11.67013,"pop":0},{"id":12177808,"name":"Chibisa Mtonga","lon":33.35479,"lat":-11.94291,"pop":0},{"id":12182691,"name":"Chibisa Phiri","lon":33.73905,"lat":-12.33319,"pop":0},{"id":12182506,"name":"Chibisa Sakala","lon":33.29247,"lat":-12.06782,"pop":0},{"id":12182725,"name":"Chibisa Zimba","lon":33.57829,"lat":-12.34005,"pop":0},{"id":12182374,"name":"Chibo Mkandawire","lon":34.17228,"lat":-10.58482,"pop":0},{"id":12182536,"name":"Chibo Msimuko","lon":33.29547,"lat":-12.14175,"pop":0},{"id":12182541,"name":"Chibo Phulira","lon":33.38364,"lat":-12.07856,"pop":0},{"id":931282,"name":"Chiboko","alt":["Ciboko"],"lon":34.25483,"lat":-12.81814,"pop":0},{"id":12170072,"name":"Chibona","lon":33.52893,"lat":-9.85644,"pop":0},{"id":931279,"name":"Chibotero","lon":34.28333,"lat":-13.26667,"pop":0},{"id":12185380,"name":"Chibowa","lon":33.44727,"lat":-13.77277,"pop":0},{"id":12177941,"name":"Chibula Moyo","lon":33.50223,"lat":-11.58358,"pop":0},{"id":12182631,"name":"Chibula Ngulube","lon":33.34622,"lat":-12.27881,"pop":0},{"id":931277,"name":"Chibuli","lon":35.15,"lat":-17.11667,"pop":0},{"id":931276,"name":"Chibungo","lon":33.11667,"lat":-13.73333,"pop":0},{"id":931275,"name":"Chibungu","alt":["Chibungo","Cibuga"],"lon":33.45296,"lat":-13.96587,"pop":0},{"id":931274,"name":"Chibunyu","lon":33.45,"lat":-13.13333,"pop":0},{"id":12177834,"name":"Chibuwu Kumwenda","lon":33.37674,"lat":-11.89742,"pop":0},{"id":931359,"name":"Chibvina","alt":["Chavina"],"lon":33.38871,"lat":-13.5479,"pop":0},{"id":12182928,"name":"Chibvina","lon":33.49009,"lat":-12.77974,"pop":0},{"id":12182929,"name":"Chibvina","lon":33.48644,"lat":-12.80007,"pop":0},{"id":12185106,"name":"Chibvina","lon":33.38617,"lat":-13.50552,"pop":0},{"id":12185670,"name":"Chibvundula","lon":33.93963,"lat":-13.90509,"pop":0},{"id":12183548,"name":"Chibvutwe","lon":33.78012,"lat":-13.46387,"pop":0},{"id":931267,"name":"Chibwana","lon":35.53011,"lat":-15.09203,"pop":0},{"id":931268,"name":"Chibwana","lon":35.51173,"lat":-15.07649,"pop":0},{"id":931269,"name":"Chibwana","lon":35.61667,"lat":-14.86667,"pop":0},{"id":931270,"name":"Chibwana","alt":["Chamba"],"lon":35.39631,"lat":-14.77749,"pop":0},{"id":931271,"name":"Chibwana","lon":34.16667,"lat":-12.63333,"pop":0},{"id":931272,"name":"Chibwana","lon":33.68333,"lat":-12.16667,"pop":0},{"id":12183112,"name":"Chibwana","lon":33.96753,"lat":-12.91331,"pop":0},{"id":12185050,"name":"Chibwana","lon":33.16662,"lat":-13.58052,"pop":0},{"id":931266,"name":"Chibwana Mgemezulu","lon":33.71186,"lat":-11.96603,"pop":0},{"id":931265,"name":"Chibwana Mkhalipi","alt":["Chibwana Mukhalipi"],"lon":33.33175,"lat":-11.72146,"pop":0},{"id":12178053,"name":"Chibwana Ndhlovu","lon":33.70955,"lat":-11.77169,"pop":0},{"id":931264,"name":"Chibwana Nyangu","lon":33.74103,"lat":-11.72257,"pop":0},{"id":12183528,"name":"Chibwanaleka","lon":33.7947,"lat":-13.2563,"pop":0},{"id":931263,"name":"Chibwanateka","lon":33.82511,"lat":-13.22743,"pop":0},{"id":12185229,"name":"Chibwazi","lon":33.27968,"lat":-13.83185,"pop":0},{"id":930921,"name":"Chibweya","alt":["Chimenya"],"lon":33.54085,"lat":-12.41603,"pop":0},{"id":12185494,"name":"Chibweza","lon":33.70331,"lat":-13.58445,"pop":0},{"id":931261,"name":"Chibwinja","lon":33.9,"lat":-13.93333,"pop":0},{"id":931259,"name":"Chichiri","lon":35.04749,"lat":-15.80251,"pop":0},{"id":931258,"name":"Chichitike","lon":33.33333,"lat":-13.7,"pop":0},{"id":931256,"name":"Chickumbeni","lon":35.3,"lat":-15.43333,"pop":0},{"id":931255,"name":"Chico","lon":34.01667,"lat":-13.46667,"pop":0},{"id":931254,"name":"Chicoleca","lon":34.42319,"lat":-15.67047,"pop":0},{"id":931253,"name":"Chiculungueni","lon":34.03336,"lat":-14.46058,"pop":0},{"id":12183328,"name":"Chidakisa","lon":33.38389,"lat":-13.4609,"pop":0},{"id":931252,"name":"Chidakwende","lon":33.70534,"lat":-13.31127,"pop":0},{"id":931249,"name":"Chidambo","lon":33.63644,"lat":-13.42321,"pop":0},{"id":931250,"name":"Chidambo","lon":33.96864,"lat":-13.3856,"pop":0},{"id":12185040,"name":"Chidangwe","lon":33.0994,"lat":-13.6834,"pop":0},{"id":931248,"name":"Chidatha","lon":33.83333,"lat":-13.35,"pop":0},{"id":12185265,"name":"Chidekwende","lon":33.3372,"lat":-13.9292,"pop":0},{"id":931246,"name":"Chidelezi","alt":["Chiderezi"],"lon":33.24091,"lat":-13.29953,"pop":0},{"id":12178105,"name":"Chidero","lon":34.15704,"lat":-11.50329,"pop":0},{"id":12178107,"name":"Chidero","lon":34.17909,"lat":-11.5165,"pop":0},{"id":931245,"name":"Chideru","lon":34.15387,"lat":-11.49485,"pop":0},{"id":931241,"name":"Chidikha","lon":35.18333,"lat":-16.9,"pop":0},{"id":931236,"name":"Chidiwo Msiska","alt":["Chidiwo"],"lon":34.06494,"lat":-10.70727,"pop":0},{"id":12183291,"name":"Chidongo","lon":33.32245,"lat":-13.29738,"pop":0},{"id":12183408,"name":"Chidongo","lon":33.62627,"lat":-13.16552,"pop":0},{"id":931235,"name":"Chidote","lon":35.28333,"lat":-15.46667,"pop":0},{"id":931233,"name":"Chidothe","lon":35.28333,"lat":-15.43333,"pop":0},{"id":931234,"name":"Chidothe","lon":35.8,"lat":-14.76667,"pop":0},{"id":931231,"name":"Chidothi","lon":34.05,"lat":-13.73333,"pop":0},{"id":931232,"name":"Chidothi","lon":34.13333,"lat":-13.66667,"pop":0},{"id":931229,"name":"Chidumayo","lon":33.7,"lat":-11.75,"pop":0},{"id":931230,"name":"Chidumayo","lon":33.56667,"lat":-11.53333,"pop":0},{"id":931228,"name":"Chidumayo Lusale","lon":33.70609,"lat":-11.74932,"pop":0},{"id":931227,"name":"Chidumayo Nguruwe","lon":33.54579,"lat":-11.50141,"pop":0},{"id":931226,"name":"Chidyaonga","lon":35.31667,"lat":-15.48333,"pop":0},{"id":12185343,"name":"Chidzalo","lon":33.45891,"lat":-13.83815,"pop":0},{"id":12185624,"name":"Chidzalo","lon":33.88132,"lat":-13.82487,"pop":0},{"id":930308,"name":"Chidziko","alt":["Chiziko"],"lon":33.98437,"lat":-13.3222,"pop":0},{"id":931224,"name":"Chidzunda","lon":33.55,"lat":-13.71667,"pop":0},{"id":931223,"name":"Chiembekeza","lon":34.59202,"lat":-15.32084,"pop":0},{"id":931222,"name":"Chiendausiku","lon":35.09611,"lat":-15.02096,"pop":0},{"id":931221,"name":"Chifipo","lon":33.1259,"lat":-13.35724,"pop":0},{"id":931220,"name":"Chifisa","lon":33.84417,"lat":-13.17261,"pop":0},{"id":931219,"name":"Chifomboti","lon":33.23011,"lat":-13.55147,"pop":0},{"id":924068,"name":"Chifuba Sakala","alt":["Sakala"],"lon":33.75026,"lat":-11.28671,"pop":0},{"id":931213,"name":"Chifuwa","lon":33.76667,"lat":-11.28333,"pop":0},{"id":12177571,"name":"Chifwamusale Chisi","lon":33.91702,"lat":-11.14325,"pop":0},{"id":12183496,"name":"Chifwelekete","lon":33.82568,"lat":-13.23074,"pop":0},{"id":12183641,"name":"Chifwelekete","lon":33.98408,"lat":-13.3353,"pop":0},{"id":931212,"name":"Chifya Kandulu Chibere","lon":34.31667,"lat":-11.7,"pop":0},{"id":12182315,"name":"Chifyo","lon":34.2473,"lat":-10.44607,"pop":0},{"id":930216,"name":"Chigadula","alt":["Cigadula"],"lon":33.34029,"lat":-12.71613,"pop":0},{"id":931211,"name":"Chigadula","lon":34.03012,"lat":-12.28727,"pop":0},{"id":12185669,"name":"Chigaga","lon":33.93359,"lat":-13.90596,"pop":0},{"id":931210,"name":"Chigamba","lon":34.11833,"lat":-13.69252,"pop":0},{"id":931208,"name":"Chiganda","lon":33.92894,"lat":-13.5489,"pop":0},{"id":12185096,"name":"Chigandwa","lon":33.30277,"lat":-13.51801,"pop":0},{"id":931206,"name":"Chigaru","lon":34.93968,"lat":-15.36263,"pop":0},{"id":931205,"name":"Chigaule Qutoto","alt":["Chigaule"],"lon":33.53454,"lat":-12.23799,"pop":0},{"id":931204,"name":"Chigawa","lon":33.87868,"lat":-13.6968,"pop":0},{"id":931203,"name":"Chighachang’ombe","alt":["Chighachang'ombe","Chighachangombe"],"lon":34.24612,"lat":-11.57778,"pop":0},{"id":12183326,"name":"Chigodi","lon":33.39978,"lat":-13.4843,"pop":0},{"id":11774420,"name":"Chigoga Jere","lon":33.47321,"lat":-11.59179,"pop":0},{"id":931199,"name":"Chigoma","lon":33.56561,"lat":-13.41917,"pop":0},{"id":12182224,"name":"Chigoma","lon":34.02862,"lat":-10.28784,"pop":0},{"id":931196,"name":"Chigoneka","lon":33.73333,"lat":-13.96667,"pop":0},{"id":931197,"name":"Chigoneka","lon":33.7555,"lat":-13.96313,"pop":0},{"id":12183135,"name":"Chigoneka","lon":32.94519,"lat":-13.48783,"pop":0},{"id":931194,"name":"Chigude","lon":33.58262,"lat":-12.27398,"pop":0},{"id":12177968,"name":"Chigude","lon":33.71054,"lat":-11.60027,"pop":0},{"id":12182354,"name":"Chiguliro Harawa","lon":34.13971,"lat":-10.71389,"pop":0},{"id":931193,"name":"Chiguluwindi","lon":34.73333,"lat":-12.1,"pop":0},{"id":7870232,"name":"Chigumula","lon":35.05539,"lat":-15.91599,"pop":0},{"id":12182815,"name":"Chigwangwa","lon":33.43597,"lat":-12.72452,"pop":0},{"id":931182,"name":"Chigwata","lon":34.5,"lat":-16.01667,"pop":0},{"id":12183405,"name":"Chigwe","lon":33.69652,"lat":-13.237,"pop":0},{"id":931177,"name":"Chigwere","lon":34.15445,"lat":-11.36009,"pop":0},{"id":931178,"name":"Chigwere","lon":34.08962,"lat":-11.36628,"pop":0},{"id":12177558,"name":"Chigwere","lon":33.83792,"lat":-11.02191,"pop":0},{"id":12178157,"name":"Chihami","lon":34.16564,"lat":-11.8457,"pop":0},{"id":930211,"name":"Chihepa Phiri","alt":["Cihepa"],"lon":33.63649,"lat":-12.45875,"pop":0},{"id":12182234,"name":"Chihepusha","lon":34.11182,"lat":-10.33451,"pop":0},{"id":931175,"name":"Chijere","lon":34.1448,"lat":-11.88896,"pop":0},{"id":931176,"name":"Chijere","lon":34.11415,"lat":-11.53245,"pop":0},{"id":12170608,"name":"Chijere Nundwe","lon":33.5241,"lat":-10.83679,"pop":0},{"id":931174,"name":"Chika","lon":33.55,"lat":-13.28333,"pop":0},{"id":12185317,"name":"Chikabvumbwa","lon":33.47215,"lat":-13.91558,"pop":0},{"id":931173,"name":"Chikabwereza","lon":35.41667,"lat":-15.38333,"pop":0},{"id":931171,"name":"Chikadya","lon":34.80336,"lat":-14.64542,"pop":0},{"id":931172,"name":"Chikadya","lon":34.79098,"lat":-14.64175,"pop":0},{"id":12185707,"name":"Chikadza","lon":33.99653,"lat":-13.938,"pop":0},{"id":931257,"name":"Chikalamba","alt":["Chickalamba"],"lon":33.84453,"lat":-11.02455,"pop":0},{"id":931167,"name":"Chikalema","lon":34.56785,"lat":-15.43219,"pop":0},{"id":931166,"name":"Chikalipo","lon":33.65,"lat":-13.15,"pop":0},{"id":12178072,"name":"Chikampha","lon":33.99763,"lat":-11.92454,"pop":0},{"id":930209,"name":"Chikanakuva","alt":["Cikanakuva"],"lon":33.41246,"lat":-12.56593,"pop":0},{"id":931162,"name":"Chikanda","lon":35.33333,"lat":-15.4,"pop":0},{"id":931163,"name":"Chikanda","lon":33.8887,"lat":-14.18196,"pop":0},{"id":931164,"name":"Chikanda","lon":34.46667,"lat":-13.91667,"pop":0},{"id":931165,"name":"Chikanda","lon":33.73333,"lat":-13.11667,"pop":0},{"id":12183455,"name":"Chikanda","lon":33.81306,"lat":-13.0694,"pop":0},{"id":12183252,"name":"Chikande","lon":33.15595,"lat":-13.40838,"pop":0},{"id":931161,"name":"Chikandira","lon":33.85,"lat":-14.33333,"pop":0},{"id":931160,"name":"Chikanga","lon":34.01366,"lat":-11.01827,"pop":0},{"id":931158,"name":"Chikangawa","lon":33.80296,"lat":-11.84257,"pop":0},{"id":931155,"name":"Chikanje","lon":34.09045,"lat":-12.47056,"pop":0},{"id":931156,"name":"Chikanje","lon":34.05383,"lat":-12.5064,"pop":0},{"id":931154,"name":"Chikaola","lon":34.31667,"lat":-13.65,"pop":0},{"id":12185533,"name":"Chikaola","lon":33.78233,"lat":-13.8024,"pop":0},{"id":931152,"name":"Chikapu Moyo","lon":33.35404,"lat":-11.82762,"pop":0},{"id":931150,"name":"Chikasauka","lon":33.71527,"lat":-13.4131,"pop":0},{"id":12177434,"name":"Chikayanga Chimaliro","lon":33.48417,"lat":-11.43341,"pop":0},{"id":12177593,"name":"Chikayanga Chimaliro","lon":33.52731,"lat":-11.48653,"pop":0},{"id":12177560,"name":"Chikazinga","lon":33.82411,"lat":-11.02316,"pop":0},{"id":12182803,"name":"Chikazingwa","lon":33.33046,"lat":-12.7469,"pop":0},{"id":931147,"name":"Chikhadwe","lon":33.82363,"lat":-13.74455,"pop":0},{"id":12183113,"name":"Chikhalika","lon":33.96527,"lat":-12.90891,"pop":0},{"id":931146,"name":"Chikhang’ombe","alt":["Chikhang'ombe","Chikhangombe"],"lon":33.84823,"lat":-12.91362,"pop":0},{"id":931149,"name":"Chikhasu","alt":["Chikaso"],"lon":33.05063,"lat":-13.70212,"pop":0},{"id":931145,"name":"Chikhawo","alt":["Chikao"],"lon":35.28333,"lat":-16.76667,"pop":0},{"id":931144,"name":"Chikho","lon":34.08339,"lat":-13.3839,"pop":0},{"id":931143,"name":"Chikhokho","alt":["Chikhoko"],"lon":34.15072,"lat":-11.89791,"pop":0},{"id":11774417,"name":"Chikhota Mkhalipi","lon":33.44978,"lat":-11.5425,"pop":0},{"id":12177400,"name":"Chikhozola Mjumila","lon":33.28601,"lat":-11.44653,"pop":0},{"id":931142,"name":"Chikhu","lon":34.37903,"lat":-13.54029,"pop":0},{"id":931141,"name":"Chikhumbi","lon":33.67905,"lat":-12.35285,"pop":0},{"id":931140,"name":"Chikhungwa","lon":33.84966,"lat":-13.40334,"pop":0},{"id":12183445,"name":"Chikhungwa","lon":33.73347,"lat":-13.18167,"pop":0},{"id":930192,"name":"Chikhutu","alt":["Cikutu"],"lon":33.68288,"lat":-13.74728,"pop":0},{"id":12185146,"name":"Chikhutu","lon":33.10733,"lat":-13.91022,"pop":0},{"id":931075,"name":"Chikhwakhwa","alt":["Chikwakwa"],"lon":33.92978,"lat":-13.37363,"pop":0},{"id":931077,"name":"Chikhwakhwa","alt":["Chikwakwa"],"lon":33.68457,"lat":-13.16067,"pop":0},{"id":931138,"name":"Chikhwakhwa","lon":33.8,"lat":-13.4,"pop":0},{"id":931137,"name":"Chikiwowe","lon":34.28333,"lat":-13.13333,"pop":0},{"id":931136,"name":"Chikobwi","lon":33.70072,"lat":-13.41099,"pop":0},{"id":12185156,"name":"Chikodza","lon":33.01332,"lat":-13.99334,"pop":0},{"id":931135,"name":"Chikojo","lon":35.61456,"lat":-14.70802,"pop":0},{"id":12177722,"name":"Chikoka Mhango","lon":33.9346,"lat":-11.40995,"pop":0},{"id":931134,"name":"Chikoko","lon":33.38958,"lat":-13.47992,"pop":0},{"id":12182895,"name":"Chikoko Chikwanda","lon":33.44761,"lat":-12.98619,"pop":0},{"id":12183126,"name":"Chikolwe","lon":32.95469,"lat":-13.46955,"pop":0},{"id":931127,"name":"Chikoma Nyanjagha","alt":["Chikoma Nyanjala"],"lon":33.40937,"lat":-11.33154,"pop":0},{"id":931128,"name":"Chikomakuka","lon":33.67943,"lat":-13.43132,"pop":0},{"id":931125,"name":"Chikombe","lon":34.21667,"lat":-12.83333,"pop":0},{"id":925598,"name":"Chikombo Mwanza","alt":["Mwanza"],"lon":33.83822,"lat":-11.42105,"pop":0},{"id":235762,"name":"Chikombwi","alt":["Chikombwe"],"lon":33.38268,"lat":-9.61346,"pop":0},{"id":12185192,"name":"Chikomeni","lon":33.12408,"lat":-13.76927,"pop":0},{"id":12185688,"name":"Chikomeni","lon":33.95111,"lat":-13.84465,"pop":0},{"id":12182666,"name":"Chikomeni Nyirenda","lon":33.54391,"lat":-12.17667,"pop":0},{"id":931122,"name":"Chikomeni Thole","alt":["Chikomeni Thore"],"lon":33.52977,"lat":-12.09762,"pop":0},{"id":931123,"name":"Chikomeni Thore","lon":33.54738,"lat":-12.0631,"pop":0},{"id":12182413,"name":"Chikompora Mbale","lon":34.03529,"lat":-10.81061,"pop":0},{"id":931116,"name":"Chikondawanda Lusale","alt":["Chikondawanga Lusale"],"lon":33.59027,"lat":-11.99969,"pop":0},{"id":931117,"name":"Chikondawanga","lon":34.13521,"lat":-11.53483,"pop":0},{"id":12182669,"name":"Chikondawanga Lusale","lon":33.5307,"lat":-12.18543,"pop":0},{"id":931115,"name":"Chikonde","lon":33.73333,"lat":-13.75,"pop":0},{"id":12185562,"name":"Chikonso","lon":33.84636,"lat":-13.95422,"pop":0},{"id":12185024,"name":"Chikonza","lon":33.08743,"lat":-13.67876,"pop":0},{"id":931112,"name":"Chikoti","lon":33.19356,"lat":-13.52998,"pop":0},{"id":12185115,"name":"Chikowa","lon":33.45726,"lat":-13.72771,"pop":0},{"id":931110,"name":"Chikowanje","lon":35.46861,"lat":-14.60345,"pop":0},{"id":930196,"name":"Chikoya","alt":["Cikoya"],"lon":33.50704,"lat":-12.53068,"pop":0},{"id":12183118,"name":"Chikoya","lon":33.87348,"lat":-12.86699,"pop":0},{"id":12183095,"name":"Chikoza","lon":33.80579,"lat":-12.94462,"pop":0},{"id":12177407,"name":"Chikozola Mjumira","lon":33.33594,"lat":-11.44192,"pop":0},{"id":12177553,"name":"Chikubanji Mkandawire","lon":33.79097,"lat":-11.24844,"pop":0},{"id":931109,"name":"Chikudzu","lon":33.64497,"lat":-13.45965,"pop":0},{"id":930195,"name":"Chikukula","alt":["Cikukula"],"lon":33.39998,"lat":-12.96585,"pop":0},{"id":12170649,"name":"Chikulamasinda","lon":33.67195,"lat":-10.93411,"pop":0},{"id":7870234,"name":"Chikuli","lon":35.34089,"lat":-15.96057,"pop":0},{"id":12185063,"name":"Chikulika","lon":33.23614,"lat":-13.68451,"pop":0},{"id":931102,"name":"Chikulu","lon":33.70484,"lat":-13.27513,"pop":0},{"id":931100,"name":"Chikuluma","lon":35.35071,"lat":-14.74717,"pop":0},{"id":931101,"name":"Chikuluma","lon":35.33333,"lat":-14.73333,"pop":0},{"id":931099,"name":"Chikumba","lon":35.81667,"lat":-14.76667,"pop":0},{"id":931096,"name":"Chikumbu","lon":35.35,"lat":-15.46667,"pop":0},{"id":12181938,"name":"Chikumbutsi","lon":33.49915,"lat":-13.94329,"pop":0},{"id":931092,"name":"Chikung’untheni","alt":["Chikung'untheni","Chikunguntheni"],"lon":33.84454,"lat":-12.87185,"pop":0},{"id":931093,"name":"Chikungu","lon":34.56667,"lat":-16.1,"pop":0},{"id":931094,"name":"Chikungu","lon":33.53333,"lat":-13.71667,"pop":0},{"id":931095,"name":"Chikungu","lon":33.22707,"lat":-13.47886,"pop":0},{"id":12170424,"name":"Chikunguweya","lon":33.60488,"lat":-10.331,"pop":0},{"id":12170600,"name":"Chikunguweya","lon":33.52588,"lat":-10.77882,"pop":0},{"id":12170603,"name":"Chikunguweya","lon":33.52958,"lat":-10.79355,"pop":0},{"id":931089,"name":"Chikuni","lon":33.88333,"lat":-12.11667,"pop":0},{"id":931090,"name":"Chikuni","lon":33.9,"lat":-12.1,"pop":0},{"id":12182888,"name":"Chikuni","lon":33.31991,"lat":-12.87059,"pop":0},{"id":12183348,"name":"Chikuni","lon":33.42465,"lat":-13.3666,"pop":0},{"id":12185132,"name":"Chikuni","lon":33.08692,"lat":-13.78941,"pop":0},{"id":931087,"name":"Chikunumbu","lon":34.1,"lat":-13.31667,"pop":0},{"id":8478232,"name":"Chikupizga Village","lon":33.63067,"lat":-10.92414,"pop":50},{"id":931086,"name":"Chikusa","lon":33.3687,"lat":-13.87289,"pop":0},{"id":12183488,"name":"Chikusa","lon":33.81373,"lat":-13.19314,"pop":0},{"id":12183579,"name":"Chikusa","lon":33.86208,"lat":-13.39966,"pop":0},{"id":12185618,"name":"Chikuse","lon":33.90186,"lat":-13.80124,"pop":0},{"id":931085,"name":"Chikuta","lon":33.14103,"lat":-13.89346,"pop":0},{"id":12183119,"name":"Chikuta","lon":33.92294,"lat":-12.87485,"pop":0},{"id":12183497,"name":"Chikuta","lon":33.77096,"lat":-13.23525,"pop":0},{"id":931084,"name":"Chikute","lon":32.81081,"lat":-13.55917,"pop":0},{"id":12185635,"name":"Chikuti","lon":33.90555,"lat":-13.8818,"pop":0},{"id":12170217,"name":"Chikutu","lon":33.75059,"lat":-9.7568,"pop":0},{"id":931083,"name":"Chikuwangoma","lon":34.22454,"lat":-11.28998,"pop":0},{"id":931082,"name":"Chikuwita","lon":35.66667,"lat":-14.86667,"pop":0},{"id":12183105,"name":"Chikuyu","lon":33.85378,"lat":-12.96993,"pop":0},{"id":12182414,"name":"Chikuzga Harawa","lon":34.08121,"lat":-10.80005,"pop":0},{"id":931078,"name":"Chikuzulire","alt":["Chikudzulire","Chikuzulira"],"lon":33.35862,"lat":-13.95226,"pop":0},{"id":12182650,"name":"Chikwa Theu","lon":33.7359,"lat":-12.01803,"pop":0},{"id":931076,"name":"Chikwakwa","lon":33.83333,"lat":-13.25,"pop":0},{"id":12177462,"name":"Chikwati Mkandawire","lon":33.60281,"lat":-11.16711,"pop":0},{"id":12185357,"name":"Chikwatula","lon":33.43201,"lat":-13.83343,"pop":0},{"id":931069,"name":"Chikwawa","lon":35.28333,"lat":-16.76667,"pop":0},{"id":931070,"name":"Chikwawa","lon":34.80091,"lat":-16.03352,"pop":6987},{"id":931071,"name":"Chikwawa","lon":34.03333,"lat":-13.4,"pop":0},{"id":12177590,"name":"Chikwawa","lon":33.77889,"lat":-11.00241,"pop":0},{"id":931065,"name":"Chikwawe","lon":33.95,"lat":-13.48333,"pop":0},{"id":931064,"name":"Chikwawi","lon":33.59514,"lat":-13.43812,"pop":0},{"id":12185084,"name":"Chikwekwe","lon":33.25981,"lat":-13.69618,"pop":0},{"id":930189,"name":"Chikwengwe","alt":["Cikwengwe"],"lon":33.32368,"lat":-12.59993,"pop":0},{"id":931063,"name":"Chikweo","alt":["Chikwewo"],"lon":35.66906,"lat":-14.76481,"pop":0},{"id":930188,"name":"Chikwesa","alt":["Cikwesa"],"lon":33.43552,"lat":-12.89222,"pop":0},{"id":931062,"name":"Chikweze","lon":33.51435,"lat":-12.76807,"pop":0},{"id":931061,"name":"Chikwina","lon":34.17239,"lat":-11.39792,"pop":0},{"id":931058,"name":"Chiladzulo","lon":34.96667,"lat":-14.91667,"pop":0},{"id":12185513,"name":"Chilakalaka","lon":33.73003,"lat":-13.63689,"pop":0},{"id":931056,"name":"Chilala","lon":35.52478,"lat":-14.89284,"pop":0},{"id":931054,"name":"Chilambe","lon":35.43333,"lat":-15.28333,"pop":0},{"id":12177437,"name":"Chilambe Mkandawire","lon":33.39991,"lat":-11.4283,"pop":0},{"id":931053,"name":"Chilando","lon":33.77042,"lat":-13.69944,"pop":0},{"id":931050,"name":"Chilanga","alt":["Kasese"],"lon":33.50672,"lat":-13.27774,"pop":0},{"id":931051,"name":"Chilanga","lon":33.48556,"lat":-13.10134,"pop":0},{"id":931052,"name":"Chilanga","lon":33.50464,"lat":-13.10268,"pop":0},{"id":12189494,"name":"Chilanga","lon":33.50111,"lat":-13.01183,"pop":0},{"id":931044,"name":"Chilasa","lon":33.88781,"lat":-13.28929,"pop":0},{"id":12183589,"name":"Chilasa","lon":33.85023,"lat":-13.46165,"pop":0},{"id":12169960,"name":"Chilashi","lon":33.57919,"lat":-9.69339,"pop":0},{"id":931043,"name":"Chilawa","lon":33.63912,"lat":-13.47188,"pop":0},{"id":12182375,"name":"Chilawera","lon":34.17861,"lat":-10.56774,"pop":0},{"id":931042,"name":"Chilawo","lon":33.66191,"lat":-12.34334,"pop":0},{"id":931041,"name":"Chilawo Banda","lon":33.76667,"lat":-12.4,"pop":0},{"id":12185020,"name":"Chilaya","lon":33.01389,"lat":-13.64889,"pop":0},{"id":931038,"name":"Chileka","lon":34.43481,"lat":-15.97734,"pop":0},{"id":931039,"name":"Chileka","lon":34.9376,"lat":-15.66792,"pop":0},{"id":931040,"name":"Chileka","lon":33.39014,"lat":-14.0233,"pop":0},{"id":931035,"name":"Chilemba","lon":35.3336,"lat":-14.7488,"pop":0},{"id":931036,"name":"Chilemba","lon":33.59323,"lat":-13.35424,"pop":0},{"id":12182921,"name":"Chilemba","lon":33.43629,"lat":-12.76934,"pop":0},{"id":12185442,"name":"Chilemba","lon":33.59604,"lat":-13.62066,"pop":0},{"id":12185510,"name":"Chilembwa","lon":33.73583,"lat":-13.56616,"pop":0},{"id":930184,"name":"Chilembwe","alt":["Cilembwe"],"lon":33.33059,"lat":-12.81279,"pop":0},{"id":931030,"name":"Chilembwe","lon":33.93333,"lat":-14.21667,"pop":0},{"id":931031,"name":"Chilembwe","lon":33.9,"lat":-14.16667,"pop":0},{"id":931032,"name":"Chilembwe","lon":34.02493,"lat":-13.40894,"pop":0},{"id":12181939,"name":"Chilembwe","lon":33.47945,"lat":-13.95778,"pop":0},{"id":12183107,"name":"Chilembwe","lon":33.79415,"lat":-12.97322,"pop":0},{"id":931027,"name":"Chilemele","lon":35.33333,"lat":-15.4,"pop":0},{"id":931024,"name":"Chilenga","lon":33.10759,"lat":-13.95255,"pop":0},{"id":931025,"name":"Chilenga","lon":33.018,"lat":-13.95749,"pop":0},{"id":931026,"name":"Chilenga","lon":33.23787,"lat":-13.85018,"pop":0},{"id":12177532,"name":"Chilera Ngwira","lon":33.79169,"lat":-11.03818,"pop":0},{"id":930567,"name":"Chilerawana","alt":["Chirerawana"],"lon":34.26358,"lat":-11.63894,"pop":0},{"id":12183086,"name":"Chilevulevu","lon":33.82446,"lat":-12.90395,"pop":0},{"id":931022,"name":"Chilibuno","lon":34.21399,"lat":-12.85674,"pop":0},{"id":12177548,"name":"Chilida","lon":33.8621,"lat":-11.2278,"pop":0},{"id":12185412,"name":"Chilikhanda Dambo","lon":33.46784,"lat":-13.98841,"pop":0},{"id":931020,"name":"Chilikumwendo","lon":33.95,"lat":-14.21667,"pop":0},{"id":931018,"name":"Chilima","lon":33.98333,"lat":-14.06667,"pop":0},{"id":931019,"name":"Chilima","lon":34.11803,"lat":-13.80085,"pop":0},{"id":931016,"name":"Chilimang’ombe","lon":33.96667,"lat":-14.05,"pop":0},{"id":931015,"name":"Chilimani","lon":35.45,"lat":-15.35,"pop":0},{"id":931014,"name":"Chilimba","lon":35.38333,"lat":-15.35,"pop":0},{"id":12185432,"name":"Chilimimba","lon":33.55496,"lat":-13.55877,"pop":0},{"id":931013,"name":"Chilinde","lon":33.81042,"lat":-13.99463,"pop":0},{"id":12185018,"name":"Chilinde","lon":33.06153,"lat":-13.64948,"pop":0},{"id":931011,"name":"Chilindira","lon":33.58333,"lat":-13.28333,"pop":0},{"id":931012,"name":"Chilindira","lon":33.6,"lat":-13.11667,"pop":0},{"id":12182428,"name":"Chiling’oma Munthali","alt":["Chiling'oma Munthali"],"lon":34.03216,"lat":-10.87002,"pop":0},{"id":235761,"name":"Chilingi","lon":33.03333,"lat":-9.55,"pop":0},{"id":931006,"name":"Chilinkholi","alt":["Chilinkoli"],"lon":33.46415,"lat":-13.32638,"pop":0},{"id":931005,"name":"Chilipa","lon":34.97792,"lat":-14.69802,"pop":0},{"id":931003,"name":"Chiloa","lon":33.5,"lat":-13.1,"pop":0},{"id":931001,"name":"Chiloa Matambe","lon":33.51667,"lat":-13.08333,"pop":0},{"id":11467880,"name":"Chilobwe","lon":35.00693,"lat":-15.83006,"pop":0},{"id":12178069,"name":"Chilokhola Chirwa","lon":33.77548,"lat":-11.94895,"pop":0},{"id":930996,"name":"Chilolo","lon":35.75,"lat":-14.81667,"pop":0},{"id":930997,"name":"Chilolo","lon":33.57528,"lat":-13.4166,"pop":0},{"id":12182522,"name":"Chilomba Nyirongo","lon":33.35803,"lat":-12.18121,"pop":0},{"id":930995,"name":"Chilombo","lon":35.33333,"lat":-15.48333,"pop":0},{"id":12185216,"name":"Chilombo","lon":33.36348,"lat":-13.78032,"pop":0},{"id":7840044,"name":"Chilomoni","lon":34.98236,"lat":-15.77928,"pop":0},{"id":930994,"name":"Chilonga","lon":33.51667,"lat":-13.66667,"pop":0},{"id":931323,"name":"Chilonga","alt":["Chelonga"],"lon":34.14607,"lat":-10.46348,"pop":0},{"id":12170314,"name":"Chilongo","lon":33.66612,"lat":-10.23061,"pop":0},{"id":12170345,"name":"Chilongo","lon":33.69719,"lat":-10.12089,"pop":0},{"id":12170657,"name":"Chilongozi","lon":33.74214,"lat":-10.96944,"pop":0},{"id":930992,"name":"Chilonje","lon":33.85,"lat":-13.33333,"pop":0},{"id":930991,"name":"Chilooko","alt":["Chilooka"],"lon":33.87032,"lat":-13.26254,"pop":0},{"id":930990,"name":"Chilooku","lon":33.83333,"lat":-13.15,"pop":0},{"id":930989,"name":"Chilopola","lon":33.95,"lat":-13.41667,"pop":0},{"id":930987,"name":"Chilowa","lon":33.8,"lat":-14.16667,"pop":0},{"id":930988,"name":"Chilowa","lon":33.37583,"lat":-13.68946,"pop":0},{"id":931002,"name":"Chilowa","alt":["Chiloa"],"lon":33.15017,"lat":-13.43392,"pop":0},{"id":12182879,"name":"Chilowa","lon":33.32691,"lat":-12.79975,"pop":0},{"id":930999,"name":"Chilowa Nyirongo","alt":["Chiloa Nyilonga"],"lon":33.50708,"lat":-13.09795,"pop":0},{"id":931000,"name":"Chilowamatambe","alt":["Chiloa Matambe"],"lon":33.67095,"lat":-13.11835,"pop":0},{"id":12183476,"name":"Chilowamatambe","lon":33.75249,"lat":-13.14654,"pop":0},{"id":12182822,"name":"Chiloweni","lon":33.46583,"lat":-12.66687,"pop":0},{"id":12170570,"name":"Chilufya Nundwe","lon":33.49619,"lat":-10.84793,"pop":0},{"id":12170714,"name":"Chilulu","lon":33.96664,"lat":-10.90904,"pop":0},{"id":930986,"name":"Chilumba","alt":["Chirumba","Deep Bay","Pankanga"],"lon":34.24773,"lat":-10.43344,"pop":0},{"id":12185560,"name":"Chilumpha","lon":33.8375,"lat":-13.99284,"pop":0},{"id":12177556,"name":"Chilundanya","lon":33.78791,"lat":-11.00529,"pop":0},{"id":930981,"name":"Chilundu","alt":["Chilungu"],"lon":33.15992,"lat":-13.90535,"pop":0},{"id":930980,"name":"Chilunga","lon":35.46667,"lat":-15.43333,"pop":0},{"id":12185550,"name":"Chilunga","lon":33.78407,"lat":-13.90528,"pop":0},{"id":12182539,"name":"Chilupula Mtonga","lon":33.38081,"lat":-12.09882,"pop":0},{"id":12183347,"name":"Chilusa","lon":33.37398,"lat":-13.3683,"pop":0},{"id":930977,"name":"Chilusi","lon":33.79271,"lat":-13.68775,"pop":0},{"id":930976,"name":"Chiluvya","lon":34.04539,"lat":-12.33961,"pop":0},{"id":930545,"name":"Chiluwe","alt":["Chiruwe"],"lon":33.23245,"lat":-13.53307,"pop":0},{"id":930975,"name":"Chima","lon":33.76851,"lat":-13.09958,"pop":0},{"id":12183486,"name":"Chimaimba","lon":33.84358,"lat":-13.21726,"pop":0},{"id":930974,"name":"Chimala","lon":35.6,"lat":-14.7,"pop":0},{"id":12170070,"name":"Chimalabanthu","lon":33.84661,"lat":-9.76192,"pop":0},{"id":12182433,"name":"Chimalawanthu Nyirenda","lon":34.03645,"lat":-10.90282,"pop":0},{"id":12170297,"name":"Chimaliro","lon":33.56255,"lat":-10.1921,"pop":0},{"id":12182852,"name":"Chimaliro","lon":33.41699,"lat":-12.51353,"pop":0},{"id":930969,"name":"Chimamba","lon":33.58044,"lat":-13.36243,"pop":0},{"id":930968,"name":"Chimambo","lon":33.46183,"lat":-13.65115,"pop":0},{"id":930966,"name":"Chimanda","lon":35.84172,"lat":-14.67171,"pop":0},{"id":12170476,"name":"Chimanga","lon":33.74493,"lat":-10.29458,"pop":0},{"id":12177820,"name":"Chimangamachila Langa","lon":33.47297,"lat":-11.99085,"pop":0},{"id":930965,"name":"Chimango","lon":33.97066,"lat":-14.15392,"pop":0},{"id":12183649,"name":"Chimatiro","lon":33.98692,"lat":-13.35271,"pop":0},{"id":12170565,"name":"Chimbabvi","lon":33.48933,"lat":-10.82291,"pop":0},{"id":930962,"name":"Chimbadzo","lon":33,"lat":-13.81667,"pop":0},{"id":930961,"name":"Chimbaka","lon":33.29529,"lat":-13.63922,"pop":0},{"id":930960,"name":"Chimbala","lon":34.31667,"lat":-13.7,"pop":0},{"id":930954,"name":"Chimbalanga","lon":35.4,"lat":-15.48333,"pop":0},{"id":930955,"name":"Chimbalanga","lon":34.62971,"lat":-15.25094,"pop":0},{"id":930956,"name":"Chimbalanga","lon":34.43333,"lat":-13.78333,"pop":0},{"id":930957,"name":"Chimbalanga","lon":34.01667,"lat":-13.4,"pop":0},{"id":930958,"name":"Chimbalanga","lon":34.08333,"lat":-13.31667,"pop":0},{"id":930953,"name":"Chimbalenga","lon":35.78447,"lat":-15.54542,"pop":0},{"id":930951,"name":"Chimbalu","lon":33.6,"lat":-13.71667,"pop":0},{"id":930952,"name":"Chimbalu","lon":33.59901,"lat":-13.69802,"pop":0},{"id":12183532,"name":"Chimbalu","lon":33.7637,"lat":-13.28138,"pop":0},{"id":930949,"name":"Chimbano","alt":["Chindano Village"],"lon":34.16498,"lat":-11.92159,"pop":0},{"id":930948,"name":"Chimbaru","lon":33.7204,"lat":-13.27323,"pop":0},{"id":930947,"name":"Chimbembe","lon":34.88333,"lat":-16.45,"pop":0},{"id":12177487,"name":"Chimbere Makwakwa","lon":33.72131,"lat":-11.24321,"pop":0},{"id":930946,"name":"Chimbete","lon":34.01667,"lat":-13.56667,"pop":0},{"id":930945,"name":"Chimbia","lon":34.5898,"lat":-15.08243,"pop":0},{"id":930944,"name":"Chimbila","lon":35.7987,"lat":-14.59522,"pop":0},{"id":12182833,"name":"Chimbilanjala","lon":33.47118,"lat":-12.60215,"pop":0},{"id":12182860,"name":"Chimbilanjala","lon":33.48452,"lat":-12.59333,"pop":0},{"id":12183489,"name":"Chimbili","lon":33.80103,"lat":-13.19328,"pop":0},{"id":930943,"name":"Chimbindu","lon":34.10855,"lat":-13.36926,"pop":0},{"id":930939,"name":"Chimbonga","lon":33.51635,"lat":-13.23789,"pop":0},{"id":930940,"name":"Chimbonga","lon":33.78333,"lat":-13.03333,"pop":0},{"id":12177704,"name":"Chimbongonda","lon":33.79243,"lat":-11.47449,"pop":0},{"id":930938,"name":"Chimbowoyera Mhone","alt":["Chimboyera"],"lon":33.78621,"lat":-11.46993,"pop":0},{"id":930937,"name":"Chimbuli","lon":33.68114,"lat":-13.35136,"pop":0},{"id":927295,"name":"Chimbuli Maluwa","alt":["Maluwa"],"lon":33.28913,"lat":-12.67998,"pop":0},{"id":930935,"name":"Chimbumbuka","lon":34.17187,"lat":-12.59925,"pop":0},{"id":930934,"name":"Chimbumbuli","lon":35.5,"lat":-14.36667,"pop":0},{"id":12183226,"name":"Chimbuna","lon":33.48049,"lat":-13.04626,"pop":0},{"id":930933,"name":"Chimbuto","lon":34.21667,"lat":-12.93333,"pop":0},{"id":12183078,"name":"Chimbuzi","lon":33.78881,"lat":-12.86201,"pop":0},{"id":12177749,"name":"Chimbuzimbuzi Chavura","lon":33.94346,"lat":-11.32313,"pop":0},{"id":930931,"name":"Chimbwanda","lon":33.91275,"lat":-13.33751,"pop":0},{"id":930930,"name":"Chimbwanya","lon":35.58333,"lat":-14.98333,"pop":0},{"id":12182908,"name":"Chimbwazi","lon":33.42354,"lat":-12.85273,"pop":0},{"id":930926,"name":"Chimbwinda","lon":34.50466,"lat":-15.72302,"pop":0},{"id":930171,"name":"Chimchimba","alt":["Cimcimba"],"lon":33.60864,"lat":-12.69785,"pop":0},{"id":930925,"name":"Chimdima Mhango","lon":33.68333,"lat":-11.38333,"pop":0},{"id":930924,"name":"Chimelango","lon":34.43631,"lat":-15.65556,"pop":0},{"id":930923,"name":"Chimelela","lon":33.35,"lat":-13.28333,"pop":0},{"id":12185073,"name":"Chimelera","lon":33.21392,"lat":-13.50042,"pop":0},{"id":930920,"name":"Chimesya","alt":["Chimwesya"],"lon":35.37398,"lat":-14.75421,"pop":0},{"id":930917,"name":"Chimgonda","lon":34,"lat":-12.25,"pop":0},{"id":930918,"name":"Chimgonda","lon":33.94531,"lat":-12.21948,"pop":0},{"id":930919,"name":"Chimgonda","lon":33.986,"lat":-12.21989,"pop":0},{"id":930936,"name":"Chimhuli","alt":["Chimbuli"],"lon":33.61984,"lat":-13.62921,"pop":0},{"id":930914,"name":"Chimimba","lon":33.37523,"lat":-13.72652,"pop":0},{"id":930915,"name":"Chimimba","lon":33.38462,"lat":-13.73542,"pop":0},{"id":12177614,"name":"Chimimba Chipeta","lon":33.54437,"lat":-11.40566,"pop":0},{"id":12177967,"name":"Chimimba Nkhata","lon":33.70986,"lat":-11.60784,"pop":0},{"id":12183480,"name":"Chimkaka","lon":33.85142,"lat":-13.18134,"pop":0},{"id":930911,"name":"Chimkoka","lon":33.65054,"lat":-13.32742,"pop":0},{"id":930912,"name":"Chimkoka","lon":33.69837,"lat":-12.8995,"pop":0},{"id":930909,"name":"Chimkoko","lon":33.55,"lat":-13.71667,"pop":0},{"id":930910,"name":"Chimkoko","lon":33.6,"lat":-13.7,"pop":0},{"id":930907,"name":"Chimkusa","lon":33.53572,"lat":-12.26667,"pop":0},{"id":930908,"name":"Chimkusa","lon":33.53869,"lat":-12.25286,"pop":0},{"id":930906,"name":"Chimndulu","lon":33.63333,"lat":-13.13333,"pop":0},{"id":12185042,"name":"Chimoka","lon":33.16718,"lat":-13.66108,"pop":0},{"id":12185551,"name":"Chimoko","lon":33.75579,"lat":-13.90512,"pop":0},{"id":930165,"name":"Chimombo","alt":["Cimombo"],"lon":33.29716,"lat":-12.62542,"pop":0},{"id":930901,"name":"Chimombo","lon":35.23333,"lat":-17.01667,"pop":0},{"id":930902,"name":"Chimombo","lon":35.58333,"lat":-14.7,"pop":0},{"id":930903,"name":"Chimombo","lon":33.92825,"lat":-14.17222,"pop":0},{"id":930904,"name":"Chimombo","lon":33.87697,"lat":-13.55068,"pop":0},{"id":930905,"name":"Chimombo","lon":33.94136,"lat":-11.00522,"pop":0},{"id":930941,"name":"Chimombo","alt":["Chimbobo"],"lon":33.34628,"lat":-13.61535,"pop":0},{"id":12185099,"name":"Chimombo","lon":33.34909,"lat":-13.6435,"pop":0},{"id":12185041,"name":"Chimongo","lon":33.1857,"lat":-13.6686,"pop":0},{"id":12185309,"name":"Chimongo","lon":33.47655,"lat":-13.93858,"pop":0},{"id":930900,"name":"Chimono","lon":33.35,"lat":-13.93333,"pop":0},{"id":12185609,"name":"Chimoto","lon":33.91504,"lat":-13.76466,"pop":0},{"id":930899,"name":"Chimozimozi Banda","lon":33.47108,"lat":-11.6018,"pop":0},{"id":930898,"name":"Chimpala","lon":34.03333,"lat":-13.68333,"pop":0},{"id":930895,"name":"Chimpamba","lon":34.84933,"lat":-14.07812,"pop":0},{"id":930897,"name":"Chimpamba","lon":33.58333,"lat":-13.06667,"pop":0},{"id":930894,"name":"Chimpambana","lon":34.9,"lat":-16.46667,"pop":0},{"id":930893,"name":"Chimpando","lon":34.27993,"lat":-14.19081,"pop":0},{"id":930892,"name":"Chimpangu","lon":33.47785,"lat":-14.10822,"pop":0},{"id":930891,"name":"Chimpanzi","lon":34.63333,"lat":-15.48333,"pop":0},{"id":930889,"name":"Chimpeni","lon":33.43333,"lat":-13.93333,"pop":0},{"id":12185431,"name":"Chimpeni","lon":33.53255,"lat":-13.53045,"pop":0},{"id":930887,"name":"Chimpere","lon":33.88333,"lat":-13.15,"pop":0},{"id":12182356,"name":"Chimphamba Kaluwa","lon":34.18595,"lat":-10.71081,"pop":0},{"id":930886,"name":"Chimphanga","lon":34.33333,"lat":-13.5,"pop":0},{"id":12185368,"name":"Chimphepe","lon":33.40477,"lat":-13.78876,"pop":0},{"id":930885,"name":"Chimphepo","lon":33.68798,"lat":-13.04634,"pop":0},{"id":12182243,"name":"Chimphinga","lon":34.15414,"lat":-10.49598,"pop":0},{"id":930884,"name":"Chimphithi","lon":33.68333,"lat":-13.18333,"pop":0},{"id":930880,"name":"Chimphonda","alt":["Chimponda"],"lon":33.78203,"lat":-13.22156,"pop":0},{"id":12183215,"name":"Chimphoyo","lon":33.37516,"lat":-13.10912,"pop":0},{"id":930881,"name":"Chimpipo","lon":33.8,"lat":-13.31667,"pop":0},{"id":930879,"name":"Chimponda","lon":34.01667,"lat":-13.41667,"pop":0},{"id":930878,"name":"Chimptsolo","lon":33.53333,"lat":-13.65,"pop":0},{"id":12183564,"name":"Chimsasa","lon":33.81174,"lat":-13.31723,"pop":0},{"id":930877,"name":"Chimsebezo Banda","alt":["Chimsewenzo"],"lon":33.38345,"lat":-12.13028,"pop":0},{"id":12182515,"name":"Chimsembezo Banda","lon":33.39349,"lat":-12.13244,"pop":0},{"id":930876,"name":"Chimsoro Jere","lon":33.53333,"lat":-12.3,"pop":0},{"id":12177711,"name":"Chimtambo Mjuma","lon":33.92743,"lat":-11.48272,"pop":0},{"id":930873,"name":"Chimtembo","lon":33.7,"lat":-12.28333,"pop":0},{"id":930875,"name":"Chimtembo","lon":33.81667,"lat":-12.16667,"pop":0},{"id":930874,"name":"Chimtembo Nyalubanga","alt":["Chimtembo"],"lon":33.71055,"lat":-12.22601,"pop":0},{"id":930722,"name":"Chimtolo","alt":["Chintoto"],"lon":33.3431,"lat":-13.66701,"pop":0},{"id":930872,"name":"Chimubve","lon":34.36667,"lat":-13.76667,"pop":0},{"id":12177801,"name":"Chimubwangandu Kamanga","lon":33.33182,"lat":-11.8971,"pop":0},{"id":12170617,"name":"Chimuduzi","lon":33.55293,"lat":-10.88721,"pop":0},{"id":12185447,"name":"Chimukoko Thuphwi","lon":33.51378,"lat":-13.64561,"pop":0},{"id":12182756,"name":"Chimulu Kasenga Chimugoda","lon":33.86145,"lat":-12.44667,"pop":0},{"id":930870,"name":"Chimuru","alt":["Chimbaru","Chimura"],"lon":33.96581,"lat":-12.48471,"pop":0},{"id":12182733,"name":"Chimuruchi Nyirenda","lon":33.60614,"lat":-12.28053,"pop":0},{"id":12170717,"name":"Chimusi Mhango","lon":33.9971,"lat":-10.88358,"pop":0},{"id":930869,"name":"Chimute","alt":["Nzulu"],"lon":32.97321,"lat":-13.802,"pop":0},{"id":930868,"name":"Chimutha","lon":33.83602,"lat":-12.89182,"pop":0},{"id":930160,"name":"Chimutu","alt":["Cimutu"],"lon":33.86438,"lat":-13.9831,"pop":0},{"id":930861,"name":"Chimutu","lon":33.81667,"lat":-14.06667,"pop":0},{"id":930862,"name":"Chimutu","lon":34.25,"lat":-13.85,"pop":0},{"id":930863,"name":"Chimutu","lon":33.92714,"lat":-13.85639,"pop":0},{"id":930864,"name":"Chimutu","lon":33.01667,"lat":-13.68333,"pop":0},{"id":930867,"name":"Chimutu","alt":["Chimuti"],"lon":33.04699,"lat":-13.73499,"pop":0},{"id":12185559,"name":"Chimutu","lon":33.78419,"lat":-13.94891,"pop":0},{"id":930866,"name":"Chimutu Hara","alt":["Chimutu"],"lon":33.45058,"lat":-12.02277,"pop":0},{"id":12177690,"name":"Chimuzinga Tembo","lon":33.75871,"lat":-11.39988,"pop":0},{"id":12185492,"name":"Chimveka","lon":33.69643,"lat":-13.58019,"pop":0},{"id":12183008,"name":"Chimwa","lon":33.61479,"lat":-12.69513,"pop":0},{"id":930845,"name":"Chimwala","alt":["Chimwara"],"lon":33.46784,"lat":-13.30538,"pop":0},{"id":930851,"name":"Chimwala","lon":35.23333,"lat":-16.95,"pop":0},{"id":930852,"name":"Chimwala","lon":35.18328,"lat":-14.63858,"pop":0},{"id":930853,"name":"Chimwala","lon":33.48271,"lat":-14.00201,"pop":0},{"id":930854,"name":"Chimwala","lon":33.81667,"lat":-13.66667,"pop":0},{"id":930855,"name":"Chimwala","lon":33.9402,"lat":-13.49261,"pop":0},{"id":12183540,"name":"Chimwala","lon":33.77452,"lat":-13.38833,"pop":0},{"id":12185011,"name":"Chimwala","lon":33.08419,"lat":-13.55848,"pop":0},{"id":12182950,"name":"Chimwamkango","lon":32.99332,"lat":-13.4054,"pop":0},{"id":12183283,"name":"Chimwamkango","lon":33.00261,"lat":-13.41753,"pop":0},{"id":12185538,"name":"Chimwanya","lon":33.77245,"lat":-13.84758,"pop":0},{"id":930844,"name":"Chimwara","lon":33.05,"lat":-13.6,"pop":0},{"id":930843,"name":"Chimwaye","lon":33.56667,"lat":-13.16667,"pop":0},{"id":930841,"name":"Chimwembe","lon":32.85,"lat":-13.46667,"pop":0},{"id":12177973,"name":"Chimwembe Mapala","lon":33.62349,"lat":-11.59308,"pop":0},{"id":12178004,"name":"Chimwembe Mapala","lon":33.63518,"lat":-11.61358,"pop":0},{"id":11774418,"name":"Chimwembwe Chinkhuntha","lon":33.43598,"lat":-11.5436,"pop":0},{"id":930838,"name":"Chimwendo","lon":33.54404,"lat":-13.41041,"pop":0},{"id":930839,"name":"Chimwendo","lon":33.88427,"lat":-13.31108,"pop":0},{"id":930840,"name":"Chimwendo","lon":33.48282,"lat":-12.93139,"pop":0},{"id":930835,"name":"Chimwere","lon":35.3,"lat":-15.4,"pop":0},{"id":930836,"name":"Chimwere","lon":33.85008,"lat":-13.69381,"pop":0},{"id":12183604,"name":"Chimwere","lon":33.89764,"lat":-13.41826,"pop":0},{"id":930834,"name":"Chimweyo","lon":34.01667,"lat":-12.25,"pop":0},{"id":930154,"name":"Chimzinga","alt":["Cimzinga"],"lon":33.53398,"lat":-12.38582,"pop":0},{"id":930833,"name":"Chimzinga","lon":33.40753,"lat":-12.55769,"pop":0},{"id":12182501,"name":"Chimzinga Nkhoswe","lon":33.65011,"lat":-12.21185,"pop":0},{"id":930798,"name":"Chin’gamba","lon":34.75206,"lat":-14.62159,"pop":0},{"id":930831,"name":"China","lon":33.30609,"lat":-12.58227,"pop":0},{"id":930830,"name":"Chinamule","lon":33.43333,"lat":-13.31667,"pop":0},{"id":930828,"name":"Chinavinga","lon":33.6,"lat":-13.65,"pop":0},{"id":930826,"name":"Chinchere","lon":33.98333,"lat":-14.15,"pop":0},{"id":930827,"name":"Chinchere","lon":33.36667,"lat":-13.7,"pop":0},{"id":930151,"name":"Chincheto","alt":["Cincheto"],"lon":33.5564,"lat":-12.3763,"pop":0},{"id":930825,"name":"Chindamba","lon":35.6,"lat":-14.85,"pop":0},{"id":12169701,"name":"Chindamba","lon":33.4618,"lat":-9.98508,"pop":0},{"id":12169716,"name":"Chindamba","lon":33.47397,"lat":-9.9385,"pop":0},{"id":930824,"name":"Chindambo","lon":35.28333,"lat":-15.46667,"pop":0},{"id":930823,"name":"Chinde","alt":["Chindi Jere"],"lon":33.41667,"lat":-11.45,"pop":0},{"id":12177602,"name":"Chinde Nkosi","lon":33.72449,"lat":-11.46135,"pop":0},{"id":12182750,"name":"Chindebvu Kamanga","lon":33.7546,"lat":-12.45804,"pop":0},{"id":930822,"name":"Chindevu","lon":34.06881,"lat":-11.60183,"pop":0},{"id":12177445,"name":"Chindewe Nyirenda","lon":33.48601,"lat":-11.49111,"pop":0},{"id":12185689,"name":"Chindidi","lon":33.93751,"lat":-13.84882,"pop":0},{"id":12177878,"name":"Chindindindi","lon":33.47751,"lat":-11.79464,"pop":0},{"id":930820,"name":"Chindoka","lon":33.56399,"lat":-12.29429,"pop":0},{"id":930821,"name":"Chindoka","lon":33.56417,"lat":-12.28458,"pop":0},{"id":12182620,"name":"Chindoka Mzilikazi Jonazi","lon":33.46076,"lat":-12.2645,"pop":0},{"id":930819,"name":"Chindozwa","lon":34.3,"lat":-11.6,"pop":0},{"id":12183133,"name":"Chindukuwa","lon":32.96923,"lat":-13.48681,"pop":0},{"id":930818,"name":"Chindungwa","lon":34.48333,"lat":-13.81667,"pop":0},{"id":930817,"name":"Chindura","lon":33.91743,"lat":-13.64514,"pop":0},{"id":930816,"name":"Chinduta","lon":33.55,"lat":-13.23333,"pop":0},{"id":930815,"name":"Chinduwe","lon":33.46667,"lat":-13.11667,"pop":0},{"id":930812,"name":"Chinemba","lon":33.66667,"lat":-13.05,"pop":0},{"id":930813,"name":"Chinemba","lon":34.17828,"lat":-12.54451,"pop":0},{"id":12182421,"name":"Chineo Nyirongo","lon":34.00541,"lat":-10.82711,"pop":0},{"id":930810,"name":"Chineusi","alt":["Chineusa"],"lon":33.01667,"lat":-13.85,"pop":0},{"id":12183515,"name":"Ching’amba","alt":["Ching'amba"],"lon":33.93124,"lat":-13.13701,"pop":0},{"id":930796,"name":"Ching’anga","alt":["Ching'anga","Chinganga"],"lon":33.33944,"lat":-13.81691,"pop":0},{"id":930795,"name":"Ching’anya","alt":["Ching'anya","Chinganya"],"lon":34.2641,"lat":-11.69593,"pop":0},{"id":12170437,"name":"Ching’anya","alt":["Ching'anya"],"lon":33.67949,"lat":-10.4536,"pop":0},{"id":12170615,"name":"Ching’anya","alt":["Ching'anya"],"lon":33.5089,"lat":-10.84601,"pop":0},{"id":12177942,"name":"Ching’anya","alt":["Ching'anya"],"lon":33.5112,"lat":-11.61236,"pop":0},{"id":930781,"name":"Ching’oma","lon":35.58333,"lat":-14.91667,"pop":0},{"id":12178115,"name":"Ching’oma","alt":["Ching'oma"],"lon":34.24626,"lat":-11.71607,"pop":0},{"id":930780,"name":"Ching’ombe","alt":["Ching'ombe","Chingombe"],"lon":33.82035,"lat":-13.11739,"pop":0},{"id":12183464,"name":"Ching’ombe","alt":["Ching'ombe"],"lon":33.75392,"lat":-13.11781,"pop":0},{"id":924714,"name":"Chingababa Nkhonjera","alt":["Nkhonjera"],"lon":33.74955,"lat":-11.0472,"pop":0},{"id":12182857,"name":"Chingala","lon":33.49478,"lat":-12.53369,"pop":0},{"id":930807,"name":"Chingalande","lon":33.50597,"lat":-13.71492,"pop":0},{"id":930806,"name":"Chingalanganda","lon":35.3055,"lat":-15.41369,"pop":0},{"id":930803,"name":"Chingali","lon":35.18277,"lat":-15.40003,"pop":0},{"id":930804,"name":"Chingali","lon":33.77345,"lat":-13.6883,"pop":0},{"id":930801,"name":"Chingaliwa","lon":34.3226,"lat":-11.67372,"pop":0},{"id":930799,"name":"Chingamba","lon":33.83732,"lat":-13.09813,"pop":0},{"id":930238,"name":"Chinganilo","alt":["Chunganiro"],"lon":33.91391,"lat":-13.32332,"pop":0},{"id":930148,"name":"Chinganji","alt":["Cinganji"],"lon":33.93699,"lat":-12.86768,"pop":0},{"id":930793,"name":"Chinganyama","lon":33.63333,"lat":-13.68333,"pop":0},{"id":930794,"name":"Chinganyama","lon":33.63333,"lat":-13.66667,"pop":0},{"id":12177894,"name":"Chingati Chirwa","lon":33.48055,"lat":-11.92597,"pop":0},{"id":930791,"name":"Chingazi","lon":35.10269,"lat":-16.18253,"pop":0},{"id":930787,"name":"Chingeni","lon":34.89796,"lat":-14.9546,"pop":0},{"id":930788,"name":"Chingereze Mithi","alt":["Chingelezi Mithi"],"lon":33.86727,"lat":-11.1001,"pop":0},{"id":930786,"name":"Chingira","alt":["Chingila"],"lon":33.91264,"lat":-13.97052,"pop":0},{"id":930785,"name":"Chingole","lon":34.32836,"lat":-13.18367,"pop":0},{"id":930783,"name":"Chingoma","lon":33.70243,"lat":-13.42104,"pop":0},{"id":930779,"name":"Chingombe","lon":33.89074,"lat":-13.59887,"pop":0},{"id":12185399,"name":"Chinguluwe","lon":33.49862,"lat":-13.81066,"pop":0},{"id":930767,"name":"Chinguo","lon":33.67063,"lat":-13.41508,"pop":0},{"id":930766,"name":"Chinguwi","lon":33.36667,"lat":-13.71667,"pop":0},{"id":930764,"name":"Chinguwo","lon":35.8,"lat":-14.95,"pop":0},{"id":930765,"name":"Chinguwo","lon":34.01667,"lat":-14.08333,"pop":0},{"id":12183599,"name":"Chinguwo","lon":33.90411,"lat":-13.46243,"pop":0},{"id":12185430,"name":"Chinguwo","lon":33.56489,"lat":-13.51139,"pop":0},{"id":930763,"name":"Chinguza","lon":35.85,"lat":-14.96667,"pop":0},{"id":12182434,"name":"Chinijoka Mkandawire","lon":34.04281,"lat":-10.89444,"pop":0},{"id":12182787,"name":"Chinjobvu","lon":33.29332,"lat":-12.68389,"pop":0},{"id":930147,"name":"Chinjoka","alt":["Cinjoka"],"lon":33.44808,"lat":-12.64261,"pop":0},{"id":930762,"name":"Chinjoka Nyirenda","alt":["Chinjoka"],"lon":33.62634,"lat":-12.13256,"pop":0},{"id":930146,"name":"Chinjunju","alt":["Cinjunju"],"lon":33.34558,"lat":-12.56537,"pop":0},{"id":930760,"name":"Chinkande","lon":33.93691,"lat":-13.40532,"pop":0},{"id":930761,"name":"Chinkhala","alt":["Chinkala"],"lon":33.78092,"lat":-13.39338,"pop":0},{"id":12185006,"name":"Chinkhali","lon":33.02528,"lat":-13.52741,"pop":0},{"id":930145,"name":"Chinkholongo","alt":["Cinkholongo"],"lon":33.39933,"lat":-12.92393,"pop":0},{"id":930759,"name":"Chinkhoma","lon":33.51667,"lat":-13.21667,"pop":0},{"id":930758,"name":"Chinkhota","alt":["Chinkata"],"lon":33.89579,"lat":-13.65772,"pop":0},{"id":12185710,"name":"Chinkhota","lon":33.80994,"lat":-13.84057,"pop":0},{"id":930757,"name":"Chinkhowoli","lon":34.20306,"lat":-11.14036,"pop":0},{"id":12182543,"name":"Chinkhuntha Theu","lon":33.37501,"lat":-12.13675,"pop":0},{"id":12170672,"name":"Chinkhuta","lon":33.64406,"lat":-10.98605,"pop":0},{"id":12182485,"name":"Chinkhuwiri","lon":34.19949,"lat":-10.76188,"pop":0},{"id":12182920,"name":"Chinkhwangwa","lon":33.43286,"lat":-12.77687,"pop":0},{"id":12183012,"name":"Chinkhwangwa Zimba","lon":33.68237,"lat":-12.65948,"pop":0},{"id":12182615,"name":"Chinkhwazala","lon":33.41072,"lat":-12.32756,"pop":0},{"id":930756,"name":"Chinkhwazara","lon":34.21667,"lat":-11.05,"pop":0},{"id":11774400,"name":"Chinkolongo Jilongo Mkandawire","lon":33.32218,"lat":-11.6288,"pop":0},{"id":930548,"name":"Chinkolongo Mkandawire","alt":["Chirongo Mkandawire"],"lon":33.32175,"lat":-11.64948,"pop":0},{"id":930755,"name":"Chinkoole","lon":34.21847,"lat":-11.14774,"pop":0},{"id":930754,"name":"Chinkota","lon":33.76499,"lat":-13.74304,"pop":0},{"id":12185293,"name":"Chinkowelo","lon":33.37522,"lat":-13.96412,"pop":0},{"id":930753,"name":"Chinku","lon":34.01392,"lat":-14.38718,"pop":0},{"id":930752,"name":"Chinkunda","lon":33.48991,"lat":-14.0409,"pop":0},{"id":931139,"name":"Chinkuto","alt":["Chikhuta"],"lon":33.66556,"lat":-13.73458,"pop":0},{"id":930751,"name":"Chinkuyu","lon":33.41667,"lat":-14.06667,"pop":0},{"id":930750,"name":"Chinkwangula","lon":33.56614,"lat":-13.3861,"pop":0},{"id":930748,"name":"Chinkwiri","lon":33.74224,"lat":-13.37733,"pop":0},{"id":930749,"name":"Chinkwiri","lon":33.74827,"lat":-13.37209,"pop":0},{"id":930746,"name":"Chinkwita","lon":33.95,"lat":-14.4,"pop":0},{"id":930747,"name":"Chinkwita","alt":["Cinkhonko"],"lon":34.42129,"lat":-14.30094,"pop":0},{"id":930742,"name":"Chinombo","lon":34.49187,"lat":-13.72785,"pop":0},{"id":930743,"name":"Chinombo","lon":33.84297,"lat":-11.34036,"pop":0},{"id":930741,"name":"Chinombo Chaya","lon":33.59929,"lat":-11.94381,"pop":0},{"id":12177938,"name":"Chinombo Jere","lon":33.56103,"lat":-11.54757,"pop":0},{"id":12178021,"name":"Chinombo Matimba","lon":33.59886,"lat":-11.94682,"pop":0},{"id":930740,"name":"Chinombo Shonga","lon":33.89033,"lat":-11.32245,"pop":0},{"id":12169941,"name":"Chinongo","lon":33.54558,"lat":-9.63211,"pop":0},{"id":930738,"name":"Chinsamba","lon":33.8,"lat":-14.01667,"pop":0},{"id":930737,"name":"Chinsasa","lon":33.46667,"lat":-13.53333,"pop":0},{"id":12170228,"name":"Chinsebe","lon":33.89792,"lat":-9.91004,"pop":0},{"id":930500,"name":"Chinsikwa","alt":["Chisikwa II"],"lon":33.37353,"lat":-13.97269,"pop":0},{"id":12185266,"name":"Chinsinde","lon":33.35771,"lat":-13.92906,"pop":0},{"id":930735,"name":"Chinsowa","lon":33.62973,"lat":-13.06283,"pop":0},{"id":930734,"name":"Chinsuche","alt":["Chinsunche"],"lon":33.46969,"lat":-13.69541,"pop":0},{"id":930733,"name":"Chintamtumba","lon":33.77845,"lat":-13.32911,"pop":0},{"id":930732,"name":"Chintanzi","lon":32.96495,"lat":-13.74019,"pop":0},{"id":12185193,"name":"Chinthanga","lon":33.16562,"lat":-13.76512,"pop":0},{"id":930728,"name":"Chinthankhwa","lon":33.91667,"lat":-14.3,"pop":0},{"id":12185705,"name":"Chinthankhwi","lon":33.98644,"lat":-13.82235,"pop":0},{"id":930727,"name":"Chintheche","alt":["Chinteche","Chintechi","Chinteji"],"lon":34.16703,"lat":-11.83095,"pop":0},{"id":12183643,"name":"Chinthembwe","lon":33.97217,"lat":-13.43315,"pop":0},{"id":12170427,"name":"Chinthi","lon":33.58255,"lat":-10.36218,"pop":0},{"id":12178132,"name":"Chinthomba","lon":34.31662,"lat":-11.68088,"pop":0},{"id":12185349,"name":"Chinthowa","lon":33.40053,"lat":-13.84784,"pop":0},{"id":930723,"name":"Chinthuta","lon":33.41554,"lat":-13.69411,"pop":0},{"id":930721,"name":"Chintumbila","lon":33.13333,"lat":-13.71667,"pop":0},{"id":930720,"name":"Chintuntha","lon":33.7,"lat":-14.16667,"pop":0},{"id":12182998,"name":"Chinula","lon":33.51005,"lat":-12.70465,"pop":0},{"id":930719,"name":"Chinunda","lon":32.94049,"lat":-13.68502,"pop":0},{"id":235760,"name":"Chinunkha","alt":["Chinunka"],"lon":33.36887,"lat":-9.65901,"pop":0},{"id":11775702,"name":"Chinunkha","lon":33.35846,"lat":-9.65459,"pop":0},{"id":12170386,"name":"Chinunu","lon":33.97021,"lat":-10.04077,"pop":0},{"id":930716,"name":"Chinvama","lon":33.81144,"lat":-13.6959,"pop":0},{"id":930715,"name":"Chinweza","lon":33.91667,"lat":-13.46667,"pop":0},{"id":930714,"name":"Chinyakula","lon":34.12382,"lat":-11.6304,"pop":0},{"id":930712,"name":"Chinyama","lon":33.71004,"lat":-13.72311,"pop":0},{"id":930713,"name":"Chinyama","lon":33.68333,"lat":-13.01667,"pop":0},{"id":12183106,"name":"Chinyama","lon":33.79709,"lat":-12.97592,"pop":0},{"id":930711,"name":"Chinyamanyamo","lon":34.46667,"lat":-13.8,"pop":0},{"id":930710,"name":"Chinyamunyamu","lon":33.43333,"lat":-13.06667,"pop":0},{"id":930142,"name":"Chinyanga","alt":["Cinyanga"],"lon":33.30114,"lat":-12.71068,"pop":0},{"id":12183074,"name":"Chinyanga","lon":33.83134,"lat":-12.83709,"pop":0},{"id":12183075,"name":"Chinyanga","lon":33.85757,"lat":-12.85315,"pop":0},{"id":930705,"name":"Chinyanya","lon":34.75361,"lat":-12.05375,"pop":0},{"id":12185282,"name":"Chinyata","lon":33.28684,"lat":-13.99118,"pop":0},{"id":930703,"name":"Chinyawa","lon":33.36667,"lat":-13.63333,"pop":0},{"id":12177980,"name":"Chinyera","lon":33.67411,"lat":-11.55836,"pop":0},{"id":12182442,"name":"Chinyolo","lon":34.00288,"lat":-10.92632,"pop":0},{"id":930708,"name":"Chinyongo","alt":["Chinyanga"],"lon":33.98064,"lat":-13.27691,"pop":0},{"id":7870091,"name":"Chinzama","lon":35.16005,"lat":-16.26744,"pop":0},{"id":12185119,"name":"Chinzili","lon":33.49443,"lat":-13.63996,"pop":0},{"id":930694,"name":"Chinziri","lon":35.75,"lat":-15.61667,"pop":0},{"id":930693,"name":"Chinzu","lon":33.45773,"lat":-13.72828,"pop":0},{"id":930832,"name":"Chinzu","alt":["Chimzu"],"lon":33.47746,"lat":-13.70436,"pop":0},{"id":930689,"name":"Chionjeza","lon":34.31526,"lat":-13.49025,"pop":0},{"id":930085,"name":"Chioshya","alt":["Ciwoshya"],"lon":33.17669,"lat":-13.79753,"pop":0},{"id":930081,"name":"Chioza","alt":["Ciwoza"],"lon":33.32787,"lat":-12.87522,"pop":0},{"id":930688,"name":"Chipaika","lon":34.18017,"lat":-11.41144,"pop":0},{"id":12185508,"name":"Chipaka","lon":33.73428,"lat":-13.50597,"pop":0},{"id":12170301,"name":"Chipakama","lon":33.52069,"lat":-10.20605,"pop":0},{"id":930685,"name":"Chipalamawamba","lon":35.25957,"lat":-14.50492,"pop":0},{"id":930684,"name":"Chipalanje","lon":34.93333,"lat":-15.4,"pop":0},{"id":930681,"name":"Chipalawe","lon":33.71217,"lat":-13.30224,"pop":0},{"id":930679,"name":"Chipamba","lon":34.08333,"lat":-14.23333,"pop":0},{"id":930674,"name":"Chipanda","lon":35.36667,"lat":-15.45,"pop":0},{"id":930675,"name":"Chipanda","lon":35.31667,"lat":-14.88333,"pop":0},{"id":930676,"name":"Chipanda","lon":33.99164,"lat":-13.22279,"pop":0},{"id":12185573,"name":"Chipanda","lon":33.83445,"lat":-13.90047,"pop":0},{"id":930673,"name":"Chipande","alt":["Chipanda"],"lon":32.97933,"lat":-13.69543,"pop":0},{"id":12181976,"name":"Chipanga","lon":33.36504,"lat":-14.16381,"pop":0},{"id":12182258,"name":"Chipangano","lon":34.17314,"lat":-10.44759,"pop":0},