[{"id":2142146,"name":"Akaouane","lon":167.39924,"lat":-21.09921,"pop":0},{"id":2142110,"name":"Amoa","lon":165.22305,"lat":-20.78071,"pop":0},{"id":2142101,"name":"Amouéma","lon":165.16667,"lat":-20.9,"pop":0},{"id":11959020,"name":"Anderson","lon":166.0433,"lat":-21.8705,"pop":0},{"id":2142088,"name":"Anéo","lon":167.43333,"lat":-21.08333,"pop":0},{"id":2142087,"name":"Anézitch","lon":167.18333,"lat":-20.7,"pop":0},{"id":10861676,"name":"Anse Vata","lon":166.44347,"lat":-22.30037,"pop":0},{"id":2142066,"name":"Aoumou","lon":165.81667,"lat":-21.4,"pop":0},{"id":2142055,"name":"Arama","lon":164.2,"lat":-20.26667,"pop":0},{"id":10861871,"name":"Artillerie","lon":166.43897,"lat":-22.27972,"pop":0},{"id":2142035,"name":"Atéou","lon":164.9,"lat":-20.95,"pop":0},{"id":2142033,"name":"Atha","lon":168.01631,"lat":-21.47205,"pop":0},{"id":2142026,"name":"Auteuil","lon":166.47405,"lat":-22.20776,"pop":0},{"id":2142015,"name":"Awé","alt":["Aoue","Aoué","Awe","Uala"],"lon":163.65,"lat":-19.68333,"pop":0},{"id":2142013,"name":"Awi","lon":167.94891,"lat":-21.60771,"pop":0},{"id":2142010,"name":"Azareu","lon":165.47088,"lat":-21.45814,"pop":0},{"id":2142004,"name":"Bâ","lon":165.55,"lat":-21.2,"pop":0},{"id":2142003,"name":"Baaba","lon":163.98333,"lat":-20.08333,"pop":0},{"id":2142000,"name":"Babouillat","lon":164.13333,"lat":-20.38333,"pop":0},{"id":2141999,"name":"Baco","lon":164.9,"lat":-21.06667,"pop":0},{"id":10227145,"name":"Baie Des Citrons","lon":166.43639,"lat":-22.29072,"pop":0},{"id":2141986,"name":"Bakouya","lon":165.48333,"lat":-21.56667,"pop":0},{"id":2141985,"name":"Balaba","lon":166.51667,"lat":-20.68333,"pop":0},{"id":2141980,"name":"Balade","alt":["Uegoa"],"lon":164.5,"lat":-20.31667,"pop":0},{"id":2141973,"name":"Balagam","alt":["Balagham"],"lon":164.4,"lat":-20.35,"pop":0},{"id":2141972,"name":"Balaguet","lon":164.25,"lat":-20.28333,"pop":0},{"id":2141955,"name":"Banout","lon":166.55183,"lat":-20.62487,"pop":0},{"id":2141952,"name":"Baoui","lon":164.46667,"lat":-20.7,"pop":0},{"id":2141951,"name":"Baoum","lon":164.31667,"lat":-20.23333,"pop":0},{"id":2141939,"name":"Bas-Coulna","lon":164.78333,"lat":-20.68333,"pop":0},{"id":2141936,"name":"Basse-Poya","lon":165.15,"lat":-21.33333,"pop":0},{"id":2141930,"name":"Bayes","lon":165.4,"lat":-20.95,"pop":0},{"id":11001908,"name":"Beauvallon","lon":166.33533,"lat":-22.12433,"pop":0},{"id":12404000,"name":"Bellevue","lon":166.59393,"lat":-22.28432,"pop":0},{"id":2141906,"name":"Bernheim","lon":165.03333,"lat":-21.23333,"pop":0},{"id":2141905,"name":"Beshe","alt":["Beshé"],"lon":167.85473,"lat":-21.52481,"pop":0},{"id":2141904,"name":"Bétsèda","lon":167.86667,"lat":-21.48333,"pop":0},{"id":2141879,"name":"Boakaine","lon":165.93333,"lat":-21.5,"pop":0},{"id":2141868,"name":"Boara","lon":165.9,"lat":-21.56667,"pop":0},{"id":2141869,"name":"Boara","lon":164,"lat":-20.11667,"pop":0},{"id":2141857,"name":"Bobeitio","lon":165,"lat":-20.96667,"pop":0},{"id":2141850,"name":"Boéareu","lon":165.56667,"lat":-21.31667,"pop":0},{"id":2141839,"name":"Boguen","alt":["Boghen"],"lon":165.56667,"lat":-21.6,"pop":0},{"id":2141836,"name":"Bogui","lon":165.43333,"lat":-21.36667,"pop":0},{"id":2141814,"name":"Bondé","lon":164.43333,"lat":-20.43333,"pop":0},{"id":12023827,"name":"Bone","lon":167.93166,"lat":-21.46384,"pop":0},{"id":2141813,"name":"Boné","lon":168.01667,"lat":-21.56667,"pop":0},{"id":2141806,"name":"Bopope","lon":165.06667,"lat":-20.91667,"pop":0},{"id":2141801,"name":"Boréaré","lon":165.46667,"lat":-21.36667,"pop":0},{"id":2141792,"name":"Bouabondo","lon":164.01667,"lat":-20.13333,"pop":0},{"id":2141770,"name":"Bouarou","lon":164.2,"lat":-20.26667,"pop":0},{"id":2141756,"name":"Bouélas","lon":164.56667,"lat":-20.55,"pop":0},{"id":2141757,"name":"Bouélas","lon":164.55,"lat":-20.53333,"pop":0},{"id":2141738,"name":"Bouérabat","alt":["Bouerabat","Bouerabate"],"lon":164.06667,"lat":-20.3,"pop":0},{"id":2141736,"name":"Bouérégaou","lon":165.51667,"lat":-21.45,"pop":0},{"id":2141731,"name":"Bouirou","lon":165.53281,"lat":-21.44248,"pop":0},{"id":2141722,"name":"Bouloupari","alt":["Boulouparis","Bulupari"],"lon":166.05122,"lat":-21.86226,"pop":2146},{"id":2141714,"name":"Bourail","alt":["Boureil","Burail"],"lon":165.49736,"lat":-21.5669,"pop":4826},{"id":2141698,"name":"Boyen","lon":164.61667,"lat":-20.81667,"pop":0},{"id":2141677,"name":"Bui","lon":164.4,"lat":-20.43333,"pop":0},{"id":2141672,"name":"Bwéo","lon":163.66667,"lat":-19.73333,"pop":0},{"id":2141670,"name":"Caavatch","lon":164.83333,"lat":-20.71667,"pop":0},{"id":12023953,"name":"Cadralo","lon":167.93442,"lat":-21.39212,"pop":0},{"id":2139964,"name":"Camp de Nandaï","lon":165.46088,"lat":-21.50966,"pop":0},{"id":2141658,"name":"Canala","alt":["Kanala","Napoleonville","Napoléonville"],"lon":165.95,"lat":-21.53333,"pop":3538},{"id":2141627,"name":"Cengeite","alt":["Cengeïté"],"lon":167.89736,"lat":-21.59415,"pop":0},{"id":2141626,"name":"Ceni","alt":["Céni"],"lon":168.01267,"lat":-21.47169,"pop":0},{"id":11956114,"name":"Centre Ville","lon":166.44113,"lat":-22.27065,"pop":0},{"id":12023850,"name":"Cerethi","lon":168.08419,"lat":-21.57575,"pop":0},{"id":2141621,"name":"Chagrin","lon":164.25,"lat":-20.48333,"pop":0},{"id":2141619,"name":"Chaïnon","lon":165.81667,"lat":-21.48333,"pop":0},{"id":2141600,"name":"Chépénéhé","alt":["Chepenehe","Chepeneke","Igilan","Shepenehe","Xepenehe"],"lon":167.15,"lat":-20.78333,"pop":0},{"id":11956195,"name":"Cinquième Kilomètre","alt":["5eme Kilometre","5ème Kilomètre","Cinquieme Kilometre"],"lon":166.46957,"lat":-22.24492,"pop":0},{"id":10861882,"name":"Citre Ville","lon":166.44051,"lat":-22.2696,"pop":0},{"id":2141576,"name":"Colnett","lon":164.73333,"lat":-20.48333,"pop":0},{"id":2141565,"name":"Congouma","alt":["Kanguma","Kongouma"],"lon":165.08333,"lat":-20.75,"pop":0},{"id":2141551,"name":"Coula","lon":165.45,"lat":-21.35,"pop":0},{"id":2141538,"name":"Cradji","lon":165.15,"lat":-21.31667,"pop":0},{"id":2141529,"name":"Cuaden","alt":["Cuadene","Cuadène"],"lon":168.09538,"lat":-21.54763,"pop":0},{"id":12023898,"name":"Degene","lon":167.86407,"lat":-21.48828,"pop":0},{"id":12023943,"name":"Degit","lon":167.81097,"lat":-21.37989,"pop":0},{"id":12023851,"name":"Denaco","lon":168.08757,"lat":-21.56937,"pop":0},{"id":2141468,"name":"Diahot-Paraoua","alt":["Le Diahot"],"lon":164.43333,"lat":-20.36667,"pop":0},{"id":2141467,"name":"Diahoué","lon":164.68333,"lat":-20.46667,"pop":0},{"id":2141465,"name":"Diakana","lon":164.86667,"lat":-21,"pop":0},{"id":2141435,"name":"Dogny","lon":165.93333,"lat":-21.66667,"pop":0},{"id":2141428,"name":"Doking","alt":["Daking","Dokin","Jokin"],"lon":167.16667,"lat":-20.7,"pop":0},{"id":2141424,"name":"Donéva","lon":165.6,"lat":-21.3,"pop":0},{"id":2141417,"name":"Dosip","lon":167.3386,"lat":-20.94525,"pop":0},{"id":2141416,"name":"Dothio","alt":["Dothiu"],"lon":166.1,"lat":-21.56667,"pop":0},{"id":2141408,"name":"Douéoulou","alt":["Doueoulou","Drueulu"],"lon":167.08333,"lat":-20.93333,"pop":0},{"id":2141394,"name":"Dumbéa","alt":["Dumbea"],"lon":166.4572,"lat":-22.15757,"pop":19346},{"id":2141375,"name":"Eacho","lon":167.13333,"lat":-20.78333,"pop":0},{"id":2141371,"name":"Ema","lon":165.9,"lat":-21.56667,"pop":0},{"id":2141362,"name":"Enene","alt":["Enéné"],"lon":168.05775,"lat":-21.51669,"pop":0},{"id":11956853,"name":"Enghoué","alt":["Enghoue"],"lon":166.24507,"lat":-22.14744,"pop":0},{"id":2141360,"name":"Eni","lon":167.94826,"lat":-21.62744,"pop":0},{"id":12023822,"name":"Esho","lon":167.84485,"lat":-21.50053,"pop":0},{"id":2141340,"name":"Ete","alt":["Eté"],"lon":167.854,"lat":-21.51964,"pop":0},{"id":2141338,"name":"Ethi","lon":167.85,"lat":-21.5,"pop":0},{"id":2141316,"name":"Farino","lon":165.76667,"lat":-21.66667,"pop":480},{"id":2141894,"name":"Faubourg Blanchot","alt":["Blanchot"],"lon":166.4541,"lat":-22.28186,"pop":0},{"id":2141305,"name":"Fayaoué","alt":["Faiaoue","Faiaoué","Faiaue","Faiaué","Fayaoue"],"lon":166.53641,"lat":-20.65284,"pop":4411},{"id":2141302,"name":"Fayawa","lon":166.46733,"lat":-20.70622,"pop":0},{"id":11956099,"name":"Ferme Nord","lon":166.39157,"lat":-22.25676,"pop":0},{"id":2141289,"name":"Foaobanik","lon":164.75,"lat":-20.91667,"pop":0},{"id":2141278,"name":"Fonwhary","alt":["Fonwary","Onwari"],"lon":165.78333,"lat":-21.68333,"pop":0},{"id":2141275,"name":"Forêt Noire","lon":165.85,"lat":-21.76667,"pop":0},{"id":2141274,"name":"Forêt Plate","lon":165.11667,"lat":-21.13333,"pop":0},{"id":2141254,"name":"Gadji","lon":167.43333,"lat":-22.55,"pop":0},{"id":2141238,"name":"Gala","lon":164.88333,"lat":-20.75,"pop":0},{"id":2141237,"name":"Galagaoui","lon":164.26667,"lat":-20.55,"pop":0},{"id":2141232,"name":"Galilée","lon":165.26667,"lat":-20.93333,"pop":0},{"id":2141229,"name":"Gamaï","lon":164.48333,"lat":-20.7,"pop":0},{"id":2141226,"name":"Ganem","lon":164.93333,"lat":-20.7,"pop":0},{"id":2141206,"name":"Gélima","lon":165.98333,"lat":-21.53333,"pop":0},{"id":2141199,"name":"Ghio","lon":166.1,"lat":-21.51667,"pop":0},{"id":2141195,"name":"Gillês","alt":["Gilles","Gillies","Gilliés"],"lon":166.01889,"lat":-21.89218,"pop":0},{"id":2141192,"name":"Goa","lon":165.3,"lat":-21.11667,"pop":0},{"id":12404001,"name":"Goélands","alt":["Goelands"],"lon":166.59088,"lat":-22.28802,"pop":0},{"id":2141183,"name":"Gohapin","lon":165.2727,"lat":-21.21866,"pop":0},{"id":2141179,"name":"Golone","lon":164.11667,"lat":-20.26667,"pop":0},{"id":2141174,"name":"Gondé","lon":165.46667,"lat":-21.3,"pop":0},{"id":2141171,"name":"Gondou","alt":["Gondon"],"lon":165.43333,"lat":-21.35,"pop":0},{"id":2141165,"name":"Goro","lon":167.01667,"lat":-22.28333,"pop":0},{"id":2141154,"name":"Gossanat","lon":166.61659,"lat":-20.45351,"pop":0},{"id":2141148,"name":"Gouaraoui","lon":165.56667,"lat":-21.31667,"pop":0},{"id":2141147,"name":"Gouareu","lon":165.63333,"lat":-21.3,"pop":0},{"id":2141146,"name":"Gouaro","alt":["Guaro"],"lon":165.43333,"lat":-21.6,"pop":0},{"id":2141126,"name":"Goyetta","lon":165.35,"lat":-21.1,"pop":0},{"id":2141119,"name":"Grand Gouli","lon":165.81667,"lat":-21.63333,"pop":0},{"id":2141124,"name":"Grand-Borindi","lon":166.45,"lat":-21.73333,"pop":0},{"id":2141102,"name":"Grochain","lon":165.38333,"lat":-21.08333,"pop":0},{"id":2141097,"name":"Grombaou","lon":164.86667,"lat":-21.03333,"pop":0},{"id":2141095,"name":"Grondu","lon":165.38333,"lat":-21.08333,"pop":0},{"id":2141081,"name":"Guéhi","lon":166.53333,"lat":-20.66667,"pop":0},{"id":2141070,"name":"Haouli","lon":165.85,"lat":-21.53333,"pop":0},{"id":2141069,"name":"Hapétra","lon":167.15,"lat":-20.93333,"pop":0},{"id":11956107,"name":"Haut Magenta","lon":166.46065,"lat":-22.26429,"pop":0},{"id":2141065,"name":"Haut-Coulna","lon":164.73333,"lat":-20.63333,"pop":0},{"id":2141063,"name":"Haute Couvelée","alt":["Haute Couvelee"],"lon":166.46545,"lat":-22.12817,"pop":0},{"id":2141062,"name":"Haute Pouéo","lon":165.51667,"lat":-21.48333,"pop":0},{"id":2141061,"name":"Haute Tamoa","lon":166.29864,"lat":-22.06252,"pop":0},{"id":2141058,"name":"Havila","lon":167.26045,"lat":-20.89322,"pop":0},{"id":2141050,"name":"Hienghène","alt":["Hienghene","Hiengherie","Yengen"],"lon":164.93333,"lat":-20.68333,"pop":2668},{"id":12024014,"name":"Hmede","lon":167.9308,"lat":-21.60117,"pop":0},{"id":2141035,"name":"Hmélek","lon":167.28787,"lat":-21.0465,"pop":0},{"id":12024005,"name":"Hnabaek","lon":168.07086,"lat":-21.46653,"pop":0},{"id":2141031,"name":"Hnadidi","alt":["Hnadid"],"lon":168.10102,"lat":-21.45575,"pop":0},{"id":2141030,"name":"Hnaenedr","alt":["Hnaenede","Hnaénéde"],"lon":168.00405,"lat":-21.47217,"pop":0},{"id":2141029,"name":"Hnaeu","lon":167.38333,"lat":-20.98333,"pop":0},{"id":2141021,"name":"Hnapalou","lon":167.26667,"lat":-20.9,"pop":0},{"id":12023824,"name":"Hnaridimen","lon":167.87834,"lat":-21.55673,"pop":0},{"id":2141019,"name":"Hnassé","lon":167.26667,"lat":-20.91667,"pop":0},{"id":2141016,"name":"Hnawayaca","alt":["Hnawayece","Hnawayéce"],"lon":167.86125,"lat":-21.44162,"pop":0},{"id":2139651,"name":"Hnidenod","alt":["Nidenode","Nidénode"],"lon":167.87757,"lat":-21.56543,"pop":0},{"id":2141015,"name":"Hô","lon":165.53333,"lat":-21.18333,"pop":0},{"id":2141010,"name":"Honem","lon":167.28333,"lat":-20.91667,"pop":0},{"id":2141006,"name":"Houaïlou","alt":["Houailou","Huailu","Huaïlu"],"lon":165.61667,"lat":-21.28333,"pop":4562},{"id":2140989,"name":"Houone","lon":163.8,"lat":-20.05,"pop":0},{"id":2140987,"name":"Houts","lon":167.4,"lat":-21.01667,"pop":0},{"id":8520198,"name":"Huathalo","lon":167.25286,"lat":-20.79086,"pop":0},{"id":8520193,"name":"Huiwatrul","lon":167.35466,"lat":-21.08777,"pop":0},{"id":11958044,"name":"Hunamwi","lon":166.09995,"lat":-21.90878,"pop":0},{"id":2140978,"name":"Huneté","lon":167.1,"lat":-20.76667,"pop":0},{"id":12403988,"name":"Ié","alt":["Ie"],"lon":166.7702,"lat":-22.38724,"pop":0},{"id":2140955,"name":"Ina","lon":165.35,"lat":-20.93333,"pop":0},{"id":2140952,"name":"Inagod","alt":["Inagoj"],"lon":167.37413,"lat":-21.01745,"pop":0},{"id":12024011,"name":"Jore","lon":167.93436,"lat":-21.60376,"pop":0},{"id":11072661,"name":"Jozip","lon":167.33697,"lat":-20.9418,"pop":0},{"id":2140921,"name":"Juvénat Sainte-Thérèse","lon":166.31667,"lat":-22.13333,"pop":0},{"id":2140915,"name":"Kaala-Gomén","alt":["Gomen","Kaala-Gomen"],"lon":164.4,"lat":-20.66667,"pop":1897},{"id":2140912,"name":"Kabéyourou","lon":165.4,"lat":-21.38333,"pop":0},{"id":12024006,"name":"Kaeguahnakun","lon":168.07562,"lat":-21.46184,"pop":0},{"id":2140903,"name":"Kaewatin","alt":["Kaewatine","Kaéwatine"],"lon":167.93562,"lat":-21.39594,"pop":0},{"id":2140388,"name":"Kaewaura","alt":["Limite"],"lon":167.95821,"lat":-21.47128,"pop":0},{"id":2140893,"name":"Kako","lon":165.9,"lat":-21.53333,"pop":0},{"id":2140886,"name":"Kalédicta","lon":164.68333,"lat":-20.86667,"pop":0},{"id":2140884,"name":"Kalen","alt":["Kalene","Kaléne"],"lon":167.84271,"lat":-21.49799,"pop":0},{"id":2140876,"name":"Kamé","lon":167.48333,"lat":-22.65,"pop":0},{"id":11185986,"name":"Kamere","lon":166.43244,"lat":-22.23,"pop":0},{"id":2140871,"name":"Kamoui","lon":165.65,"lat":-21.35,"pop":0},{"id":2208204,"name":"Kana","lon":167.42083,"lat":-22.625,"pop":0},{"id":2140854,"name":"Kanono","lon":167.26667,"lat":-20.9,"pop":0},{"id":2140848,"name":"Kaora","lon":165.56667,"lat":-21.21667,"pop":0},{"id":2140839,"name":"Kapoué","lon":165.63333,"lat":-21.28333,"pop":0},{"id":2140837,"name":"Karagreu","lon":165.38333,"lat":-21.4,"pop":0},{"id":2140832,"name":"Karembé","alt":["Karembe","Kerembe","Kérembé"],"lon":164.31667,"lat":-20.63333,"pop":0},{"id":2140827,"name":"Karenga","alt":["Station de Karenga"],"lon":166.23709,"lat":-22.01698,"pop":0},{"id":11956878,"name":"Karikaté","alt":["Karikate"],"lon":166.18778,"lat":-22.10747,"pop":0},{"id":2140812,"name":"Kasouri","lon":165.83333,"lat":-21.41667,"pop":0},{"id":11956125,"name":"Katiramona","lon":166.43169,"lat":-22.13454,"pop":0},{"id":2140799,"name":"Katrikoin","lon":165.7,"lat":-21.56667,"pop":0},{"id":2140794,"name":"Kavatch","lon":164.81667,"lat":-20.71667,"pop":0},{"id":2140790,"name":"Kédeigne","lon":167.21667,"lat":-21.03333,"pop":0},{"id":2140784,"name":"Kénérou","lon":165.88333,"lat":-21.55,"pop":0},{"id":2140780,"name":"Kéré","lon":167.48333,"lat":-22.68333,"pop":0},{"id":10793959,"name":"Kèrèji","lon":166.0188,"lat":-21.5775,"pop":0},{"id":2140773,"name":"Kezien","alt":["Keziene","Kézièné"],"lon":167.89818,"lat":-21.59737,"pop":0},{"id":12023847,"name":"Kiamu","lon":168.11123,"lat":-21.60434,"pop":0},{"id":2140765,"name":"Kikoé","lon":165.5,"lat":-21.43333,"pop":0},{"id":2140759,"name":"Kirinata","alt":["Tiole","Tiolé"],"lon":167.24891,"lat":-20.81373,"pop":0},{"id":2140743,"name":"Kodle","alt":["Kode","Xodre"],"lon":167.40486,"lat":-21.11285,"pop":0},{"id":2140742,"name":"Koé","lon":165.26667,"lat":-20.8,"pop":0},{"id":2140735,"name":"Koh","lon":165.83333,"lat":-21.55,"pop":0},{"id":2140736,"name":"Koh","lon":165.83333,"lat":-21.53333,"pop":0},{"id":2140728,"name":"Koindé","alt":["Coinde","Coindé","Koinde"],"lon":165.95,"lat":-21.61667,"pop":0},{"id":2140716,"name":"Kokengone","alt":["Kokingone","Kokingoné"],"lon":165.25,"lat":-20.85,"pop":0},{"id":2140709,"name":"Koligoh-Gomen","alt":["Koligoh"],"lon":164.46667,"lat":-20.68333,"pop":0},{"id":2140691,"name":"Koné","alt":["KNQ"],"lon":164.86582,"lat":-21.05951,"pop":4572},{"id":2140679,"name":"Koniambo","lon":164.86667,"lat":-21.03333,"pop":0},{"id":2140672,"name":"Konio","lon":164.4,"lat":-20.6,"pop":0},{"id":2140669,"name":"Konoé-Chaoué","lon":165.70956,"lat":-21.49602,"pop":0},{"id":2140662,"name":"Koout","lon":164.96667,"lat":-20.68333,"pop":0},{"id":2140660,"name":"Kopélia","lon":166.01667,"lat":-21.56667,"pop":0},{"id":2140649,"name":"Koua","lon":166.08931,"lat":-21.74638,"pop":0},{"id":2140650,"name":"Koua","alt":["Kua"],"lon":165.76667,"lat":-21.33333,"pop":0},{"id":2140621,"name":"Kouaoua","alt":["Kuaua"],"lon":165.82695,"lat":-21.39554,"pop":0},{"id":2140613,"name":"Kouaré","lon":166.06667,"lat":-21.66667,"pop":0},{"id":2140610,"name":"Kouarga","lon":166.06667,"lat":-21.73333,"pop":0},{"id":2140563,"name":"Koulnoué","lon":164.98333,"lat":-20.68333,"pop":0},{"id":2140561,"name":"Koum","lon":164.33333,"lat":-20.53333,"pop":0},{"id":2140558,"name":"Koumac","alt":["KOC","Kumac","Kumak"],"lon":164.28333,"lat":-20.56667,"pop":3060},{"id":2140521,"name":"Koutio","alt":["Koutio-Koueta","Koutio-Kouéta"],"lon":166.4624,"lat":-22.2056,"pop":0},{"id":2140494,"name":"Kuenthio","alt":["Kuen Tchio"],"lon":166.08333,"lat":-21.78333,"pop":0},{"id":2140488,"name":"Kuiné","lon":165.96667,"lat":-21.53333,"pop":0},{"id":2140550,"name":"Kumo","lon":167.22221,"lat":-20.7826,"pop":0},{"id":12024017,"name":"Kuretheb","lon":167.92146,"lat":-21.60048,"pop":0},{"id":2140485,"name":"Kurin","lon":168.10905,"lat":-21.59897,"pop":0},{"id":2140480,"name":"Kuto","lon":167.44881,"lat":-22.66043,"pop":0},{"id":11956166,"name":"L'Ermitage","lon":166.47679,"lat":-22.17925,"pop":0},{"id":2140475,"name":"La Bouverie","lon":164.26667,"lat":-20.5,"pop":0},{"id":2141691,"name":"La Briquetterie","alt":["Briqueterie"],"lon":166.57062,"lat":-22.26281,"pop":0},{"id":11956122,"name":"La Caféirie","alt":["La Cafeirie"],"lon":166.4783,"lat":-22.15063,"pop":0},{"id":2141568,"name":"La Conception","alt":["Conception"],"lon":166.5011,"lat":-22.22431,"pop":0},{"id":2140471,"name":"La Coulée","lon":166.57582,"lat":-22.23127,"pop":0},{"id":2140469,"name":"La Couvelée","alt":["La Couvelee"],"lon":166.46535,"lat":-22.139,"pop":0},{"id":2140466,"name":"La Foa","lon":165.82764,"lat":-21.71079,"pop":2947},{"id":12403992,"name":"La Forestière","alt":["La Forestiere"],"lon":166.69014,"lat":-22.29552,"pop":0},{"id":12023825,"name":"La Kaw","lon":167.88599,"lat":-21.59594,"pop":0},{"id":2140454,"name":"La Médouya","lon":165.68333,"lat":-21.66667,"pop":0},{"id":11956165,"name":"La Pépinière","alt":["La Pepiniere"],"lon":166.46754,"lat":-22.1723,"pop":0},{"id":2140451,"name":"La Résidence","lon":165.68333,"lat":-21.68333,"pop":0},{"id":11956121,"name":"La Rhumerie","lon":166.46776,"lat":-22.15498,"pop":0},{"id":2140450,"name":"La Roche","alt":["MEE"],"lon":168.02593,"lat":-21.47799,"pop":0},{"id":10862053,"name":"La Roche Percee","lon":165.46556,"lat":-21.61383,"pop":0},{"id":2140448,"name":"La Tarodière","lon":166.16667,"lat":-21.96667,"pop":0},{"id":8469107,"name":"La Tontouta","alt":["Tontouta"],"lon":166.22375,"lat":-22.01285,"pop":0},{"id":12023909,"name":"Layekec","lon":167.89843,"lat":-21.50266,"pop":0},{"id":2140437,"name":"Le Caillou","lon":166.93333,"lat":-22.13333,"pop":0},{"id":2140438,"name":"Le Caillou","lon":164.43333,"lat":-20.35,"pop":0},{"id":2140435,"name":"Le Cresson","lon":164.3,"lat":-20.48333,"pop":0},{"id":2140430,"name":"Le Gabé","lon":165.45,"lat":-21.6,"pop":0},{"id":2140428,"name":"Lékine","alt":["Lekia","Lekin","Lekine"],"lon":166.48926,"lat":-20.69408,"pop":0},{"id":12403999,"name":"Léoni","alt":["Leoni"],"lon":166.60187,"lat":-22.29065,"pop":0},{"id":2140413,"name":"Les Charmes","lon":164.41667,"lat":-20.58333,"pop":0},{"id":11956120,"name":"Les Koghis","lon":166.49137,"lat":-22.18063,"pop":0},{"id":2140409,"name":"Les Pirogues","lon":166.68333,"lat":-22.28333,"pop":0},{"id":2140387,"name":"Lindéralique","lon":164.96667,"lat":-20.68333,"pop":0},{"id":2140385,"name":"Lion","lon":167.93728,"lat":-21.47566,"pop":0},{"id":2140384,"name":"Lo","lon":167.83333,"lat":-21.48333,"pop":0},{"id":11103499,"name":"Logicoop","lon":166.43455,"lat":-22.23528,"pop":0},{"id":12023998,"name":"Loi","lon":167.87665,"lat":-21.5616,"pop":0},{"id":2140377,"name":"Lot","lon":167.85527,"lat":-21.38747,"pop":0},{"id":6694841,"name":"Lotissement Axelle II","lon":166.36738,"lat":-22.12349,"pop":0},{"id":12403995,"name":"Lotissement Clos d'Eden","lon":166.61882,"lat":-22.27097,"pop":0},{"id":12403996,"name":"Lotissement Colardeau","lon":166.62778,"lat":-22.2724,"pop":0},{"id":12403994,"name":"Lotissement Les Jardins de Plum","lon":166.61524,"lat":-22.26398,"pop":0},{"id":11001906,"name":"Lotissment Bernard","lon":166.36271,"lat":-22.1349,"pop":0},{"id":2140375,"name":"Lounéou","lon":167.36667,"lat":-20.95,"pop":0},{"id":2140373,"name":"Luécilla","lon":167.26667,"lat":-20.9,"pop":0},{"id":2140372,"name":"Luengoni","alt":["Loangani","Zoangani"],"lon":167.41667,"lat":-21.03333,"pop":0},{"id":11956106,"name":"Magenta","lon":166.47122,"lat":-22.26867,"pop":0},{"id":2140355,"name":"Mahamaté","lon":164.31667,"lat":-20.23333,"pop":0},{"id":2140352,"name":"Maïna","lon":165.05,"lat":-20.73333,"pop":0},{"id":2140343,"name":"Malabou","lon":164.11667,"lat":-20.3,"pop":0},{"id":2140338,"name":"Malhec","lon":164.18333,"lat":-20.33333,"pop":0},{"id":2140332,"name":"Mamié","lon":166.9,"lat":-22.06667,"pop":0},{"id":2140321,"name":"Manéko","lon":165.58333,"lat":-21.28333,"pop":0},{"id":2140319,"name":"Mangou","lon":165.41667,"lat":-21.06667,"pop":0},{"id":2140317,"name":"Manguine","lon":164.41667,"lat":-20.4,"pop":0},{"id":2140264,"name":"Mé","lon":165.56667,"lat":-21.31667,"pop":0},{"id":2140260,"name":"Méa-Mébara","alt":["Mea","Mea-Mebara","Méa"],"lon":165.78333,"lat":-21.46667,"pop":0},{"id":2140256,"name":"Méaré","lon":165.83333,"lat":-21.73333,"pop":0},{"id":2140255,"name":"Meareu","lon":165.58333,"lat":-21.3,"pop":0},{"id":2140252,"name":"Mebuet","lon":167.84869,"lat":-21.5121,"pop":0},{"id":2140251,"name":"Méchin","lon":165.73333,"lat":-21.5,"pop":0},{"id":2140249,"name":"Médaouya","lon":165.51667,"lat":-21.3,"pop":0},{"id":2140246,"name":"Medu","alt":["Médu"],"lon":167.95284,"lat":-21.62174,"pop":0},{"id":2140237,"name":"Méhoué","lon":165.95,"lat":-21.51667,"pop":0},{"id":2140217,"name":"Menaku","alt":["Ménaku"],"lon":167.96908,"lat":-21.44342,"pop":0},{"id":2140200,"name":"Ménérémé","lon":165.93333,"lat":-21.51667,"pop":0},{"id":2140191,"name":"Méomo","lon":165.6,"lat":-21.23333,"pop":0},{"id":2140188,"name":"Méoui","lon":165.65,"lat":-21.31667,"pop":0},{"id":2140153,"name":"Mévegon","lon":165.56667,"lat":-21.18333,"pop":0},{"id":2140151,"name":"Mia","lon":165.98333,"lat":-21.55,"pop":0},{"id":2140116,"name":"Moindah","lon":165.23333,"lat":-21.41667,"pop":0},{"id":2140110,"name":"Moindou","alt":["Moindu","Muendu"],"lon":165.68333,"lat":-21.7,"pop":609},{"id":2140090,"name":"Moméa","lon":165.63333,"lat":-21.66667,"pop":0},{"id":2140078,"name":"Monéo","lon":165.48333,"lat":-21.15,"pop":0},{"id":2140066,"name":"Mont-Dore","lon":166.56621,"lat":-22.26257,"pop":24680},{"id":11956108,"name":"Montagne Coupée","alt":["Montagne Coupee"],"lon":166.45065,"lat":-22.25527,"pop":0},{"id":2140063,"name":"Montfaoué","lon":165.3,"lat":-21.26667,"pop":0},{"id":11185983,"name":"Montravel","lon":166.45467,"lat":-22.25165,"pop":0},{"id":10227142,"name":"Motor Pool","lon":166.44746,"lat":-22.29196,"pop":0},{"id":2140044,"name":"Mou","alt":["Mu","Nada"],"lon":167.39902,"lat":-21.09357,"pop":0},{"id":2140045,"name":"Mou","alt":["Mu"],"lon":165.44209,"lat":-21.09755,"pop":0},{"id":2140038,"name":"Mouane","lon":163.6,"lat":-19.6,"pop":0},{"id":2140021,"name":"Mouly","alt":["Muli"],"lon":166.42236,"lat":-20.72224,"pop":0},{"id":2140006,"name":"Mutchaweng","lon":167.16667,"lat":-20.73333,"pop":0},{"id":10861677,"name":"N'Gea","lon":166.45411,"lat":-22.28953,"pop":0},{"id":2139988,"name":"Naïa","lon":166.26037,"lat":-22.15903,"pop":0},{"id":2139981,"name":"Nakéty","alt":["Nakety"],"lon":166.03333,"lat":-21.55,"pop":0},{"id":11956241,"name":"Nakouta","lon":166.26336,"lat":-22.1618,"pop":0},{"id":2139973,"name":"Nakutakoin","lon":166.42478,"lat":-22.16561,"pop":0},{"id":2139972,"name":"Namamate","lon":167.41667,"lat":-21.03333,"pop":0},{"id":2139970,"name":"Namélagat","lon":167.35173,"lat":-21.09879,"pop":0},{"id":2139969,"name":"Naméméhu","lon":166.55,"lat":-20.65,"pop":0},{"id":2139967,"name":"Nanawa","lon":167.1,"lat":-20.76667,"pop":0},{"id":2139965,"name":"Nandaï","lon":165.45972,"lat":-21.51389,"pop":0},{"id":2139962,"name":"Nanémühata","lon":167.21667,"lat":-20.7,"pop":0},{"id":2139961,"name":"Nang","lon":167.22646,"lat":-20.80595,"pop":0},{"id":2139959,"name":"Naniouni","lon":166.29426,"lat":-22.12435,"pop":0},{"id":2139957,"name":"Nanon","lon":165.88333,"lat":-21.56667,"pop":0},{"id":2139941,"name":"Napoémien","alt":["Napoemien","Vallee","Vallée"],"lon":165.35,"lat":-20.96667,"pop":0},{"id":2139925,"name":"Nassandou","alt":["Station Nassandou"],"lon":166.25729,"lat":-22.08228,"pop":0},{"id":2139922,"name":"Nassirah","alt":["Viwe","Viwê"],"lon":166.06293,"lat":-21.80152,"pop":0},{"id":2139921,"name":"Nataé","lon":167.43333,"lat":-21.06667,"pop":0},{"id":2139920,"name":"Natchaom","lon":167.21667,"lat":-20.71667,"pop":0},{"id":2139918,"name":"Nathalo","lon":167.26667,"lat":-20.78333,"pop":0},{"id":2139916,"name":"Nato","alt":["Nato Nepia","Nato Népia"],"lon":165.36667,"lat":-21.05,"pop":0},{"id":2139897,"name":"Ndé","alt":["Nde"],"lon":166.30788,"lat":-22.1507,"pop":0},{"id":2139885,"name":"Ndji","lon":166.78238,"lat":-22.45771,"pop":0},{"id":2139866,"name":"Néami","lon":164.96667,"lat":-20.98333,"pop":0},{"id":2139860,"name":"Néaoua","lon":165.65,"lat":-21.33333,"pop":0},{"id":2139855,"name":"Néaria","lon":165.6,"lat":-21.26667,"pop":0},{"id":2139854,"name":"Néavin","lon":165.48333,"lat":-21.16667,"pop":0},{"id":2139845,"name":"Nébouéba","lon":165.3,"lat":-21.1,"pop":0},{"id":2139843,"name":"Nece","alt":["Netche","Netché","Netieh","Nécé"],"lon":167.83898,"lat":-21.49161,"pop":0},{"id":11959115,"name":"Néchira","alt":["Nechira"],"lon":166.05323,"lat":-21.81639,"pop":0},{"id":2139833,"name":"Nédiouen","lon":165.61667,"lat":-21.26667,"pop":0},{"id":2139832,"name":"Nédivin","lon":165.56667,"lat":-21.3,"pop":0},{"id":2139828,"name":"Négropo","lon":165.9,"lat":-21.53333,"pop":0},{"id":2139813,"name":"Nékliaï","lon":165.18333,"lat":-21.3,"pop":0},{"id":2139803,"name":"Nékoué","lon":165.6,"lat":-21.26667,"pop":0},{"id":2139786,"name":"Néméara","lon":165.48054,"lat":-21.50047,"pop":0},{"id":2139785,"name":"Némengui","lon":165.95,"lat":-21.53333,"pop":0},{"id":11956881,"name":"Némokwêdö","alt":["Nemokwedo","Némökwédo"],"lon":166.11581,"lat":-21.82582,"pop":0},{"id":2139760,"name":"Néoua","lon":165.63333,"lat":-21.43333,"pop":0},{"id":2139751,"name":"Néouio","lon":165.63333,"lat":-21.28333,"pop":0},{"id":2139743,"name":"Néouta","alt":["Neouta","Neouty","Néouty"],"lon":165.38333,"lat":-21.06667,"pop":0},{"id":2139733,"name":"Népou","lon":165.1,"lat":-21.36667,"pop":0},{"id":2139729,"name":"Népoui","lon":164.99851,"lat":-21.32832,"pop":0},{"id":2139720,"name":"Néra","lon":165.48333,"lat":-21.61667,"pop":0},{"id":2139713,"name":"Nérin","lon":165.35,"lat":-21.33333,"pop":0},{"id":2139705,"name":"Nessa Kouya","lon":165.51667,"lat":-21.28333,"pop":0},{"id":2139708,"name":"Nessadiou","alt":["Messadiu"],"lon":165.53178,"lat":-21.62815,"pop":0},{"id":2139703,"name":"Néssapoué","lon":165.36667,"lat":-20.96667,"pop":0},{"id":2139701,"name":"Nesson","lon":165.61667,"lat":-21.26667,"pop":0},{"id":2139700,"name":"Netchaot","lon":165.01667,"lat":-21.01667,"pop":0},{"id":2139699,"name":"Nétéa","lon":165.2,"lat":-21.23333,"pop":0},{"id":11956879,"name":"Neto","lon":166.21473,"lat":-22.12157,"pop":0},{"id":2139690,"name":"Névaho","lon":165.36667,"lat":-21,"pop":0},{"id":2139684,"name":"Néya","lon":165.58333,"lat":-21.21667,"pop":0},{"id":2139662,"name":"Ni","lon":165.48333,"lat":-21.43333,"pop":0},{"id":2139643,"name":"Niéré","lon":168.08333,"lat":-21.46667,"pop":0},{"id":2139638,"name":"Nili","lon":165.81667,"lat":-21.7,"pop":0},{"id":2139636,"name":"Nimaha","lon":166.56667,"lat":-20.61667,"pop":0},{"id":2139634,"name":"Nimbaye","alt":["Nimbayes"],"lon":165.33333,"lat":-21.08333,"pop":0},{"id":2139618,"name":"Nindiah","lon":165.58333,"lat":-21.3,"pop":0},{"id":12024012,"name":"Ninic","lon":167.92803,"lat":-21.60188,"pop":0},{"id":2139594,"name":"Noéli","lon":164.95,"lat":-21.01667,"pop":0},{"id":2139589,"name":"Noet","lon":164.21667,"lat":-20.26667,"pop":0},{"id":2139565,"name":"Nomoudja","lon":164.06667,"lat":-20.13333,"pop":0},{"id":11956124,"name":"Nondoué","alt":["Nondoue"],"lon":166.44324,"lat":-22.12926,"pop":0},{"id":2139558,"name":"Nonhoué","lon":165.95,"lat":-21.51667,"pop":0},{"id":2139544,"name":"Normandie","lon":166.48007,"lat":-22.2225,"pop":0},{"id":2139521,"name":"Nouméa","alt":["NOU","Nomea","Noumea","Numea","Numeja","Numeo","Numėja","Port de France","nu me xa","nu mei a","nume'a","numea","numiya","nwmya","Νουμεά","Нумеа","נומאה","نومئا","نوميا","नूमेआ","நூமியா","นูเมอา","ნუმეა","ヌメア","努美阿","누메아"],"lon":166.44884,"lat":-22.27407,"pop":93060},{"id":2139508,"name":"Nouville","lon":166.40225,"lat":-22.26024,"pop":0},{"id":11103496,"name":"Numbo","lon":166.41729,"lat":-22.23683,"pop":0},{"id":2139491,"name":"Ognahu","alt":["Saint-Paul"],"lon":166.56482,"lat":-20.66343,"pop":0},{"id":2139490,"name":"Ognat","alt":["Ohnyat","Saint-Thomas"],"lon":166.65236,"lat":-20.47635,"pop":0},{"id":2139488,"name":"Ogné","lon":166.63333,"lat":-20.43333,"pop":0},{"id":2139473,"name":"Olane","lon":164.05,"lat":-20.1,"pop":0},{"id":2139462,"name":"Ometteux","lon":165.4,"lat":-21.01667,"pop":0},{"id":11956137,"name":"Ondémia","alt":["Ondemia"],"lon":166.34334,"lat":-22.12793,"pop":0},{"id":2139448,"name":"Ono","lon":163.63333,"lat":-19.65,"pop":0},{"id":11956111,"name":"Orphelinat","lon":166.44437,"lat":-22.28238,"pop":0},{"id":2139297,"name":"Oua Tom","lon":165.9,"lat":-21.8,"pop":0},{"id":2139333,"name":"Oua-Oué","lon":165.58333,"lat":-21.61667,"pop":0},{"id":2139435,"name":"Ouåco","alt":["Gomen Ouaco","Ouaco","Uaco","Usine"],"lon":164.46945,"lat":-20.83531,"pop":0},{"id":2139430,"name":"Ouaène","lon":164.61667,"lat":-20.58333,"pop":0},{"id":2139423,"name":"Ouahat","lon":164.7,"lat":-20.73333,"pop":0},{"id":2139416,"name":"Ouaïème","lon":164.85,"lat":-20.61667,"pop":0},{"id":2139406,"name":"Ouakaya","lon":165.63333,"lat":-21.31667,"pop":0},{"id":2139397,"name":"Oualanga","lon":164.43333,"lat":-20.63333,"pop":0},{"id":2139391,"name":"Ouamba","lon":164.45,"lat":-20.68333,"pop":0},{"id":2139384,"name":"Ouaméni","alt":["Ouameni","Quameni","Uameni","Uaméni"],"lon":165.96667,"lat":-21.8,"pop":0},{"id":2139382,"name":"Ouaméo","alt":["Ouameo","Ouamoeo","Quameo"],"lon":167.43333,"lat":-22.6,"pop":0},{"id":2139347,"name":"Ouan Kout","lon":164.98333,"lat":-20.78333,"pop":0},{"id":2139377,"name":"Ouanache","lon":165.06667,"lat":-20.75,"pop":0},{"id":2139371,"name":"Ouanane","lon":164.73333,"lat":-20.65,"pop":0},{"id":2139372,"name":"Ouanane","lon":164.73333,"lat":-20.63333,"pop":0},{"id":2139370,"name":"Ouanap I","lon":164.26667,"lat":-20.55,"pop":0},{"id":2139369,"name":"Ouanap II","lon":164.26667,"lat":-20.56667,"pop":0},{"id":2139330,"name":"Ouapan","lon":164.71667,"lat":-20.8,"pop":0},{"id":2139327,"name":"Ouara","alt":["Uara"],"lon":166.84013,"lat":-22.42392,"pop":0},{"id":2139322,"name":"Ouarap","lon":164.93333,"lat":-20.71667,"pop":0},{"id":2139319,"name":"Ouaré","lon":164.93333,"lat":-20.68333,"pop":0},{"id":2139317,"name":"Ouarenndi","lon":164.45,"lat":-20.4,"pop":0},{"id":2139315,"name":"Ouassé","lon":166.03333,"lat":-21.46667,"pop":0},{"id":2139301,"name":"Ouaté","lon":165.13333,"lat":-21.18333,"pop":0},{"id":2139302,"name":"Ouaté","lon":165.11667,"lat":-21.18333,"pop":0},{"id":2139286,"name":"Oubatche","alt":["Ubatche","Ubati"],"lon":164.63333,"lat":-20.43333,"pop":0},{"id":2139255,"name":"Oué Hava","lon":165.03333,"lat":-20.76667,"pop":0},{"id":2139275,"name":"Ouébia","lon":164.63333,"lat":-20.61667,"pop":0},{"id":2139259,"name":"Ouégoa","alt":["Ouegoa"],"lon":164.43333,"lat":-20.35,"pop":2127},{"id":2139253,"name":"Ouéholle","lon":164.53333,"lat":-20.6,"pop":0},{"id":2139243,"name":"Ouélis","lon":164.68333,"lat":-20.88333,"pop":0},{"id":11956105,"name":"Ouémo","alt":["Ouemo","Uemo","Uémo"],"lon":166.4766,"lat":-22.27441,"pop":0},{"id":2139233,"name":"Ouémou","lon":164.6,"lat":-20.61667,"pop":0},{"id":2139234,"name":"Ouémou","lon":164.56667,"lat":-20.6,"pop":0},{"id":2139230,"name":"Ouéna","lon":165.81667,"lat":-21.41667,"pop":0},{"id":2139220,"name":"Ouendé","lon":164.41667,"lat":-20.65,"pop":0},{"id":2139211,"name":"Ouendji","lon":165.31667,"lat":-21.33333,"pop":0},{"id":2139204,"name":"Ouéné","lon":164.53333,"lat":-20.53333,"pop":0},{"id":2139195,"name":"Ouengo-Pouéaï","alt":["Ouengo-Poueai","Ouengo-Pouepai","Ouengo-Pouépaï"],"lon":164.73333,"lat":-20.78333,"pop":0},{"id":2139193,"name":"Ouenguip","lon":164.9,"lat":-20.63333,"pop":0},{"id":2139189,"name":"Ouénia","lon":164.51667,"lat":-20.51667,"pop":0},{"id":2139173,"name":"Ouenpouès","alt":["Ouanpoues","Ouanpouès","Ouenpoues"],"lon":164.91667,"lat":-20.65,"pop":0},{"id":2139152,"name":"Ouéroupimé","lon":165.71667,"lat":-21.5,"pop":0},{"id":2139151,"name":"Ouessoin","lon":165.56667,"lat":-21.31667,"pop":0},{"id":2139128,"name":"Ouinané-Nétéa","alt":["Ouinane","Ouinane-Netea","Ouinané","Widawa"],"lon":166.15964,"lat":-21.92016,"pop":0},{"id":2139122,"name":"Ouindo","lon":166.1,"lat":-21.63333,"pop":0},{"id":2139123,"name":"Ouindo","lon":165.4,"lat":-20.98333,"pop":0},{"id":2139121,"name":"Ouingo","lon":165.51667,"lat":-21.28333,"pop":0},{"id":2139112,"name":"Ouipouin","lon":165.96667,"lat":-21.65,"pop":0},{"id":2139109,"name":"Ouitchamba","lon":165.95,"lat":-21.81667,"pop":0},{"id":2139104,"name":"Ouloup","alt":["Saint-Gabrielee"],"lon":166.56874,"lat":-20.64969,"pop":0},{"id":2139093,"name":"Oumbaïna","lon":163.78333,"lat":-20.05,"pop":0},{"id":2139080,"name":"Ounao","lon":165.23333,"lat":-20.91667,"pop":0},{"id":2139069,"name":"Oundjo","lon":164.7,"lat":-21.05,"pop":0},{"id":2139053,"name":"Ouo","lon":167.41667,"lat":-22.65,"pop":0},{"id":2139044,"name":"Ouro","lon":167.43333,"lat":-22.65,"pop":0},{"id":2139041,"name":"Ouroué","lon":166.2,"lat":-21.6,"pop":0},{"id":2139028,"name":"Ouyaguette","alt":["Ouayaguette"],"lon":164.68333,"lat":-20.66667,"pop":0},{"id":2139024,"name":"Paagoumène","alt":["Paagoumene","Paagowmene","Paagumene","Pagoumene","Port Paagoumene","Port Paagoumène"],"lon":164.18333,"lat":-20.48333,"pop":0},{"id":2139016,"name":"Paalo","lon":164.7,"lat":-20.46667,"pop":0},{"id":2139015,"name":"Paama","lon":165.4,"lat":-20.95,"pop":0},{"id":2139013,"name":"Pabou","lon":164.1,"lat":-20.3,"pop":0},{"id":12023818,"name":"Padawa","lon":167.84151,"lat":-21.46055,"pop":0},{"id":12024010,"name":"Padawa","lon":167.94774,"lat":-21.60641,"pop":0},{"id":2138998,"name":"Pagou","lon":164.26667,"lat":-20.55,"pop":0},{"id":2138992,"name":"Paimboas","lon":164.55,"lat":-20.55,"pop":0},{"id":2138983,"name":"Païromé","lon":163.68582,"lat":-19.76549,"pop":0},{"id":2138981,"name":"Païta","alt":["Paita"],"lon":166.35717,"lat":-22.13105,"pop":12617},{"id":2138982,"name":"Païta","lon":164.41667,"lat":-20.65,"pop":0},{"id":2138968,"name":"Pam","lon":164.3,"lat":-20.25,"pop":0},{"id":2138962,"name":"Pambou","lon":165.4,"lat":-20.96667,"pop":0},{"id":2138958,"name":"Panaki","lon":164.88333,"lat":-20.98333,"pop":0},{"id":2138957,"name":"Panane","lon":163.58333,"lat":-19.58333,"pop":0},{"id":2138947,"name":"Pangou","lon":164.63333,"lat":-20.6,"pop":0},{"id":2138946,"name":"Panié","lon":164.83333,"lat":-20.6,"pop":0},{"id":2138933,"name":"Panouma","lon":164.28333,"lat":-20.53333,"pop":0},{"id":2138932,"name":"Paola","lon":165.1,"lat":-20.78333,"pop":0},{"id":2138930,"name":"Paop","lon":164.26667,"lat":-20.55,"pop":0},{"id":2138919,"name":"Paouta","lon":165,"lat":-21.06667,"pop":0},{"id":12024046,"name":"Papa","lon":167.97226,"lat":-21.4466,"pop":0},{"id":2138914,"name":"Papalé","lon":167.26667,"lat":-20.78333,"pop":0},{"id":2138908,"name":"Parahoui","lon":165.98333,"lat":-21.51667,"pop":0},{"id":2138906,"name":"Paraoua","lon":164.45,"lat":-20.35,"pop":0},{"id":2138905,"name":"Paraouyé","lon":165.65,"lat":-21.28333,"pop":0},{"id":2138896,"name":"Patho","lon":168.1061,"lat":-21.57991,"pop":0},{"id":2138888,"name":"Pavé","lon":163.63333,"lat":-19.65,"pop":0},{"id":12023821,"name":"Pawaguam","lon":167.84594,"lat":-21.50466,"pop":0},{"id":2138879,"name":"Pédé","lon":167.86667,"lat":-21.58333,"pop":0},{"id":2138862,"name":"Pélaoui","lon":164.88333,"lat":-21.06667,"pop":0},{"id":2138857,"name":"Penelo","alt":["Pénélo"],"lon":168.08964,"lat":-21.57205,"pop":0},{"id":2138855,"name":"Penisi","lon":163.6,"lat":-19.56667,"pop":0},{"id":12024056,"name":"Peolo","lon":167.93723,"lat":-21.47084,"pop":0},{"id":2138849,"name":"Peorawa","alt":["Péorawa"],"lon":168.05032,"lat":-21.51565,"pop":0},{"id":2138841,"name":"Perlou","lon":165.45,"lat":-21.41667,"pop":0},{"id":2138832,"name":"Petit Gouli","lon":165.83333,"lat":-21.65,"pop":0},{"id":2138831,"name":"Petit Moné","lon":165.56667,"lat":-21.16667,"pop":0},{"id":2138836,"name":"Petit-Borindi","lon":166.48333,"lat":-21.8,"pop":0},{"id":12023990,"name":"Peucade","lon":168.09832,"lat":-21.47015,"pop":0},{"id":2138827,"name":"Pewaet","alt":["Pewaete","Péwaété"],"lon":168.07276,"lat":-21.54772,"pop":0},{"id":12023952,"name":"Pewapa","lon":167.89704,"lat":-21.40766,"pop":0},{"id":2138825,"name":"Peyec","alt":["Peyece","Péyécé"],"lon":167.97847,"lat":-21.45366,"pop":0},{"id":2138814,"name":"Pierra","alt":["Pierrat"],"lon":165.86667,"lat":-21.71667,"pop":0},{"id":2138810,"name":"Pilmango","lon":167.41667,"lat":-21.1,"pop":0},{"id":2138800,"name":"Pindache","lon":165,"lat":-20.7,"pop":0},{"id":2138792,"name":"Pinjen","lon":164.76667,"lat":-21.05,"pop":0},{"id":2138776,"name":"Plaine aux Cailloux","lon":166.36993,"lat":-22.09319,"pop":0},{"id":2138772,"name":"Plum","lon":166.6144,"lat":-22.27226,"pop":0},{"id":2138769,"name":"Pô","lon":165.38333,"lat":-21.18333,"pop":0},{"id":2138749,"name":"Pocquereux","lon":165.91667,"lat":-21.7,"pop":0},{"id":2138745,"name":"Poët","lon":165.6,"lat":-21.35,"pop":0},{"id":2138729,"name":"Poinda","lon":164.96667,"lat":-21.03333,"pop":0},{"id":2138717,"name":"Poindimié","alt":["Poindimie"],"lon":165.33121,"lat":-20.93714,"pop":4885},{"id":2138700,"name":"Pombéï","lon":165.18333,"lat":-20.88333,"pop":0},{"id":2138687,"name":"Ponérihouen","alt":["Ponerihouen","Poneriuen","Punereuin"],"lon":165.4,"lat":-21.08333,"pop":2739},{"id":2138682,"name":"Ponibok","lon":167.97374,"lat":-21.50288,"pop":0},{"id":2138679,"name":"Pont des Français","alt":["Pont des Francais","Pont-des-Francaise","Pont-des-Française"],"lon":166.49446,"lat":-22.22028,"pop":0},{"id":2138678,"name":"Popidéry","lon":165.85,"lat":-21.83333,"pop":0},{"id":2138671,"name":"Poro","lon":165.63333,"lat":-21.31667,"pop":0},{"id":11956880,"name":"Port Ouenghi","lon":166.06786,"lat":-21.90255,"pop":0},{"id":2138663,"name":"Port-Saïd","alt":["Port Said","Port Saïd","Port-Said"],"lon":167.90881,"lat":-21.5129,"pop":0},{"id":11185984,"name":"Ports De Fer","lon":166.46081,"lat":-22.25796,"pop":0},{"id":2138661,"name":"Pote","alt":["Pothe","Pothê","Potê"],"lon":165.49114,"lat":-21.45399,"pop":0},{"id":2138599,"name":"Poué Koué","lon":164.48333,"lat":-20.81667,"pop":0},{"id":2138610,"name":"Pouébadou","lon":164.55,"lat":-20.51667,"pop":0},{"id":2138607,"name":"Pouébo","alt":["Pouebo","Puebo","Puébo"],"lon":164.56667,"lat":-20.4,"pop":2391},{"id":2138602,"name":"Pouedjane Maladj","lon":164.2,"lat":-20.36667,"pop":0},{"id":2138592,"name":"Pouembout","alt":["Puembut"],"lon":164.9,"lat":-21.13333,"pop":1511},{"id":2138588,"name":"Pouendiap","lon":164.9,"lat":-20.71667,"pop":0},{"id":2138584,"name":"Pouéné","lon":164.48333,"lat":-20.68333,"pop":0},{"id":2138579,"name":"Pouéo","alt":["Poneo","Ponéo","Poueo"],"lon":165.51667,"lat":-21.51667,"pop":0},{"id":2138573,"name":"Pouépaï","lon":164.8,"lat":-20.78333,"pop":0},{"id":2138567,"name":"Pouiembeng","lon":164.88333,"lat":-20.68333,"pop":0},{"id":2138560,"name":"Pouiou","lon":165.25,"lat":-20.83333,"pop":0},{"id":2138555,"name":"Poum","alt":["Bouemanda","Bouémanda","Buemanda","PUV","Peum","Poume","Pum"],"lon":164.01667,"lat":-20.23333,"pop":1405},{"id":2138545,"name":"Poum-Plage","lon":164.03333,"lat":-20.23333,"pop":0},{"id":2138544,"name":"Poum-Titch","lon":164.01667,"lat":-20.23333,"pop":0},{"id":2138522,"name":"Poya","lon":165.15,"lat":-21.35,"pop":2617},{"id":2138504,"name":"Prony","lon":166.82413,"lat":-22.32001,"pop":0},{"id":11956869,"name":"Quai Manto","lon":166.21337,"lat":-22.03736,"pop":0},{"id":10862006,"name":"Quarter du Fish","lon":165.48951,"lat":-21.55349,"pop":0},{"id":11956113,"name":"Quartier Latin","lon":166.44651,"lat":-22.27538,"pop":0},{"id":11956193,"name":"Quatrième Kilomètre","alt":["4eme Kilometre","4ème Kilomètre","Quatrieme Kilometre"],"lon":166.46159,"lat":-22.24616,"pop":0},{"id":2138481,"name":"Rawa","lon":167.97665,"lat":-21.49515,"pop":0},{"id":10227143,"name":"Receiving","lon":166.4427,"lat":-22.29227,"pop":0},{"id":11956101,"name":"Rivière Salée","alt":["Riviere Salee"],"lon":166.46421,"lat":-22.23144,"pop":0},{"id":2138466,"name":"Ro","alt":["Rho","Rô"],"lon":167.86233,"lat":-21.39253,"pop":0},{"id":2138462,"name":"Roï","lon":167.95,"lat":-21.46667,"pop":0},{"id":2138461,"name":"Roibahon","lon":165.58333,"lat":-21.3,"pop":0},{"id":2138449,"name":"Ruete","alt":["Ruète"],"lon":167.89044,"lat":-21.54028,"pop":0},{"id":2138439,"name":"Sailali","lon":167.97939,"lat":-21.45883,"pop":0},{"id":2138437,"name":"Saint-Adolphe","lon":164.56667,"lat":-20.38333,"pop":0},{"id":2138433,"name":"Saint-Denis","lon":165.33333,"lat":-21.1,"pop":0},{"id":2138434,"name":"Saint-Denis","lon":165.28333,"lat":-20.9,"pop":0},{"id":2138435,"name":"Saint-Denis","lon":164.56667,"lat":-20.4,"pop":0},{"id":2138436,"name":"Saint-Denis","lon":164.5,"lat":-20.31667,"pop":0},{"id":2138421,"name":"Saint-Ferdinand","lon":164.41667,"lat":-20.38333,"pop":0},{"id":2138420,"name":"Saint-François","lon":164.41667,"lat":-20.43333,"pop":0},{"id":2138417,"name":"Saint-Gabriel","lon":166.3,"lat":-21.65,"pop":0},{"id":2138418,"name":"Saint-Gabriel","lon":164.56667,"lat":-20.38333,"pop":0},{"id":2138419,"name":"Saint-Gabriel","lon":164.51667,"lat":-20.33333,"pop":0},{"id":2138412,"name":"Saint-Jean-Baptiste","lon":166.46667,"lat":-21.76667,"pop":0},{"id":2138413,"name":"Saint-Jean-Baptiste","lon":164.43333,"lat":-20.43333,"pop":0},{"id":2138411,"name":"Saint-Joachim","lon":164.45,"lat":-20.43333,"pop":0},{"id":2138406,"name":"Saint-Joseph","lon":166.45,"lat":-21.75,"pop":0},{"id":2138407,"name":"Saint-Joseph","lon":167.26667,"lat":-20.78333,"pop":0},{"id":2138408,"name":"Saint-Joseph","alt":["Ashir","Eo","Uvea","Uvéa"],"lon":166.59651,"lat":-20.4579,"pop":0},{"id":2138409,"name":"Saint-Joseph","lon":164.43333,"lat":-20.45,"pop":0},{"id":2138410,"name":"Saint-Joseph","lon":164.56667,"lat":-20.4,"pop":0},{"id":11956175,"name":"Saint-Laurent","lon":166.30654,"lat":-22.07743,"pop":0},{"id":2138402,"name":"Saint-Léonard","lon":165.23333,"lat":-20.9,"pop":0},{"id":2138398,"name":"Saint-Louis","lon":166.55,"lat":-22.23333,"pop":0},{"id":2138399,"name":"Saint-Louis","lon":165.08333,"lat":-20.75,"pop":0},{"id":2138400,"name":"Saint-Louis","lon":164.41667,"lat":-20.43333,"pop":0},{"id":2138401,"name":"Saint-Louis","lon":164.56667,"lat":-20.36667,"pop":0},{"id":11958033,"name":"Saint-Maurice","lon":166.11324,"lat":-21.76715,"pop":0},{"id":2138393,"name":"Saint-Michel","lon":166.16667,"lat":-21.66667,"pop":0},{"id":2138394,"name":"Saint-Michel","lon":165.23333,"lat":-20.95,"pop":0},{"id":2138395,"name":"Saint-Michel","lon":164.43333,"lat":-20.43333,"pop":0},{"id":2138387,"name":"Saint-Paul","lon":166.16667,"lat":-21.65,"pop":0},{"id":2138388,"name":"Saint-Paul","lon":165.26667,"lat":-20.95,"pop":0},{"id":2138389,"name":"Saint-Paul","lon":167.26667,"lat":-20.76667,"pop":0},{"id":2138390,"name":"Saint-Paul","lon":164.43333,"lat":-20.43333,"pop":0},{"id":2138391,"name":"Saint-Paul","lon":164.53333,"lat":-20.35,"pop":0},{"id":2138384,"name":"Saint-Philippe I","lon":166.2,"lat":-21.63333,"pop":0},{"id":2138383,"name":"Saint-Philippe II","lon":166.23333,"lat":-21.61667,"pop":0},{"id":2138380,"name":"Saint-Pierre","lon":166.15,"lat":-21.68333,"pop":0},{"id":2138381,"name":"Saint-Pierre","lon":164.4,"lat":-20.65,"pop":0},{"id":2138382,"name":"Saint-Pierre","lon":164.43333,"lat":-20.43333,"pop":0},{"id":2138376,"name":"Saint-Roch","lon":166.4,"lat":-21.7,"pop":0},{"id":2138374,"name":"Saint-Thomas","lon":165.23333,"lat":-20.95,"pop":0},{"id":2138373,"name":"Saint-Vincent","lon":166.27287,"lat":-22.06232,"pop":0},{"id":2138368,"name":"Saint-Yves","lon":165.3,"lat":-21.1,"pop":0},{"id":2138431,"name":"Sainte-Anne","lon":164.45,"lat":-20.43333,"pop":0},{"id":2138428,"name":"Sainte-Marie","lon":164.56667,"lat":-20.38333,"pop":0},{"id":2138429,"name":"Sainte-Marie","lon":164.51667,"lat":-20.33333,"pop":0},{"id":11956197,"name":"Sainte-Marie","lon":166.45803,"lat":-22.27727,"pop":0},{"id":2138423,"name":"Sainte-Thérèse","lon":165.21667,"lat":-20.96667,"pop":0},{"id":2138424,"name":"Sainte-Thérèse","lon":165.23333,"lat":-20.95,"pop":0},{"id":11001193,"name":"Saoui","lon":165.53581,"lat":-21.50303,"pop":0},{"id":2138356,"name":"Sarraméa","alt":["Saramea","Saraméa","Sarramea"],"lon":165.85,"lat":-21.65,"pop":623},{"id":11001911,"name":"Savanah","lon":166.39,"lat":-22.16149,"pop":0},{"id":11956196,"name":"Septième Kilomètre","alt":["7eme Kilometre","7ème Kilomètre","Septieme Kilometre"],"lon":166.48082,"lat":-22.23135,"pop":0},{"id":2138337,"name":"Shoup","lon":167.26667,"lat":-20.78333,"pop":0},{"id":2138336,"name":"Shuane","lon":167.96667,"lat":-21.46667,"pop":0},{"id":2138331,"name":"Siloam","lon":167.11667,"lat":-20.76667,"pop":0},{"id":11956194,"name":"Sixième Kilomètre","alt":["6eme Kilometre","6ème Kilomètre","Sixieme Kilometre"],"lon":166.47543,"lat":-22.23633,"pop":0},{"id":2138308,"name":"Station Castex","lon":164.86667,"lat":-20.73333,"pop":0},{"id":2138307,"name":"Station de Beaupré","lon":165.18333,"lat":-21.46667,"pop":0},{"id":2138306,"name":"Station de Muéo","alt":["Mueo","Muéo","PDC","Station de Mueo"],"lon":165.01667,"lat":-21.3,"pop":0},{"id":11959055,"name":"Station de Ouinané","alt":["Station de Ouinane"],"lon":166.13867,"lat":-21.92817,"pop":0},{"id":2138305,"name":"Station de Ta","lon":164.71667,"lat":-21.01667,"pop":0},{"id":2138304,"name":"Station Ouanéko","lon":165.16667,"lat":-21.46667,"pop":0},{"id":2138292,"name":"Taanlô","lon":163.93333,"lat":-20.01667,"pop":0},{"id":2138285,"name":"Tadine","alt":["Tadin","Tadinou","Tadinu","Todine","Тадин"],"lon":167.88019,"lat":-21.54751,"pop":7492},{"id":11956882,"name":"Tagi","lon":166.06638,"lat":-21.80323,"pop":0},{"id":2138275,"name":"Taïté","lon":165.08333,"lat":-20.78333,"pop":0},{"id":12024057,"name":"Takadic","lon":167.93671,"lat":-21.46755,"pop":0},{"id":2138274,"name":"Takedji","alt":["Takeji","Takéji"],"lon":166.6,"lat":-20.46667,"pop":0},{"id":2138237,"name":"Tao","lon":164.8,"lat":-20.55,"pop":0},{"id":2138234,"name":"Taode","alt":["Taodé"],"lon":167.91039,"lat":-21.45044,"pop":0},{"id":2138232,"name":"Taom","lon":164.55,"lat":-20.85,"pop":0},{"id":2138218,"name":"Taradi","lon":165.91667,"lat":-21.51667,"pop":0},{"id":2138215,"name":"Tarap","lon":164.45,"lat":-20.36667,"pop":0},{"id":2138214,"name":"Tarbeville","lon":164.86667,"lat":-21.21667,"pop":0},{"id":2138203,"name":"Tawainedr","alt":["Tawainedre","Tawaïnèdre"],"lon":168.08301,"lat":-21.502,"pop":0},{"id":2138200,"name":"Tchamba","lon":165.28333,"lat":-21.03333,"pop":0},{"id":2138198,"name":"Tchambouenne","lon":164.6,"lat":-20.41667,"pop":0},{"id":2138191,"name":"Tchaulé","lon":163.81667,"lat":-20.05,"pop":0},{"id":2138170,"name":"Téganpaïk","lon":165.06667,"lat":-20.73333,"pop":0},{"id":2138160,"name":"Témala","alt":["Temaio","Temala"],"lon":164.68333,"lat":-20.9,"pop":0},{"id":2138154,"name":"Téméline","lon":164.56667,"lat":-20.53333,"pop":0},{"id":2138152,"name":"Tenan","alt":["Tenane"],"lon":167.89444,"lat":-21.40496,"pop":0},{"id":2138150,"name":"Tenda","lon":166.03333,"lat":-21.55,"pop":0},{"id":2138147,"name":"Tendo","lon":164.81667,"lat":-20.71667,"pop":0},{"id":9645451,"name":"Tene","lon":165.54405,"lat":-21.58027,"pop":0},{"id":2138142,"name":"Ténem","lon":164.93333,"lat":-20.66667,"pop":0},{"id":2138133,"name":"Tenjaï","lon":164.26667,"lat":-20.55,"pop":0},{"id":2138126,"name":"Téouta","lon":166.61667,"lat":-20.4,"pop":0},{"id":12403991,"name":"Teu","lon":166.72032,"lat":-22.34041,"pop":0},{"id":12024016,"name":"Tha","lon":167.92567,"lat":-21.60142,"pop":0},{"id":2138103,"name":"Thio","lon":166.21667,"lat":-21.61667,"pop":2748},{"id":2138099,"name":"Thogoon","alt":["Thogone"],"lon":167.90118,"lat":-21.39619,"pop":0},{"id":2138098,"name":"Thonon","lon":164.46667,"lat":-20.61667,"pop":0},{"id":2138097,"name":"Thuahaïk","lon":167.28333,"lat":-21.01667,"pop":0},{"id":2138095,"name":"Thuma","alt":["Thum"],"lon":167.89564,"lat":-21.48773,"pop":0},{"id":2138092,"name":"Tia","alt":["Thia"],"lon":165.8,"lat":-21.71667,"pop":0},{"id":2138089,"name":"Tiabet","lon":164.01667,"lat":-20.13333,"pop":0},{"id":2138080,"name":"Tiakana","lon":164.88333,"lat":-21,"pop":0},{"id":2138075,"name":"Tiamou","lon":164.88333,"lat":-21.01667,"pop":0},{"id":2138058,"name":"Tiaou-Tiwaka","lon":165.2,"lat":-20.9,"pop":0},{"id":2138066,"name":"Tiaoué","lon":164.91667,"lat":-21,"pop":0},{"id":2138056,"name":"Tiaré","alt":["Tiare"],"lon":166.27866,"lat":-22.16261,"pop":0},{"id":2138053,"name":"Tiari","lon":164.35,"lat":-20.25,"pop":0},{"id":2138046,"name":"Tibarama","lon":165.38333,"lat":-20.93333,"pop":0},{"id":2138039,"name":"Tié","alt":["Tie","Tieti","Tiéti"],"lon":165.28333,"lat":-20.9,"pop":0},{"id":2138040,"name":"Tié","lon":163.98333,"lat":-20.11667,"pop":0},{"id":2138032,"name":"Tiébaghi","lon":164.21667,"lat":-20.45,"pop":0},{"id":2138027,"name":"Tiendanite","lon":164.9,"lat":-20.76667,"pop":0},{"id":2138018,"name":"Tiéta","lon":164.73333,"lat":-20.93333,"pop":0},{"id":2138016,"name":"Tiéti","alt":["Tiete","Tieti","Tiété"],"lon":165.3,"lat":-20.93333,"pop":0},{"id":2138006,"name":"Tilougne","lon":164.93333,"lat":-20.66667,"pop":0},{"id":2138005,"name":"Tilwit","lon":164.46667,"lat":-20.55,"pop":0},{"id":2138003,"name":"Timbia","lon":166.22377,"lat":-22.13707,"pop":0},{"id":2137998,"name":"Timothée","lon":164.41667,"lat":-20.43333,"pop":0},{"id":11956119,"name":"Tina","lon":166.49631,"lat":-22.23437,"pop":0},{"id":2137996,"name":"Tindéa","lon":165.73333,"lat":-21.65,"pop":0},{"id":2137992,"name":"Tindo","lon":164.81667,"lat":-20.71667,"pop":0},{"id":11103495,"name":"Tindu","lon":166.42004,"lat":-22.23119,"pop":0},{"id":2137985,"name":"Tingeting","lon":167.26667,"lat":-20.73333,"pop":0},{"id":2137982,"name":"Tinip","alt":["Tinipp"],"lon":164.45,"lat":-20.76667,"pop":0},{"id":2137973,"name":"Tiouaé","lon":165.15,"lat":-20.8,"pop":0},{"id":2137971,"name":"Tiouamak","lon":164.91667,"lat":-20.73333,"pop":0},{"id":2137969,"name":"Tiouandé","lon":165.05,"lat":-20.75,"pop":0},{"id":2137970,"name":"Tiouandé","lon":165.03333,"lat":-20.73333,"pop":0},{"id":2137960,"name":"Tipindjé","lon":165,"lat":-20.73333,"pop":0},{"id":2137955,"name":"Tiponite","lon":165.18333,"lat":-20.78333,"pop":0},{"id":2137937,"name":"Tiwaka","lon":165.21667,"lat":-20.9,"pop":0},{"id":2137927,"name":"Toen","lon":167.8425,"lat":-21.49626,"pop":0},{"id":12023828,"name":"Toka","alt":["Tiga"],"lon":167.79685,"lat":-21.09428,"pop":0},{"id":2137908,"name":"Tomo","alt":["Toomo","Toomö"],"lon":166.14924,"lat":-21.95771,"pop":0},{"id":2137905,"name":"Tonga","lon":166.42532,"lat":-20.72585,"pop":0},{"id":2137904,"name":"Tonghoué","alt":["Tonghoue","Tongoue"],"lon":166.47969,"lat":-22.2,"pop":0},{"id":2137901,"name":"Tongouin","lon":166.20224,"lat":-22.10774,"pop":0},{"id":2137899,"name":"Tonlon","lon":164.26667,"lat":-20.55,"pop":0},{"id":2137882,"name":"Touaourou","lon":166.96667,"lat":-22.18333,"pop":0},{"id":2137873,"name":"Touho","alt":["TOU","Tuho","Tuo","Туо"],"lon":165.24987,"lat":-20.79094,"pop":2283},{"id":2137865,"name":"Toul","lon":167.41667,"lat":-21.08333,"pop":0},{"id":2137848,"name":"Trapour","alt":["Traput"],"lon":167.31474,"lat":-20.93559,"pop":0},{"id":11072660,"name":"Traput","lon":167.30259,"lat":-20.92741,"pop":0},{"id":2137847,"name":"Trégon","lon":164.38333,"lat":-20.68333,"pop":0},{"id":11956110,"name":"Trianon","lon":166.44913,"lat":-22.2871,"pop":0},{"id":2137836,"name":"Troulala","lon":164.36667,"lat":-20.65,"pop":0},{"id":2137834,"name":"Tsendia","lon":166.03333,"lat":-21.53333,"pop":0},{"id":2137831,"name":"Tû","lon":165.58333,"lat":-21.26667,"pop":0},{"id":10227141,"name":"Tuband","lon":166.45381,"lat":-22.29239,"pop":0},{"id":2137824,"name":"Tunney","lon":164.36667,"lat":-20.65,"pop":0},{"id":2137826,"name":"Tuo","alt":["Tuho"],"lon":167.89461,"lat":-21.49792,"pop":0},{"id":12023899,"name":"Udekeu","lon":167.87083,"lat":-21.48677,"pop":0},{"id":12024007,"name":"Uni","lon":167.9516,"lat":-21.62095,"pop":0},{"id":12403729,"name":"Val Boisé","alt":["Lotissement Val Boise","Lotissement Val Boisé","Val Boise"],"lon":166.61244,"lat":-22.27106,"pop":0},{"id":11956132,"name":"Val Fleuri","lon":166.43305,"lat":-22.12066,"pop":0},{"id":11956109,"name":"Val Plaisance","lon":166.45469,"lat":-22.30048,"pop":0},{"id":11956133,"name":"Val Suzon","lon":166.42361,"lat":-22.11483,"pop":0},{"id":2137778,"name":"Vallée des Colons","lon":166.45218,"lat":-22.27031,"pop":0},{"id":2137777,"name":"Vallée du Génie","lon":166.45,"lat":-22.26667,"pop":0},{"id":2137776,"name":"Vallée du Tir","alt":["Vallee du Tir"],"lon":166.44715,"lat":-22.2609,"pop":0},{"id":2137773,"name":"Vao","alt":["Upuaite"],"lon":167.49627,"lat":-22.66645,"pop":1862},{"id":10234300,"name":"Vieux Tuho","lon":165.16404,"lat":-20.77048,"pop":0},{"id":2137753,"name":"Vieux-Touho","lon":165.20704,"lat":-20.77814,"pop":0},{"id":2137748,"name":"Voh","lon":164.7,"lat":-20.96667,"pop":2272},{"id":2137739,"name":"Wabao","alt":["Ouabao","Uapao"],"lon":167.93668,"lat":-21.60237,"pop":0},{"id":12024015,"name":"Wabet","lon":167.93992,"lat":-21.60054,"pop":0},{"id":2137735,"name":"Wacamadra","lon":168.03102,"lat":-21.46741,"pop":0},{"id":12023897,"name":"Wacebeu","lon":167.87817,"lat":-21.49266,"pop":0},{"id":12024053,"name":"Waco","lon":167.922,"lat":-21.45819,"pop":0},{"id":12023820,"name":"Wadiric","lon":167.83409,"lat":-21.48181,"pop":0},{"id":12024013,"name":"Wadreral","lon":167.9299,"lat":-21.59815,"pop":0},{"id":2137731,"name":"Wadrilla","alt":["Ouadila","Wadila"],"lon":166.56446,"lat":-20.59615,"pop":0},{"id":12024008,"name":"Waetetubene","lon":167.95416,"lat":-21.62257,"pop":0},{"id":2137727,"name":"Wagap","alt":["Ouagap","Uagap"],"lon":165.26667,"lat":-20.88333,"pop":0},{"id":12024052,"name":"Wahmetu","lon":167.91848,"lat":-21.45621,"pop":0},{"id":2137719,"name":"Wakat","lon":166.53333,"lat":-20.68333,"pop":0},{"id":2137716,"name":"Wakone","alt":["Wakoné"],"lon":168.09294,"lat":-21.45932,"pop":0},{"id":2137715,"name":"Wakuarori","lon":167.89021,"lat":-21.43743,"pop":0},{"id":2137713,"name":"Wala","alt":["BMY","Uala","Waala"],"lon":163.64702,"lat":-19.71161,"pop":890},{"id":2137706,"name":"Wanap","lon":164.26667,"lat":-20.56667,"pop":0},{"id":2137703,"name":"Wapan","alt":["Uapan"],"lon":167.44769,"lat":-22.56769,"pop":0},{"id":2137700,"name":"Wara","lon":165.6,"lat":-21.26667,"pop":0},{"id":2137698,"name":"Wassadieuhu","lon":166.55,"lat":-20.65,"pop":0},{"id":2137697,"name":"Wassagne","lon":167.38333,"lat":-21,"pop":0},{"id":2137694,"name":"Watahu","lon":166.55,"lat":-20.63333,"pop":0},{"id":12023823,"name":"Wateta","lon":167.87376,"lat":-21.54261,"pop":0},{"id":12023991,"name":"Watha","lon":167.96265,"lat":-21.4653,"pop":0},{"id":2137690,"name":"Wé","alt":["Oue","Oué","We"],"lon":167.26461,"lat":-20.91687,"pop":10375},{"id":2137689,"name":"Wéaa","lon":163.65571,"lat":-19.66092,"pop":0},{"id":2137686,"name":"Webegunin","alt":["Webegunine","Wébégunine"],"lon":167.85247,"lat":-21.52125,"pop":0},{"id":12023819,"name":"Webehned","lon":167.8383,"lat":-21.48666,"pop":0},{"id":2137683,"name":"Wédoumel","lon":167.11667,"lat":-20.98333,"pop":0},{"id":2137680,"name":"Wenéki","lon":166.60634,"lat":-20.44861,"pop":0},{"id":2137679,"name":"Wenghé","lon":166.55,"lat":-20.65,"pop":0},{"id":11959079,"name":"Wêwé","alt":["Wewe"],"lon":166.08511,"lat":-21.97491,"pop":0},{"id":12023997,"name":"Wiawia","lon":168.02494,"lat":-21.47551,"pop":0},{"id":2137675,"name":"Winikuye","alt":["Winikuyé"],"lon":167.87673,"lat":-21.54272,"pop":0},{"id":2137674,"name":"Wiwatoul","lon":167.35044,"lat":-21.09259,"pop":0},{"id":8520155,"name":"Xéré","lon":167.01141,"lat":-22.28636,"pop":0},{"id":11958023,"name":"Xwê Pwé","alt":["Hwe Pwe","Hwê Pwé","Xwe Pwe"],"lon":166.01382,"lat":-21.90208,"pop":0},{"id":11959119,"name":"Ya","lon":166.0571,"lat":-21.79924,"pop":0},{"id":2137666,"name":"Yahoué","alt":["Yahoue"],"lon":166.48574,"lat":-22.20726,"pop":0},{"id":2137662,"name":"Yambé","lon":164.65,"lat":-20.45,"pop":0},{"id":2137721,"name":"Yaté","alt":["Waho","Yate"],"lon":166.95,"lat":-22.16667,"pop":0},{"id":2137644,"name":"Yaté-Barrage","alt":["Yate-Barrage"],"lon":166.88333,"lat":-22.15,"pop":1871},{"id":2137643,"name":"Yaté-Village","alt":["Iate","Yate","Yate-Village","Yaté"],"lon":166.9,"lat":-22.15,"pop":0},{"id":2137763,"name":"Yejele","alt":["Vedjele","Vedjélé"],"lon":167.90581,"lat":-21.59609,"pop":0},{"id":2137642,"name":"Yenghébane","lon":163.96667,"lat":-20.1,"pop":0},{"id":10234196,"name":"Yuate Tremwatre","lon":167.49082,"lat":-22.62542,"pop":0},{"id":11001910,"name":"Zi De Paita","lon":166.37537,"lat":-22.1545,"pop":0},{"id":2137632,"name":"Zoze","lon":167.43333,"lat":-21.05,"pop":0}]