[{"id":6901755,"name":"'s Gravendam","lon":4.49444,"lat":52.24853,"pop":0},{"id":2747371,"name":"'s Gravenmoer","alt":["'s Gravemoer"],"lon":4.94076,"lat":51.65594,"pop":2315},{"id":8379268,"name":"'s-Gravenland","lon":4.55315,"lat":51.92336,"pop":10000},{"id":2747364,"name":"'s-Gravenzande","lon":4.16528,"lat":52.00167,"pop":19190},{"id":2747357,"name":"'s-Heerenberg","alt":["s-Heerenberg","s-Kherenberg","с-Херенберг","’s-Heerenberg"],"lon":6.25877,"lat":51.8767,"pop":4720},{"id":2747351,"name":"'s-Hertogenbosch","alt":["'s Bosch","Bois-le-Duc","Bolduque","Boscoducale","De Bosk","Den Bosch","Hertogenbosch","Herzogenbusch","Khertogenbos","Oeteldonk","Silva Ducis","Хертогенбос","’s-Hertogenbosch"],"lon":5.30417,"lat":51.69917,"pop":134520},{"id":2746502,"name":"'t Eigen","alt":["Eigen"],"lon":5.51667,"lat":51.51667,"pop":0},{"id":2746369,"name":"'t Heechhout","lon":5.60062,"lat":53.16869,"pop":0},{"id":6544858,"name":"'t Herselt","lon":5.98889,"lat":51.60917,"pop":0},{"id":2746354,"name":"'t Hofke","lon":5.51926,"lat":51.44943,"pop":3475},{"id":2746261,"name":"'t Klooster","alt":["Klooster"],"lon":6.08986,"lat":52.74928,"pop":0},{"id":2746241,"name":"'t Nopeind","lon":4.96333,"lat":52.41001,"pop":0},{"id":2746140,"name":"'t Schoor","alt":["Het Schoor","It Skoar","Schoor"],"lon":5.98257,"lat":53.39385,"pop":0},{"id":2746087,"name":"'t Vlut","lon":5.78542,"lat":51.30476,"pop":0},{"id":2746031,"name":"'t Zand","alt":["Zand"],"lon":4.75556,"lat":52.83667,"pop":2485},{"id":2747362,"name":"’s-Gravesloot","alt":["'s-Gravensloot","'s-Gravesloot","Gravesloot","’s-Gravensloot"],"lon":4.91667,"lat":52.1,"pop":0},{"id":2746381,"name":"’t Genseler","lon":6.76667,"lat":52.25,"pop":0},{"id":2746377,"name":"’t Haagje","lon":6.12259,"lat":52.70433,"pop":0},{"id":2746370,"name":"’t Hart","lon":5.27656,"lat":52.18247,"pop":0},{"id":2746368,"name":"’t Heem","alt":["'t Heem","Heem","Het Heem"],"lon":7.06466,"lat":52.88422,"pop":0},{"id":2746356,"name":"’t Hoekje","lon":4.04042,"lat":51.25563,"pop":0},{"id":2746344,"name":"’t Hool","lon":5.48333,"lat":51.48333,"pop":0},{"id":2746339,"name":"’t Horntie","lon":5.55,"lat":52.03333,"pop":0},{"id":2746245,"name":"’t Look","lon":5.39051,"lat":51.41779,"pop":0},{"id":2746090,"name":"’t Ven","lon":5.4416,"lat":51.43895,"pop":0},{"id":2746029,"name":"’t Zand","alt":["'t Zand","Het Zand","Zand"],"lon":5.05524,"lat":51.57234,"pop":0},{"id":2746030,"name":"’t Zand","lon":3.59819,"lat":51.49639,"pop":0},{"id":2760151,"name":"Aadorp","lon":6.62917,"lat":52.37667,"pop":0},{"id":2760149,"name":"Aagtdorp","alt":["Aagtdorn"],"lon":4.70417,"lat":52.69,"pop":570},{"id":2760147,"name":"Aagtekerke","lon":3.50972,"lat":51.54667,"pop":1245},{"id":2760146,"name":"Aalanden","lon":6.10069,"lat":52.53334,"pop":0},{"id":2760145,"name":"Aalbeek","lon":5.85139,"lat":50.9,"pop":275},{"id":2760144,"name":"Aalburg","alt":["Albjurg","Alburx","Wijk en Aalburg","albrg","albwrkh","Албюрг","Ալբուրխ","آلبرگ","آلبورخ"],"lon":5.13156,"lat":51.75482,"pop":6588},{"id":2760142,"name":"Aalden","lon":6.71806,"lat":52.79,"pop":1625},{"id":2760139,"name":"Aaldonk","lon":5.99444,"lat":51.7125,"pop":0},{"id":2760134,"name":"Aalsmeer","alt":["Alsmer","QFA","a er si mei er","Алсмер","阿尔斯梅尔"],"lon":4.75972,"lat":52.25917,"pop":22991},{"id":2760132,"name":"Aalsmeerderbrug","lon":4.75,"lat":52.27417,"pop":505},{"id":2760129,"name":"Aalst","lon":5.47778,"lat":51.39667,"pop":3480},{"id":2760130,"name":"Aalst","lon":5.54028,"lat":51.935,"pop":0},{"id":2760131,"name":"Aalst","lon":5.12778,"lat":51.7825,"pop":1580},{"id":2760124,"name":"Aalsum","alt":["Ealsum"],"lon":6.36944,"lat":53.3075,"pop":0},{"id":2760123,"name":"Aalten","lon":6.58056,"lat":51.925,"pop":19141},{"id":2760121,"name":"Aalzum","alt":["Aalsum","Ealsum"],"lon":6.00334,"lat":53.33923,"pop":0},{"id":2760119,"name":"Aam","lon":5.86667,"lat":51.915,"pop":0},{"id":2760115,"name":"Aan de Berg","lon":5.94085,"lat":51.1325,"pop":0},{"id":2760114,"name":"Aan de Bergen","lon":5.87778,"lat":51.26583,"pop":0},{"id":2760113,"name":"Aan de Maas","lon":5.73889,"lat":50.92819,"pop":0},{"id":2760112,"name":"Aan de Popelaar","alt":["Aandepoppelaar"],"lon":5.94148,"lat":51.05499,"pop":0},{"id":6544793,"name":"Aan de Rijksweg","lon":5.96667,"lat":51.16833,"pop":0},{"id":2760111,"name":"Aan de School","lon":5.96718,"lat":51.06223,"pop":0},{"id":2760110,"name":"Aan de Zuwe","lon":4.90139,"lat":52.1725,"pop":0},{"id":2760108,"name":"Aan het Broek","lon":6.08333,"lat":51.13333,"pop":0},{"id":2760107,"name":"Aan Reijans","lon":5.92917,"lat":51.04917,"pop":0},{"id":2760106,"name":"Aanschot","lon":5.47188,"lat":51.49191,"pop":0},{"id":2760103,"name":"Aanwas","alt":["Annwas"],"lon":4.31501,"lat":51.39195,"pop":0},{"id":2760101,"name":"Aardam","lon":4.76667,"lat":52.16667,"pop":0},{"id":2760096,"name":"Aardenburg","alt":["Aarntenmpournk","Erreburg","ardnbrg","Άαρντενμπουργκ","آردنبرگ","آرڈنبرگ"],"lon":3.44722,"lat":51.27333,"pop":2005},{"id":2760092,"name":"Aarlanderveen","lon":4.72778,"lat":52.14083,"pop":0},{"id":2760089,"name":"Aarle","lon":5.63221,"lat":51.5096,"pop":0},{"id":2760090,"name":"Aarle","lon":5.3625,"lat":51.5125,"pop":0},{"id":6698718,"name":"Aarle-Rixtel","alt":["arl-rykstl","آرل-ریکستل","آرلے ریکسٹل"],"lon":5.63839,"lat":51.50976,"pop":5125},{"id":2760085,"name":"Aartswoud","alt":["Aardswoud","Aartwoud"],"lon":4.94861,"lat":52.74333,"pop":490},{"id":2760083,"name":"Aasterberg","lon":5.84167,"lat":51.10167,"pop":35},{"id":2760080,"name":"Abbega","lon":5.57024,"lat":53.01829,"pop":110},{"id":2760079,"name":"Abbegaasterketting","lon":5.56299,"lat":53.0241,"pop":0},{"id":2760078,"name":"Abbekerk","lon":5.01806,"lat":52.73167,"pop":2110},{"id":2760076,"name":"Abbekinderen","lon":3.91944,"lat":51.48167,"pop":0},{"id":2760075,"name":"Abbenbroek","lon":4.24306,"lat":51.84833,"pop":0},{"id":2760073,"name":"Abbenes","lon":4.59167,"lat":52.235,"pop":855},{"id":2760072,"name":"Abbenwier","alt":["Abbengawier","Abbeweer","Abbingawier"],"lon":5.79031,"lat":53.0636,"pop":0},{"id":2760071,"name":"Abbestede","lon":4.71667,"lat":52.85083,"pop":0},{"id":2760069,"name":"Abbewier","alt":["Jewier"],"lon":6.15,"lat":53.38333,"pop":0},{"id":2760067,"name":"Abcoude","alt":["Abkoude","a bu kao de","abkad","abkawdh","أبكاوده","ابکاد","阿布考德"],"lon":4.96944,"lat":52.2725,"pop":6920},{"id":2760064,"name":"Abcoven","lon":5.08333,"lat":51.5275,"pop":1325},{"id":2760063,"name":"Abdissenbosch","lon":6.03333,"lat":50.91667,"pop":1420},{"id":2760060,"name":"Absdale","alt":["Abtsdale"],"lon":4.00417,"lat":51.2675,"pop":145},{"id":2760058,"name":"Abshoven","lon":5.85139,"lat":50.96917,"pop":0},{"id":2760055,"name":"Abtswoude","alt":["Abswoude"],"lon":4.35556,"lat":51.97917,"pop":25},{"id":2760053,"name":"Achlum","lon":5.48346,"lat":53.14925,"pop":525},{"id":2760050,"name":"Acht","lon":5.42917,"lat":51.48,"pop":0},{"id":2760041,"name":"Achter de Vree","lon":5.95,"lat":52.43333,"pop":0},{"id":2760028,"name":"Achter het Klooster","lon":5.87917,"lat":51.2575,"pop":0},{"id":2760019,"name":"Achter-Lindt","lon":4.58194,"lat":51.81917,"pop":0},{"id":2759998,"name":"Achter-Thesinge","lon":6.65694,"lat":53.28167,"pop":0},{"id":2760049,"name":"Achterberg","lon":5.5875,"lat":51.9725,"pop":750},{"id":2760047,"name":"Achterbos","alt":["Achterbosch"],"lon":4.92639,"lat":52.225,"pop":0},{"id":2760045,"name":"Achterbosch","lon":5.57222,"lat":51.51083,"pop":0},{"id":2760046,"name":"Achterbosch","lon":5.77778,"lat":51.40917,"pop":0},{"id":2760043,"name":"Achterbroek","alt":["Terbroek"],"lon":4.69861,"lat":51.9675,"pop":280},{"id":2760044,"name":"Achterbroek","lon":5.68611,"lat":51.42917,"pop":0},{"id":2760037,"name":"Achterdijk","lon":5.03889,"lat":51.89167,"pop":200},{"id":2760038,"name":"Achterdijk","lon":4.61944,"lat":51.65667,"pop":0},{"id":2760035,"name":"Achterdrempt","lon":6.18333,"lat":52.02333,"pop":325},{"id":2760033,"name":"Achtereind","lon":5.49028,"lat":51.3825,"pop":0},{"id":2760024,"name":"Achterhoek","lon":6.48611,"lat":52.24833,"pop":0},{"id":2760025,"name":"Achterhoek","lon":5.40833,"lat":52.21917,"pop":0},{"id":2760018,"name":"Achterlo","lon":5.71767,"lat":51.81703,"pop":0},{"id":2760016,"name":"Achterom","lon":6.51667,"lat":52.73333,"pop":0},{"id":2760014,"name":"Achtersloot","lon":5.02277,"lat":52.03523,"pop":0},{"id":2760013,"name":"Achterste Brug","lon":5.42917,"lat":51.28,"pop":0},{"id":2760011,"name":"Achterste Diesdonk","lon":5.7125,"lat":51.42917,"pop":0},{"id":2760010,"name":"Achterste Erm","lon":6.825,"lat":52.74333,"pop":70},{"id":2760009,"name":"Achterste Heide","lon":5.57917,"lat":51.75917,"pop":0},{"id":2760008,"name":"Achterste Heikant","lon":5.14028,"lat":51.34833,"pop":0},{"id":2760007,"name":"Achterste Hermalen","lon":5.40417,"lat":51.60417,"pop":0},{"id":2760002,"name":"Achterste Rith","lon":4.71389,"lat":51.555,"pop":0},{"id":2760006,"name":"Achterstehoek","lon":6.01667,"lat":51.95,"pop":0},{"id":2759995,"name":"Achterveld","lon":5.49722,"lat":52.13583,"pop":0},{"id":11395893,"name":"Achterveld (Barneveld)","alt":["Achterveld"],"lon":5.5208,"lat":52.13915,"pop":0},{"id":2759992,"name":"Achterwetering","lon":5.15278,"lat":52.15167,"pop":70},{"id":2759985,"name":"Achthoven","lon":4.55696,"lat":52.13582,"pop":0},{"id":2759986,"name":"Achthoven","lon":4.99028,"lat":52.05667,"pop":0},{"id":2759987,"name":"Achthoven","lon":4.99306,"lat":51.96833,"pop":220},{"id":2759983,"name":"Achthuizen","lon":4.27917,"lat":51.68833,"pop":0},{"id":2759981,"name":"Achtmaal","lon":4.58472,"lat":51.45417,"pop":635},{"id":2759980,"name":"Achtsehoek","lon":5.4,"lat":51.46667,"pop":0},{"id":2759977,"name":"Achttienhoven","alt":["Maarssen"],"lon":5.13889,"lat":52.14833,"pop":0},{"id":2759978,"name":"Achttienhoven","lon":4.85694,"lat":52.14667,"pop":130},{"id":2759975,"name":"Acquoy","alt":["Ackooi","Ackooy","Acquoij","Akkooi"],"lon":5.13611,"lat":51.87917,"pop":365},{"id":2759971,"name":"Adegeest","lon":4.45249,"lat":52.13621,"pop":2610},{"id":2759967,"name":"Adorp","lon":6.53333,"lat":53.275,"pop":515},{"id":2759961,"name":"Aduard","alt":["Adeward","Adewardervoorwerk"],"lon":6.45972,"lat":53.25667,"pop":2030},{"id":2759958,"name":"Aduardervoorwerk","lon":6.47461,"lat":53.26139,"pop":0},{"id":2759957,"name":"Aduarderzijl","lon":6.46806,"lat":53.31833,"pop":0},{"id":2759954,"name":"Aekinga","alt":["Aekinge"],"lon":6.32628,"lat":52.95195,"pop":0},{"id":12489843,"name":"Aengwirden","lon":5.9167,"lat":53,"pop":0},{"id":6544770,"name":"Aerdenburg","lon":6.075,"lat":51.895,"pop":0},{"id":2759951,"name":"Aerdenhout","alt":["Aardenhout"],"lon":4.59722,"lat":52.36167,"pop":0},{"id":2759950,"name":"Aerdt","alt":["Aard","Aardt"],"lon":6.08472,"lat":51.89417,"pop":540},{"id":2759945,"name":"Afferden","lon":5.63472,"lat":51.88,"pop":1405},{"id":2759946,"name":"Afferden","alt":["Afferden L"],"lon":6.01111,"lat":51.63417,"pop":0},{"id":2759941,"name":"Afhang","lon":6.05,"lat":51.45,"pop":0},{"id":2759940,"name":"Afsched","lon":6.01667,"lat":52.6,"pop":0},{"id":2759933,"name":"Agodorp","lon":7.08333,"lat":52.87167,"pop":0},{"id":7626528,"name":"agz installatietechniek","lon":4.81981,"lat":52.64555,"pop":0},{"id":2759932,"name":"Aijen","alt":["Aaien","Aaijen","Aijn","Ayen"],"lon":6.04167,"lat":51.58417,"pop":0},{"id":2759931,"name":"Akersloot","lon":4.73333,"lat":52.56083,"pop":0},{"id":2759929,"name":"Akert","lon":5.5596,"lat":51.41407,"pop":2000},{"id":2759927,"name":"Akker","lon":4.38472,"lat":51.50917,"pop":0},{"id":2759925,"name":"Akkerput","lon":3.46528,"lat":51.35,"pop":0},{"id":2759924,"name":"Akkerwoude","alt":["Ikkerwald","Ikkerwâld"],"lon":5.98333,"lat":53.28333,"pop":0},{"id":2759922,"name":"Akkrum","alt":["Ankrum","akram","اکرام"],"lon":5.83087,"lat":53.05024,"pop":3440},{"id":2759921,"name":"Akmarijp","alt":["Eagmaryp"],"lon":5.78894,"lat":53.00332,"pop":115},{"id":2759919,"name":"Albergen","lon":6.7625,"lat":52.37083,"pop":0},{"id":2759915,"name":"Alblasserdam","alt":["Alblaserdam","a er bu la se dan","alblasrdam","Алблассердам","Ալբլասերդամ","ألبلاسردام","البلاسردام","阿尔布拉瑟丹"],"lon":4.66111,"lat":51.86583,"pop":18348},{"id":2749074,"name":"Alde Leie","alt":["De Leije","Leie","Leije","Oude Leie","Oude Leije","Oude Leye"],"lon":5.72748,"lat":53.28882,"pop":0},{"id":2749669,"name":"Aldeboarn","alt":["Oldeboorn"],"lon":5.9,"lat":53.05,"pop":1525},{"id":6946241,"name":"Aldlân-Oost","lon":5.82825,"lat":53.1886,"pop":3850},{"id":2759909,"name":"Aldlan-West","lon":5.81052,"lat":53.18588,"pop":0},{"id":2749006,"name":"Aldskou","alt":["Oude Schouw"],"lon":5.80894,"lat":53.06603,"pop":0},{"id":2748941,"name":"Aldtsjerk","alt":["Oudkerk"],"lon":5.88704,"lat":53.26637,"pop":520},{"id":2759906,"name":"Alem","lon":5.34306,"lat":51.78667,"pop":550},{"id":2759905,"name":"Alendorp","lon":5.03472,"lat":52.0925,"pop":0},{"id":2759902,"name":"Alinghuizen","lon":6.50139,"lat":53.3125,"pop":0},{"id":2759899,"name":"Alkmaar","alt":["Alkmaer","Alkmar","Alkmaras","a er ke ma er","alkeumaleu","alkmar","arukumaru","Άλκμααρ","Алкмаар","Алкмар","Ալկմար","אלקמאר","آلکمار","ألكمار","ئەڵکمار","アルクマール","阿尔克马尔","알크마르"],"lon":4.74861,"lat":52.63167,"pop":94853},{"id":2759896,"name":"Allardsoog","alt":["Allartsoog","Allerdsoog"],"lon":6.29208,"lat":53.09454,"pop":0},{"id":2759892,"name":"Allersma","lon":6.45417,"lat":53.31833,"pop":0},{"id":2759891,"name":"Allingawier","alt":["Allingaweer"],"lon":5.44484,"lat":53.0472,"pop":70},{"id":2759887,"name":"Almelo","alt":["Almeloo","QYL","Алмело"],"lon":6.6625,"lat":52.35667,"pop":72725},{"id":2759884,"name":"Almen","lon":6.3,"lat":52.15833,"pop":710},{"id":2759883,"name":"Almenum","lon":5.43333,"lat":53.18333,"pop":0},{"id":2759881,"name":"Almere Buiten","lon":5.27639,"lat":52.395,"pop":0},{"id":2759880,"name":"Almere Haven","lon":5.21919,"lat":52.33576,"pop":0},{"id":9072713,"name":"Almere Poort","lon":5.1543,"lat":52.34819,"pop":0},{"id":2759879,"name":"Almere Stad","alt":["Almere"],"lon":5.21413,"lat":52.37025,"pop":176432},{"id":2759878,"name":"Almkerk","alt":["almkrk","المکرک"],"lon":4.95972,"lat":51.77083,"pop":2715},{"id":2759876,"name":"Alphen","alt":["Alfen","Alphen aan de Maas"],"lon":5.47083,"lat":51.8225,"pop":0},{"id":2759877,"name":"Alphen","alt":["Alfen","alfn  shmal brabant","الفن، شمال برابانت"],"lon":4.95833,"lat":51.48167,"pop":3160},{"id":2759875,"name":"Alphen aan den Rijn","alt":["Alfen","Alphen","Alphen a/d Rijn","Alphen aan de Rijn","Alphen aan der Rijn"],"lon":4.65546,"lat":52.12917,"pop":70251},{"id":2759871,"name":"Alphen-Oosterwijk","lon":4.975,"lat":51.50083,"pop":0},{"id":2759865,"name":"Altena","lon":6.47778,"lat":53.1325,"pop":305},{"id":2759860,"name":"Alteveer","lon":5.90864,"lat":52.004,"pop":0},{"id":2759861,"name":"Alteveer","lon":6.43472,"lat":53.11167,"pop":0},{"id":2759862,"name":"Alteveer","lon":6.99444,"lat":53.05083,"pop":915},{"id":2759863,"name":"Alteveer","lon":6.48611,"lat":52.675,"pop":565},{"id":11746705,"name":"Alteveer gem Hoogeveen","lon":6.5018,"lat":52.68346,"pop":0},{"id":2759858,"name":"Altforst","lon":5.56528,"lat":51.84917,"pop":0},{"id":2759857,"name":"Alting","lon":6.53889,"lat":52.86583,"pop":0},{"id":2759855,"name":"Altweert","lon":5.68697,"lat":51.24048,"pop":0},{"id":2759854,"name":"Altweerterheide","lon":5.67917,"lat":51.22083,"pop":595},{"id":2759853,"name":"Alverna","lon":5.75972,"lat":51.80417,"pop":1595},{"id":2759852,"name":"Alvershool","lon":5.56528,"lat":51.48333,"pop":0},{"id":11395895,"name":"Ambt Delden","lon":6.63969,"lat":52.27015,"pop":0},{"id":2759850,"name":"Amby","alt":["Ambij","Amie","amby","امبی"],"lon":5.73226,"lat":50.86215,"pop":6535},{"id":2759849,"name":"Ameide","lon":4.9625,"lat":51.955,"pop":3500},{"id":2759838,"name":"Amen","lon":6.61111,"lat":52.9425,"pop":80},{"id":2759831,"name":"America","alt":["Amerika"],"lon":5.97917,"lat":51.43667,"pop":1175},{"id":2759830,"name":"Amerika","lon":6.37083,"lat":53.09167,"pop":0},{"id":2759828,"name":"Amerongen","alt":["Ameron'chen","amrangn","Αμερόνχεν","امرانگن"],"lon":5.45972,"lat":52.0025,"pop":5085},{"id":2759821,"name":"Amersfoort","alt":["Amersfort","Amersforto","QYM","Амерсфорт"],"lon":5.3875,"lat":52.155,"pop":139914},{"id":2759816,"name":"Ammerssluis","lon":4.81667,"lat":51.91667,"pop":0},{"id":2759815,"name":"Ammerstol","lon":4.80833,"lat":51.9275,"pop":1580},{"id":2759813,"name":"Ammerzoden","lon":5.22083,"lat":51.74917,"pop":3040},{"id":2759811,"name":"Ampsen","alt":["Amsen"],"lon":6.42917,"lat":52.17,"pop":0},{"id":2759805,"name":"Amsteleind","lon":5.5,"lat":51.76667,"pop":780},{"id":2759804,"name":"Amstelhoek","lon":4.83333,"lat":52.23083,"pop":0},{"id":2759798,"name":"Amstelveen","alt":["Amstelven","Amstelveyn","Amstelvin","Nieuwer Amstel","a mu si te er fen","amseutelbein","amusuterufen","Амстелвен","Амстелвин","Ամստելվեյն","אמסטלפיין","آمستل‌فین","アムステルフェーン","阿姆斯特尔芬","암스텔베인"],"lon":4.86389,"lat":52.30083,"pop":79639},{"id":2759796,"name":"Amstenrade","lon":5.92361,"lat":50.93917,"pop":1740},{"id":2759794,"name":"Amsterdam","alt":["AMS","Aemstelredamme","Aemsterdam","Amestelledamme","Amesterda","Amesterdam","Amesterdao","Amesterdã","Amesterdão","Amistardam","Amseutereudam","Amstadem","Amstardam","Amstardām","Amstedam","Amstehrdam","Amsteladamum","Amstelodamum","Amstelodhamon","Amstelodhámon","Amsterda","Amsterdama","Amsterdamas","Amsterdame","Amsterdami","Amsterdamo","Amsterdams","Amsterdamu","Amsterdan","Amsterdã","Amsterntam","Amsterodam","Amstyerdam","Amstèdam","Amstèrdame","Amstérdam","Amstɛrɩdam","Amsut'erudam","Amszterdam","Amsŭt'erŭdam","Amusitedan","Amusuterudamu","Damsko","I-Amsterdami","Mokum","Mokum Aleph","a mu si te dan","aimstardaima","amasataradama","amastaradama","amastararyama","amseuteleudam","amstardama","amstartam","amstrdam","amusuterudamu","anstardyam","emstaradyama","xamstexrdam","yەmstەrdam","Àmsterdam","Ámsterdam","Ámsterdan","Âmesterdâm","Āmǔsītèdān","Άμστερνταμ","Амстердам","Амстэрдам","Ամստերդամ","אמסטערדאם","אמסטרדם","آمستردام","أمستردام","ئامستېردام","ئەمستەردام","امستردام","امسټرډام","ایمسٹرڈیم","ܐܡܣܛܪܕܐܡ","अ‍ॅम्स्टरडॅम","आम्स्टर्डम","एम्स्तरद्याम","ऐम्स्टर्डैम","আমস্টারডাম","ਅਮਸਤਰਦਮ","ଆମଷ୍ଟରଡ଼୍ୟାମ","ஆம்ஸ்டர்டம்","ಆಂಸ್ಟರ್ಡ್ಯಾಮ್","ആംസ്റ്റർഡാം","ඈම්ස්ටර්ඩෑම්","อัมสเตอร์ดัม","ཨེམ་སི་ཊར་ཌམ།","အမ်စတာဒမ်မြို့","ამსტერდამი","አምስተርዳም","アムステルダム","阿姆斯特丹","암스테르담"],"lon":4.88969,"lat":52.37403,"pop":741636},{"id":11746796,"name":"Amsterdam-Duivendrecht","lon":4.92569,"lat":52.31926,"pop":0},{"id":6544881,"name":"Amsterdam-Zuidoost","lon":4.97222,"lat":52.3075,"pop":84811},{"id":2759787,"name":"Amsterdamscheveld","alt":["Amsterdamsche Veld I","Amsterdamseveld"],"lon":6.91528,"lat":52.68833,"pop":190},{"id":2759783,"name":"Amsweer","lon":6.90278,"lat":53.30833,"pop":0},{"id":2750453,"name":"Andel","lon":5.05833,"lat":51.78333,"pop":2535},{"id":2759781,"name":"Andelst","lon":5.72917,"lat":51.90833,"pop":2990},{"id":2759778,"name":"Anderen","lon":6.68611,"lat":53,"pop":245},{"id":2759774,"name":"Andijk","alt":["Andijk Oost"],"lon":5.22222,"lat":52.74667,"pop":0},{"id":2759775,"name":"Andijk","alt":["Andejk","Andijk Oost","Andijk West","Andik","Andoik","Andyk","Андейк"],"lon":5.20821,"lat":52.74315,"pop":0},{"id":2759772,"name":"Ane","lon":6.65139,"lat":52.61417,"pop":0},{"id":2759771,"name":"Anerveen","lon":6.65694,"lat":52.63167,"pop":0},{"id":2759770,"name":"Anevelde","lon":6.65278,"lat":52.5975,"pop":0},{"id":2759766,"name":"Angelslo","alt":["Angelsloo"],"lon":6.92645,"lat":52.7809,"pop":7840},{"id":2759765,"name":"Angeren","lon":5.95833,"lat":51.91583,"pop":2275},{"id":2759764,"name":"Angerlo","lon":6.13472,"lat":51.99583,"pop":1130},{"id":2759760,"name":"Anholt","lon":6.41667,"lat":52.77333,"pop":0},{"id":2759757,"name":"Anjum","alt":["Eanjum"],"lon":6.12698,"lat":53.37475,"pop":880},{"id":2759751,"name":"Ankeveen","lon":5.09861,"lat":52.265,"pop":255},{"id":2759749,"name":"Ankeveense Rade","lon":5.1016,"lat":52.25891,"pop":1110},{"id":2759748,"name":"Anklaar","lon":5.98497,"lat":52.23111,"pop":3865},{"id":2759747,"name":"Ankum","lon":6.24167,"lat":52.52167,"pop":0},{"id":2759746,"name":"Anloo","alt":["Anlo"],"lon":6.70139,"lat":53.04417,"pop":325},{"id":2759740,"name":"Anna Jacobapolder","alt":["Anna Jacoba"],"lon":4.12917,"lat":51.63917,"pop":230},{"id":2759737,"name":"Anna Paulowna","alt":["Anna Paulowne"],"lon":4.83611,"lat":52.86083,"pop":0},{"id":2759730,"name":"Anneburen","lon":5.62187,"lat":53.06551,"pop":0},{"id":2759729,"name":"Annen","lon":6.71944,"lat":53.0575,"pop":3405},{"id":2759728,"name":"Annendaal","lon":6.02778,"lat":51.10833,"pop":0},{"id":2759724,"name":"Annerveenschekanaal","alt":["Annerveensch Kanaal"],"lon":6.80139,"lat":53.0775,"pop":415},{"id":2759721,"name":"Anneville","lon":4.81806,"lat":51.54333,"pop":0},{"id":2759719,"name":"Anreep","lon":6.58333,"lat":52.97583,"pop":0},{"id":2759716,"name":"Ansen","lon":6.33611,"lat":52.78083,"pop":250},{"id":2759706,"name":"Apeldoorn","alt":["Apeldoarn","Apeldoorne","Apeldorn","Apeldornas","QYP","a po er duo lun","abldwrn","apeldoleun","aperudorun","apldwrn","epeladorna","xa phel dorn","Апелдорн","Ապելդորն","آبلدورن","آپلدورن","ایپلڈوم","एपेलडॉर्न","อาเพลโดร์น","აპელდორნი","アペルドールン","阿珀尔多伦","아펠도른"],"lon":5.96944,"lat":52.21,"pop":136670},{"id":2759702,"name":"Apenhuizen","lon":6.3,"lat":52.25667,"pop":0},{"id":2759701,"name":"Aperloo","lon":5.86111,"lat":52.42583,"pop":0},{"id":2759700,"name":"Appel","lon":5.54028,"lat":52.1875,"pop":675},{"id":2759698,"name":"Appelscha","alt":["Appelsche","Appelsga","Appelskea","Nieuw Appelsga"],"lon":6.35053,"lat":52.95526,"pop":4035},{"id":2759693,"name":"Appeltern","lon":5.58611,"lat":51.8325,"pop":0},{"id":2759689,"name":"Appen","lon":6.12917,"lat":52.18167,"pop":0},{"id":2759687,"name":"Appingedam","lon":6.85833,"lat":53.32167,"pop":12364},{"id":2759684,"name":"Arcen","alt":["Arse","Arsen","Árse"],"lon":6.18056,"lat":51.47667,"pop":8793},{"id":2759681,"name":"Archem","lon":6.44028,"lat":52.47583,"pop":0},{"id":11525089,"name":"Archipelbuurt","lon":4.30271,"lat":52.09184,"pop":0},{"id":2759677,"name":"Arendnest","lon":5.69583,"lat":51.595,"pop":0},{"id":2759676,"name":"Arensgenhout","lon":5.84028,"lat":50.88833,"pop":510},{"id":2759673,"name":"Arkel","lon":4.99444,"lat":51.86417,"pop":2980},{"id":2759670,"name":"Arkens","alt":["Erkens"],"lon":5.55179,"lat":53.19333,"pop":0},{"id":2759668,"name":"Arkum","lon":5.49986,"lat":53.02973,"pop":0},{"id":2759667,"name":"Armhoede","lon":6.44583,"lat":52.175,"pop":0},{"id":2759666,"name":"Armweide","alt":["Armwei"],"lon":6.32083,"lat":52.76917,"pop":0},{"id":2759664,"name":"Arnemuiden","alt":["Erremu","a ne mo yi deng","阿訥默伊登"],"lon":3.675,"lat":51.50167,"pop":5075},{"id":2759661,"name":"Arnhem","alt":["Arecanum","Arnem","Arnema","Arnheim","Arnhemas","Arnhemia","Arnhim","Arném","Gemeen Arnem","ZYM","a na mu","aleunheom","anemu","arnahema","arnemi","arnhm","arnm","Άρνεμ","Арнем","Արնհեմ","ארנהם","آرنم","آرنهم","آرنہم","आर्नहेम","არნემი","アーネム","阿纳姆","아른험"],"lon":5.91111,"lat":51.98,"pop":141674},{"id":2759656,"name":"Arnoud","lon":4.57083,"lat":52.27833,"pop":0},{"id":2759655,"name":"Arriën","alt":["Arien","Ariën"],"lon":6.44861,"lat":52.52583,"pop":0},{"id":2759653,"name":"Arriërveld","lon":6.43472,"lat":52.56417,"pop":0},{"id":2759652,"name":"Arum","lon":5.47643,"lat":53.12952,"pop":895},{"id":2759648,"name":"Arwerd","lon":6.83611,"lat":53.3525,"pop":0},{"id":2759647,"name":"Asbroek","lon":5.90972,"lat":51.2825,"pop":0},{"id":2759645,"name":"Asch","lon":5.31111,"lat":51.93083,"pop":300},{"id":2759644,"name":"Asenray","alt":["Asenraij","Assenraai","Azenraai","Azenray"],"lon":6.04861,"lat":51.19333,"pop":755},{"id":2759643,"name":"Asperen","alt":["ボブ・ファン・アスペレン"],"lon":5.10972,"lat":51.88167,"pop":0},{"id":2759641,"name":"Aspert","alt":["De Aspert"],"lon":5.63333,"lat":51.84417,"pop":0},{"id":2759640,"name":"Asschat","alt":["Aschat","Asschot"],"lon":5.45169,"lat":52.13135,"pop":0},{"id":2759638,"name":"Assel","lon":5.83889,"lat":52.2,"pop":0},{"id":2759635,"name":"Asselt","lon":6.0125,"lat":51.22583,"pop":180},{"id":2759633,"name":"Assen","alt":["Asen","Asenas","Asningseli","Asningsėli","Asse","a sen","aseon","asn","assen","xas sein","Άσσεν","Асен","Ассен","Ասսեն","آسن","أسن","อาสเซิน","アッセン","阿森","아선"],"lon":6.5625,"lat":52.99667,"pop":62237},{"id":2759631,"name":"Assendelft","lon":4.74306,"lat":52.46833,"pop":24230},{"id":2759629,"name":"Assendorp","lon":6.10359,"lat":52.5044,"pop":0},{"id":2759630,"name":"Assendorp","lon":6.06667,"lat":52.4,"pop":0},{"id":2759626,"name":"Assinkshoek","lon":6.74665,"lat":52.37974,"pop":0},{"id":2759625,"name":"Assum","lon":4.69861,"lat":52.51417,"pop":0},{"id":2759621,"name":"Asten","alt":["Aste"],"lon":5.74861,"lat":51.40417,"pop":9535},{"id":2759617,"name":"Attelaken","lon":4.66447,"lat":51.58419,"pop":335},{"id":2759615,"name":"Atzeburen","lon":5.49762,"lat":53.00996,"pop":0},{"id":2759614,"name":"Augsbuurt-Lutjewoude","alt":["Augsbuur","Augsbuurt","Augstbuurt","Lutjewoude","Lytsewald","Lytsewâld"],"lon":6.16088,"lat":53.2665,"pop":0},{"id":2759611,"name":"Augustinusga","alt":["Stynsgea"],"lon":6.1617,"lat":53.21785,"pop":1075},{"id":2759610,"name":"Austerlitz","lon":5.31528,"lat":52.08,"pop":1440},{"id":2759602,"name":"Avelingen","lon":4.96667,"lat":51.83333,"pop":0},{"id":2759601,"name":"Avenhorn","lon":4.95139,"lat":52.6175,"pop":2945},{"id":2759597,"name":"Averlo","alt":["Averloo"],"lon":6.21528,"lat":52.3,"pop":0},{"id":2759595,"name":"Avest","lon":6.59861,"lat":52.06167,"pop":0},{"id":2759594,"name":"Axel","alt":["Aksel"],"lon":3.90833,"lat":51.26667,"pop":8149},{"id":2759592,"name":"Axelsche Sassing","alt":["Axels Sassing","Sassing"],"lon":3.875,"lat":51.27,"pop":0},{"id":2759590,"name":"Axwijk","alt":["Akswijk"],"lon":5.01346,"lat":52.53116,"pop":0},{"id":2759586,"name":"Azelo","alt":["Aselo","Azeloo"],"lon":6.71389,"lat":52.29874,"pop":170},{"id":2759585,"name":"Azewijn","alt":["Groot Azewijn"],"lon":6.30556,"lat":51.88667,"pop":490},{"id":2759584,"name":"Baai","lon":4.64533,"lat":51.5808,"pop":0},{"id":2759583,"name":"Baaiduinen","alt":["Baaidunen"],"lon":5.27696,"lat":53.3778,"pop":0},{"id":2759581,"name":"Baak","lon":6.22778,"lat":52.0775,"pop":575},{"id":2759580,"name":"Baakhoven","lon":5.82639,"lat":51.06833,"pop":30},{"id":6544801,"name":"Baaks","lon":5.99306,"lat":50.83917,"pop":0},{"id":6544755,"name":"Baakwoning","lon":4.18889,"lat":52.005,"pop":0},{"id":2759576,"name":"Baal","lon":5.91944,"lat":51.89833,"pop":0},{"id":2759575,"name":"Baalder","lon":6.65299,"lat":52.58579,"pop":3470},{"id":2759574,"name":"Baalhoek","lon":4.08611,"lat":51.3625,"pop":0},{"id":2759572,"name":"Baambrugge","lon":4.98889,"lat":52.24583,"pop":1010},{"id":2759570,"name":"Baambrugse Zuwe","lon":4.95139,"lat":52.22917,"pop":460},{"id":2759569,"name":"Baamsum","lon":7.04167,"lat":53.28417,"pop":0},{"id":2759568,"name":"Baanhoek","lon":4.74306,"lat":51.82417,"pop":0},{"id":2759567,"name":"Baard","lon":5.6683,"lat":53.14185,"pop":185},{"id":2759566,"name":"Baardburen","lon":5.78333,"lat":53.13333,"pop":0},{"id":8520818,"name":"Baarderadeel","lon":5.88333,"lat":53.11667,"pop":0},{"id":2759564,"name":"Baarderburen","lon":5.48634,"lat":53.12744,"pop":0},{"id":2759563,"name":"Baardwijk","lon":5.09628,"lat":51.69246,"pop":2165},{"id":2759562,"name":"Baarland","lon":3.88472,"lat":51.40833,"pop":0},{"id":2759554,"name":"Baarle-Nassau","alt":["バールレ・ナッサウ"],"lon":4.92917,"lat":51.4475,"pop":2585},{"id":2759552,"name":"Baarle-Nassau-grens","lon":4.93472,"lat":51.40167,"pop":0},{"id":2759547,"name":"Baarlo","alt":["Baarloo","Kuinderdijk en Baarlo","Kuinderdijk en Baarloo"],"lon":5.95,"lat":52.73833,"pop":0},{"id":2759548,"name":"Baarlo","alt":["Baarloo"],"lon":6.10694,"lat":52.66333,"pop":0},{"id":2759549,"name":"Baarlo","alt":["Baarloo","Baolder"],"lon":6.09444,"lat":51.33083,"pop":5215},{"id":2759545,"name":"Baarloseweg","lon":6.01667,"lat":51.33333,"pop":0},{"id":2759544,"name":"Baarn","alt":["Baan","Barn","baleun","barn","barun","Баан","Барн","Բարն","بارن","バールン","바른"],"lon":5.2875,"lat":52.21167,"pop":24584},{"id":2759541,"name":"Baars","lon":6.09167,"lat":52.81333,"pop":0},{"id":2759538,"name":"Baarschot","lon":4.84583,"lat":51.595,"pop":0},{"id":2759539,"name":"Baarschot","lon":5.18611,"lat":51.45833,"pop":220},{"id":2759540,"name":"Baarschot","lon":5.76667,"lat":51.43333,"pop":0},{"id":2759537,"name":"Baarsdorp","lon":3.8375,"lat":51.4825,"pop":0},{"id":2759536,"name":"Baarsdorpermeer","lon":4.99722,"lat":52.66917,"pop":0},{"id":2759534,"name":"Baarstraat","lon":5.85139,"lat":51.17167,"pop":0},{"id":2759529,"name":"Babberich","lon":6.11111,"lat":51.9075,"pop":1445},{"id":2759527,"name":"Baburen","lon":5.49952,"lat":53.04462,"pop":0},{"id":2759526,"name":"Babyloniënbroek","alt":["Babilonienbroek","Babiloniënbroek"],"lon":5.02222,"lat":51.74333,"pop":422},{"id":2750250,"name":"Bad Nieuweschans","alt":["Langakker","Nieuweschans","Nijeskans","Nijeskâns"],"lon":7.20833,"lat":53.18083,"pop":0},{"id":2759524,"name":"Badhoevedorp","lon":4.78523,"lat":52.33723,"pop":0},{"id":2759522,"name":"Baexem","alt":["Baaksem"],"lon":5.88056,"lat":51.22667,"pop":0},{"id":2759520,"name":"Baflo","lon":6.51389,"lat":53.3625,"pop":1730},{"id":2759516,"name":"Baggel Huizen","lon":6.55,"lat":52.98333,"pop":0},{"id":2759515,"name":"Bagven","alt":["Bagben"],"lon":4.72029,"lat":51.57947,"pop":0},{"id":2759514,"name":"Bahr","alt":["Baar"],"lon":6.04583,"lat":51.98417,"pop":0},{"id":2759513,"name":"Baijum","alt":["Baaijum","Baaium","Baium","Bajum"],"lon":5.63272,"lat":53.16463,"pop":0},{"id":2759511,"name":"Bakel","lon":5.74028,"lat":51.50333,"pop":4140},{"id":2759507,"name":"Bakelsebrug","lon":5.71667,"lat":51.49333,"pop":0},{"id":2759506,"name":"Baken","lon":3.83333,"lat":51.73333,"pop":0},{"id":2759505,"name":"Bakenberg","lon":5.8771,"lat":52.00511,"pop":1025},{"id":2759504,"name":"Bakendorp","lon":3.90556,"lat":51.40833,"pop":0},{"id":2759502,"name":"Bakermark","lon":6.23564,"lat":52.06409,"pop":0},{"id":2759501,"name":"Bakertand","lon":5.07917,"lat":51.53333,"pop":0},{"id":2759498,"name":"Bakheide","lon":6.042,"lat":51.2572,"pop":0},{"id":2759497,"name":"Bakhuisbos","lon":6.00833,"lat":52.39083,"pop":0},{"id":2759496,"name":"Bakhuizen","lon":5.45926,"lat":52.86975,"pop":1060},{"id":2759494,"name":"Bakkerom","lon":6.325,"lat":53.19917,"pop":0},{"id":2759492,"name":"Bakkersdam","lon":3.49167,"lat":51.30333,"pop":0},{"id":2759486,"name":"Bakkeveen","alt":["Bakkefean"],"lon":6.25671,"lat":53.08072,"pop":1450},{"id":2759483,"name":"Bakkum","alt":["Zuidbakkum"],"lon":4.65717,"lat":52.55945,"pop":0},{"id":2759480,"name":"Balgoy","alt":["Balgoij"],"lon":5.71389,"lat":51.78,"pop":0},{"id":2759476,"name":"Balhofstede","lon":3.61667,"lat":51.30667,"pop":0},{"id":2759475,"name":"Balinge","lon":6.62917,"lat":52.81083,"pop":90},{"id":2759472,"name":"Balk","lon":5.57964,"lat":52.89756,"pop":3915},{"id":2759470,"name":"Balkbrug","lon":6.39444,"lat":52.59917,"pop":0},{"id":2759467,"name":"Ballast","lon":6.73299,"lat":52.67218,"pop":1710},{"id":2759462,"name":"Balleman","lon":4.7625,"lat":51.51,"pop":0},{"id":2759461,"name":"Ballingbuur","alt":["Ballingboer","Ballingbuer"],"lon":5.76667,"lat":53,"pop":0},{"id":2759458,"name":"Balloo","alt":["Ballo"],"lon":6.63056,"lat":52.99583,"pop":0},{"id":2759456,"name":"Ballum","lon":5.68714,"lat":53.44339,"pop":360},{"id":2759452,"name":"Balmahuizen","lon":6.36944,"lat":53.27167,"pop":0},{"id":2759447,"name":"Bandsloot","alt":["Bansleat","Bânsleat"],"lon":5.81649,"lat":52.84402,"pop":0},{"id":2759446,"name":"Baneheide","lon":5.97639,"lat":50.81833,"pop":135},{"id":2759444,"name":"Bangert","alt":["Bangerd","De Bangert"],"lon":5.1801,"lat":52.73582,"pop":1470},{"id":2759441,"name":"Banholt","lon":5.80833,"lat":50.79,"pop":1005},{"id":2759438,"name":"Bankert","lon":5.79444,"lat":51.49583,"pop":0},{"id":2759434,"name":"Bant","lon":5.75,"lat":52.76833,"pop":0},{"id":2759431,"name":"Bantega","lon":5.79597,"lat":52.84218,"pop":635},{"id":2759429,"name":"Barchem","lon":6.44306,"lat":52.12417,"pop":910},{"id":2759426,"name":"Barendrecht","alt":["Barendrekht","Barendrext","ba lun de lei he te","baryndrykht","Барендрехт","Բարենդրեխտ","بارن‌درخت","باريندريخت","巴伦德雷赫特"],"lon":4.53472,"lat":51.85667,"pop":38672},{"id":6544910,"name":"Barendrechtse Veer","lon":4.52917,"lat":51.83583,"pop":0},{"id":2759424,"name":"Bareveld","lon":6.84722,"lat":53.0525,"pop":325},{"id":2759423,"name":"Bargebek","lon":5.6056,"lat":52.89083,"pop":0},{"id":2759422,"name":"Bargen","lon":4.83472,"lat":53.08417,"pop":0},{"id":2759421,"name":"Barger-Compascuum","lon":7.04306,"lat":52.755,"pop":0},{"id":2759420,"name":"Barger-Erfscheidenveen","lon":6.86806,"lat":52.7275,"pop":115},{"id":2759417,"name":"Barger-Oosterveen","lon":6.97868,"lat":52.70168,"pop":305},{"id":2759415,"name":"Barger-Oosterveld","lon":6.95833,"lat":52.77,"pop":3090},{"id":2759419,"name":"Bargeres","alt":["Barger"],"lon":6.88145,"lat":52.76152,"pop":9060},{"id":12253657,"name":"Bargermeer","lon":6.8968,"lat":52.7749,"pop":0},{"id":2759413,"name":"Barlage","lon":7.05556,"lat":53.0125,"pop":0},{"id":2759411,"name":"Barlaque","lon":4.4875,"lat":51.62333,"pop":0},{"id":2759410,"name":"Barlo","alt":["Barloo"],"lon":6.58889,"lat":51.95583,"pop":0},{"id":2759407,"name":"Barneveld","alt":["Барневелд"],"lon":5.58472,"lat":52.14,"pop":35095},{"id":2759404,"name":"Barnflair","lon":7.08056,"lat":52.855,"pop":230},{"id":2759400,"name":"Barrier","lon":5.89861,"lat":50.87833,"pop":0},{"id":2759398,"name":"Barsbeek","lon":6.02222,"lat":52.65667,"pop":0},{"id":2759397,"name":"Barsingerhorn","lon":4.86389,"lat":52.785,"pop":770},{"id":2759392,"name":"Bartlehiem","lon":5.84078,"lat":53.27579,"pop":0},{"id":2759391,"name":"Barwoutswaarder","alt":["Barwoudswaarder"],"lon":4.85,"lat":52.085,"pop":75},{"id":2759388,"name":"Basse","lon":6.03194,"lat":52.80417,"pop":95},{"id":2759387,"name":"Basserveld","lon":6.04167,"lat":52.81417,"pop":0},{"id":2759386,"name":"Batadorp","lon":5.39927,"lat":51.4894,"pop":515},{"id":2759385,"name":"Batenburg","lon":5.62917,"lat":51.82417,"pop":520},{"id":2759383,"name":"Bath","alt":["Bat"],"lon":4.20972,"lat":51.40167,"pop":0},{"id":2759381,"name":"Bathmen","alt":["Batmen"],"lon":6.2875,"lat":52.25,"pop":0},{"id":2759378,"name":"Bato’s Erf","lon":5.65293,"lat":52.22154,"pop":0},{"id":2759377,"name":"Battenoord","lon":4.12917,"lat":51.7075,"pop":0},{"id":2759373,"name":"Bavel","lon":4.83056,"lat":51.56583,"pop":5360},{"id":11746706,"name":"Bavel AC","lon":4.84712,"lat":51.54879,"pop":0},{"id":2759371,"name":"Bavinkel","lon":6.69306,"lat":52.34,"pop":0},{"id":2759369,"name":"Bazeldijk","alt":["De Bazeldijk"],"lon":4.99898,"lat":51.88365,"pop":0},{"id":2759368,"name":"Bazuin","lon":6.41389,"lat":52.65417,"pop":0},{"id":2759363,"name":"Beckum","alt":["Bekkum"],"lon":6.74167,"lat":52.21083,"pop":0},{"id":2759362,"name":"Bedaf","lon":5.575,"lat":51.66083,"pop":0},{"id":6946390,"name":"Bedrijfsterrein Middelsé","lon":5.74868,"lat":53.26696,"pop":0},{"id":2759356,"name":"Bedum","lon":6.60278,"lat":53.30083,"pop":7765},{"id":2759353,"name":"Beegden","lon":5.91944,"lat":51.18917,"pop":1765},{"id":2759345,"name":"Beek","lon":5.92778,"lat":51.82917,"pop":0},{"id":2759346,"name":"Beek","lon":5.38695,"lat":51.61389,"pop":0},{"id":2759348,"name":"Beek","lon":5.94306,"lat":51.53667,"pop":0},{"id":2759349,"name":"Beek","lon":5.63382,"lat":51.5289,"pop":5185},{"id":2759350,"name":"Beek","alt":["Baek"],"lon":5.79722,"lat":50.94083,"pop":8415},{"id":8436503,"name":"Beek en Donk","lon":5.62603,"lat":51.54158,"pop":0},{"id":2759344,"name":"Beek gem Montferland","alt":["Beek","Beek (Montferland)"],"lon":6.1875,"lat":51.90667,"pop":1315},{"id":2759342,"name":"Beekbergen","lon":5.96389,"lat":52.16,"pop":2545},{"id":2759340,"name":"Beekdorp","lon":6.83194,"lat":52.355,"pop":0},{"id":6544787,"name":"Beekheuvel","lon":6.09444,"lat":51.63833,"pop":0},{"id":2759333,"name":"Beekkant","lon":5.36164,"lat":51.64488,"pop":0},{"id":2759329,"name":"Beekveld","lon":5.38333,"lat":51.66667,"pop":0},{"id":2759326,"name":"Beekweide","lon":5.54745,"lat":51.41528,"pop":0},{"id":2759323,"name":"Beemd","lon":5.55,"lat":51.73333,"pop":0},{"id":2759321,"name":"Beemdkant","lon":5.6,"lat":51.52583,"pop":0},{"id":2759317,"name":"Beemte","lon":5.98889,"lat":52.255,"pop":130},{"id":8593867,"name":"Beemte-Broekland","lon":5.98974,"lat":52.256,"pop":1000},{"id":2759315,"name":"Beerenplaat","lon":4.39583,"lat":51.8325,"pop":0},{"id":2759308,"name":"Beers","alt":["Bears"],"lon":5.73433,"lat":53.15573,"pop":0},{"id":2759309,"name":"Beers","alt":["Beers NB","Bèèrs"],"lon":5.82778,"lat":51.72583,"pop":1275},{"id":2759303,"name":"Beerschoten","lon":5.25417,"lat":52.0625,"pop":0},{"id":2759302,"name":"Beersdal","lon":5.9644,"lat":50.90597,"pop":1620},{"id":2759301,"name":"Beersdonk","lon":5.72505,"lat":51.44141,"pop":0},{"id":2759299,"name":"Beersterhoogen","alt":["Beersterhogen"],"lon":7.13333,"lat":53.18333,"pop":0},{"id":2759298,"name":"Beerta","lon":7.09167,"lat":53.175,"pop":0},{"id":2759296,"name":"Beerten","lon":5.14791,"lat":51.48569,"pop":0},{"id":2759295,"name":"Beertsenhoven","lon":5.88611,"lat":50.82667,"pop":0},{"id":2759294,"name":"Beerze","alt":["Beerse"],"lon":6.52917,"lat":52.51333,"pop":0},{"id":2759292,"name":"Beerzerhaar","lon":6.55472,"lat":52.49308,"pop":0},{"id":2759291,"name":"Beerzerveld","alt":["Beerserveen"],"lon":6.57361,"lat":52.49333,"pop":0},{"id":2759288,"name":"Beesd","alt":["Beest"],"lon":5.19167,"lat":51.8875,"pop":2980},{"id":2759286,"name":"Beesel","alt":["Besel"],"lon":6.03889,"lat":51.26833,"pop":2090},{"id":2759280,"name":"Beets","lon":4.97778,"lat":52.58833,"pop":525},{"id":2759275,"name":"Beetsterzwaag","alt":["Beetstersweach"],"lon":6.07711,"lat":53.05914,"pop":3485},{"id":2759274,"name":"Behelp","lon":5.75833,"lat":51.37417,"pop":0},{"id":2759272,"name":"Beijum","lon":6.6,"lat":53.25,"pop":0},{"id":2759271,"name":"Beilen","lon":6.51389,"lat":52.86333,"pop":9495},{"id":2759267,"name":"Beilervaart","lon":6.45278,"lat":52.86667,"pop":0},{"id":2759266,"name":"Beinsdorp","lon":4.59583,"lat":52.28667,"pop":880},{"id":2759265,"name":"Beinum","lon":6.12915,"lat":52.00174,"pop":0},{"id":2759264,"name":"Beitel","lon":6.00454,"lat":50.84578,"pop":70},{"id":2759263,"name":"Bekelaar","lon":5.63611,"lat":51.44583,"pop":0},{"id":2759261,"name":"Bekenes","lon":4.83472,"lat":52.0775,"pop":0},{"id":2759260,"name":"Bekveld","lon":6.29861,"lat":52.0475,"pop":0},{"id":2759259,"name":"Belcrum","lon":4.76994,"lat":51.59911,"pop":3605},{"id":2759258,"name":"Beldert","lon":3.98611,"lat":51.68083,"pop":0},{"id":2759256,"name":"Belfeld","alt":["Belvend"],"lon":6.11528,"lat":51.3125,"pop":0},{"id":2759254,"name":"Belfort","lon":5.65991,"lat":50.84698,"pop":2645},{"id":2759253,"name":"Belgenhoek","lon":5.91111,"lat":51.36917,"pop":0},{"id":2759252,"name":"Belgeren","lon":5.74583,"lat":51.44,"pop":0},{"id":11525088,"name":"Belgisch Park","lon":4.29236,"lat":52.11191,"pop":0},{"id":2759250,"name":"Bellingeweer","lon":6.51618,"lat":53.32715,"pop":0},{"id":2759247,"name":"Bellingwolde","lon":7.16528,"lat":53.11583,"pop":2290},{"id":2759243,"name":"Belt","lon":4.95139,"lat":52.905,"pop":0},{"id":2759239,"name":"Belt-Schutsloot","lon":6.06389,"lat":52.67167,"pop":560},{"id":2759240,"name":"Beltrum","lon":6.56389,"lat":52.06667,"pop":1285},{"id":2759235,"name":"Belvert","lon":5.24722,"lat":51.6,"pop":0},{"id":2759234,"name":"Bemelen","lon":5.7625,"lat":50.84667,"pop":355},{"id":2759231,"name":"Bemmel","alt":["Bemel","Бемел"],"lon":5.89861,"lat":51.89167,"pop":12020},{"id":2759227,"name":"Bemmer","lon":5.62361,"lat":51.55,"pop":0},{"id":2759226,"name":"Benderse","lon":6.36806,"lat":52.77917,"pop":0},{"id":2759204,"name":"Beneden Veensloot","lon":6.92361,"lat":53.13083,"pop":0},{"id":2759219,"name":"Beneden-Haastrecht","alt":["Beneden-Haastrect"],"lon":4.75417,"lat":52.00167,"pop":80},{"id":2759212,"name":"Beneden-Leeuwen","alt":["Leeuwenbeneden"],"lon":5.51528,"lat":51.8825,"pop":0},{"id":2759222,"name":"Benedenberg","lon":4.75833,"lat":51.93667,"pop":0},{"id":2759220,"name":"Benedeneind","lon":5.58056,"lat":52.015,"pop":0},{"id":2759221,"name":"Benedeneind","lon":5.48611,"lat":51.825,"pop":0},{"id":2759216,"name":"Benedenheul","lon":4.73194,"lat":51.9575,"pop":230},{"id":2759215,"name":"Benedenkerk","lon":4.75417,"lat":51.9675,"pop":260},{"id":2759213,"name":"Benedenknijpe","alt":["De Knijpe","De Knipe"],"lon":5.96667,"lat":52.96667,"pop":0},{"id":2759205,"name":"Benedenvaart","lon":6.37778,"lat":52.59833,"pop":0},{"id":2759199,"name":"Bennebroek","lon":4.59861,"lat":52.32083,"pop":5140},{"id":2759197,"name":"Bennekom","alt":["Беннеком"],"lon":5.67639,"lat":51.99833,"pop":14810},{"id":2759193,"name":"Benneveld","lon":6.74583,"lat":52.77667,"pop":140},{"id":2759191,"name":"Benningbroek","lon":5.02639,"lat":52.70167,"pop":0},{"id":2759187,"name":"Benoordenhout","alt":["Benoordenhoutsche Vaard"],"lon":4.32372,"lat":52.0939,"pop":0},{"id":2759186,"name":"Benschop","lon":4.98056,"lat":52.00833,"pop":0},{"id":2759182,"name":"Bent","lon":4.55694,"lat":52.10583,"pop":0},{"id":2759180,"name":"Bentelo","alt":["Benteloo"],"lon":6.68333,"lat":52.22417,"pop":730},{"id":2759179,"name":"Benthem","alt":["Bentem","Benten","Bentum"],"lon":5.72361,"lat":51.49667,"pop":0},{"id":8520817,"name":"Benthorn","lon":4.56259,"lat":52.07608,"pop":0},{"id":2759178,"name":"Benthuizen","lon":4.54444,"lat":52.0775,"pop":18959},{"id":2759175,"name":"Bentveld","lon":4.57222,"lat":52.365,"pop":0},{"id":2759174,"name":"Benzenrade","lon":5.97596,"lat":50.86605,"pop":200},{"id":2759169,"name":"Berenbroek","lon":5.60694,"lat":51.4675,"pop":45},{"id":6544774,"name":"Berendonck","lon":5.77083,"lat":51.805,"pop":0},{"id":2759161,"name":"Berg","lon":5.86111,"lat":51.345,"pop":0},{"id":2759162,"name":"Berg","lon":5.54861,"lat":51.27583,"pop":0},{"id":2759163,"name":"Berg","alt":["Berg aan de Maas"],"lon":5.77083,"lat":51.00417,"pop":1985},{"id":2759164,"name":"Berg","lon":5.78333,"lat":50.86167,"pop":3200},{"id":2759165,"name":"Berg","lon":5.74861,"lat":50.83917,"pop":120},{"id":2759148,"name":"Berg en Bos","lon":5.9334,"lat":52.22009,"pop":1995},{"id":2759147,"name":"Berg en Dal","lon":5.91667,"lat":51.82167,"pop":1949},{"id":8592090,"name":"Berg en Terblijt","lon":5.78662,"lat":50.86117,"pop":0},{"id":2759159,"name":"Bergakker","lon":5.38611,"lat":51.88667,"pop":0},{"id":2759158,"name":"Bergambacht","lon":4.78611,"lat":51.93417,"pop":0},{"id":2759132,"name":"Bergeijk","alt":["Bergeik"],"lon":5.35833,"lat":51.31917,"pop":18181},{"id":2759154,"name":"Bergen","alt":["Berchen","Bergen (NH)","Bergen (Nord-Holland)","Bergen-Binnen","Berxen","byrkhn","Μπέρχεν","Берген","Բերխեն","بيرخن"],"lon":4.70417,"lat":52.66917,"pop":29974},{"id":2759155,"name":"Bergen","alt":["Baerge","Berxen","byrkhn","Берген","Բերխեն","بيرخن"],"lon":6.03333,"lat":51.6,"pop":0},{"id":2759150,"name":"Bergen aan Zee","alt":["Bergen-An-Zee","Берген-Ан-Зее"],"lon":4.63056,"lat":52.66083,"pop":415},{"id":2759145,"name":"Bergen op Zoom","alt":["Bergen-op-Zom","WOE","Берген-оп-Зом"],"lon":4.29167,"lat":51.495,"pop":66256},{"id":2759146,"name":"Bergenhuizen","lon":5.81389,"lat":50.77583,"pop":0},{"id":2759143,"name":"Bergenshuizen","lon":5.28333,"lat":51.63083,"pop":210},{"id":2759141,"name":"Bergentheim","lon":6.61389,"lat":52.52667,"pop":0},{"id":2759138,"name":"Bergerden","lon":5.92222,"lat":51.91917,"pop":0},{"id":12036259,"name":"Bergh","lon":6.2501,"lat":51.88356,"pop":0},{"id":2759129,"name":"Bergharen","lon":5.66944,"lat":51.85083,"pop":1370},{"id":2759126,"name":"Berghem","alt":["Berchem"],"lon":5.56827,"lat":51.76991,"pop":6500},{"id":2759127,"name":"Berghem","lon":5.89167,"lat":50.80583,"pop":0},{"id":2759123,"name":"Berghkwartier","lon":5.36451,"lat":52.14508,"pop":0},{"id":2759118,"name":"Berghuizen","lon":6.29028,"lat":52.71333,"pop":145},{"id":2759119,"name":"Berghuizen","alt":["Berghuis"],"lon":6.08472,"lat":52.45083,"pop":0},{"id":2759120,"name":"Berghuizen","lon":5.51754,"lat":51.82326,"pop":0},{"id":2759117,"name":"Berghum","lon":7.01944,"lat":52.36833,"pop":0},{"id":2759115,"name":"Bergsche Heide","lon":6.05556,"lat":51.59583,"pop":0},{"id":2759113,"name":"Bergschenhoek","alt":["Bergsenkhuk","Бергсенхук"],"lon":4.49861,"lat":51.99,"pop":16579},{"id":2759110,"name":"Bergsebaan","lon":4.43768,"lat":51.49015,"pop":0},{"id":2759105,"name":"Bergstoep","lon":4.78472,"lat":51.9225,"pop":1205},{"id":2759104,"name":"Bergstraat","lon":5.51667,"lat":51.75,"pop":0},{"id":2759099,"name":"Bergweide","alt":["Bergkwatier"],"lon":6.17984,"lat":52.2493,"pop":0},{"id":2759098,"name":"Berik","lon":5.97206,"lat":51.23048,"pop":0},{"id":2759097,"name":"Beringe","alt":["Beringen"],"lon":5.94861,"lat":51.33667,"pop":1925},{"id":2759096,"name":"Beringerhoek","lon":5.94488,"lat":51.33359,"pop":0},{"id":2759092,"name":"Berkeind","lon":4.97004,"lat":51.55203,"pop":0},{"id":2759091,"name":"Berkeindje","lon":5.67639,"lat":51.41167,"pop":0},{"id":2759089,"name":"Berkel","lon":4.48723,"lat":52.00306,"pop":0},{"id":6929992,"name":"Berkel en Rodenrijs","lon":4.47865,"lat":51.99313,"pop":20189},{"id":2759090,"name":"Berkel-Enschot","lon":5.14444,"lat":51.58417,"pop":0},{"id":2759087,"name":"Berkelaar","lon":5.87083,"lat":51.1225,"pop":275},{"id":2759079,"name":"Berkenrode","lon":4.61667,"lat":52.35,"pop":0},{"id":2759078,"name":"Berkenwoude","lon":4.70694,"lat":51.945,"pop":1390},{"id":2759071,"name":"Berkhoek","lon":5.15,"lat":51.6025,"pop":0},{"id":2759072,"name":"Berkhoek","lon":5.68472,"lat":51.58583,"pop":0},{"id":2759070,"name":"Berkhout","lon":5.00139,"lat":52.64083,"pop":1905},{"id":2759068,"name":"Berkmeer","lon":4.90278,"lat":52.6875,"pop":0},{"id":2759065,"name":"Berkt","lon":5.49722,"lat":51.71667,"pop":0},{"id":2759066,"name":"Berkt","lon":5.37917,"lat":51.4275,"pop":0},{"id":2759064,"name":"Berkum","lon":6.13655,"lat":52.52395,"pop":3720},{"id":2759063,"name":"Berkum-Bruggenhoek","lon":6.1371,"lat":52.53021,"pop":0},{"id":2759059,"name":"Berlicum","alt":["Berlikum"],"lon":5.4,"lat":51.6775,"pop":4250},{"id":2759057,"name":"Berltsum","alt":["Berlikum"],"lon":5.65101,"lat":53.2437,"pop":2530},{"id":2759054,"name":"Berm","lon":5.32416,"lat":51.78197,"pop":0},{"id":2759053,"name":"Bern","lon":5.16528,"lat":51.74833,"pop":0},{"id":2759051,"name":"Bernissche Hoeven","alt":["Bernsche Hoeven"],"lon":5.49452,"lat":51.66646,"pop":0},{"id":2759049,"name":"Bernsterbuorren","alt":["Bernsterburen"],"lon":5.73333,"lat":53.1,"pop":0},{"id":2759043,"name":"Besoijen","alt":["Besooien","Besoyen","Bezooien"],"lon":5.05,"lat":51.68333,"pop":3770},{"id":2759042,"name":"Besselaar","lon":5.37222,"lat":51.61583,"pop":0},{"id":2759040,"name":"Best","lon":5.39028,"lat":51.5075,"pop":29074},{"id":8692975,"name":"Besterd","lon":5.08658,"lat":51.5638,"pop":3395},{"id":2759038,"name":"Besthmen","alt":["Bestmen"],"lon":6.43056,"lat":52.5025,"pop":0},{"id":2759035,"name":"Beswerd","lon":6.45972,"lat":53.28417,"pop":0},{"id":2759034,"name":"Bethlehem","lon":6.60972,"lat":53.38333,"pop":0},{"id":2759030,"name":"Betterwird","alt":["Betterwurd"],"lon":5.96751,"lat":53.33213,"pop":0},{"id":2759027,"name":"Beugen","alt":["Boeghen","Boghen","Boghene","Bughine"],"lon":5.9375,"lat":51.67417,"pop":0},{"id":2759025,"name":"Beugt","lon":5.5125,"lat":51.63917,"pop":0},{"id":2759024,"name":"Beukelaar","lon":5.5625,"lat":51.61667,"pop":0},{"id":2759015,"name":"Beuningen","lon":6.99861,"lat":52.35917,"pop":0},{"id":2759016,"name":"Beuningen","alt":["Beuningen Gld"],"lon":5.76667,"lat":51.86083,"pop":25557},{"id":2759008,"name":"Beusbergen","lon":6.5,"lat":52.22917,"pop":0},{"id":2759007,"name":"Beuseberg","lon":6.42083,"lat":52.2675,"pop":0},{"id":2759006,"name":"Beusichem","lon":5.29167,"lat":51.95,"pop":2750},{"id":2759004,"name":"Beutenaken","lon":5.85556,"lat":50.78167,"pop":40},{"id":2759001,"name":"Bevermeer","lon":6.15694,"lat":51.995,"pop":0},{"id":2758998,"name":"Beverwijk","alt":["Berverwyk","Bevervejk","Beverwyk","Beyverveyk","byfyrfayk","Бевервейк","Բեյվերվեյկ","بيفيرفايك"],"lon":4.65694,"lat":52.48333,"pop":37585},{"id":2758993,"name":"Bezuidenhout","alt":["Het Bezuidenhout"],"lon":4.33811,"lat":52.0846,"pop":0},{"id":2758992,"name":"Biddinghuizen","lon":5.69306,"lat":52.455,"pop":5010},{"id":2758991,"name":"Bieberg","lon":4.79186,"lat":51.55914,"pop":0},{"id":2758984,"name":"Biert","lon":4.28611,"lat":51.83833,"pop":0},{"id":2758983,"name":"Bierum","lon":6.85972,"lat":53.3825,"pop":605},{"id":2758980,"name":"Biervliet","alt":["Bierfliet","Birvlit","Бирвлит"],"lon":3.68889,"lat":51.32833,"pop":0},{"id":2758974,"name":"Biesdonk","lon":4.78515,"lat":51.60613,"pop":4970},{"id":2758973,"name":"Bieshaar","lon":5.37399,"lat":52.18885,"pop":0},{"id":2758971,"name":"Biesland","lon":5.67573,"lat":50.8411,"pop":1505},{"id":2758970,"name":"Biessum","alt":["Biesum"],"lon":6.89583,"lat":53.33333,"pop":0},{"id":2758969,"name":"Biest-Houtakker","lon":5.15833,"lat":51.50667,"pop":750},{"id":2758967,"name":"Biesthoek","lon":5.65139,"lat":51.62833,"pop":0},{"id":2758966,"name":"Biestraat","lon":4.925,"lat":51.54583,"pop":0},{"id":2758965,"name":"Biezelinge","lon":3.9625,"lat":51.475,"pop":0},{"id":2758963,"name":"Biezen","lon":3.46389,"lat":51.24667,"pop":0},{"id":2758961,"name":"Biezenheuvel","lon":5.30417,"lat":51.40583,"pop":0},{"id":2758959,"name":"Biezenkuilen","lon":5.43333,"lat":51.43333,"pop":0},{"id":2758958,"name":"Biezenmortel","lon":5.17778,"lat":51.62417,"pop":715},{"id":2758956,"name":"Biggekerke","lon":3.52639,"lat":51.49917,"pop":730},{"id":2758946,"name":"Bijlmermeer","alt":["Bijlmer","De Bijlmer"],"lon":4.96667,"lat":52.31667,"pop":0},{"id":2758944,"name":"Bijsteren","lon":5.58333,"lat":52.25583,"pop":0},{"id":2758942,"name":"Bijsterveld","lon":5.33051,"lat":51.50639,"pop":0},{"id":2758943,"name":"Bijsterveld","lon":5.35236,"lat":51.45076,"pop":0},{"id":2758941,"name":"Bijvanck","alt":["De Bijvang"],"lon":5.26534,"lat":52.28585,"pop":4560},{"id":2758939,"name":"Bikbergen","lon":5.19861,"lat":52.28833,"pop":285},{"id":2758938,"name":"Bikkershorn","lon":6.99444,"lat":53.1475,"pop":0},{"id":2758933,"name":"Bilderdam","lon":4.725,"lat":52.2125,"pop":95},{"id":2758930,"name":"Bilgaard","alt":["Bilgaerd"],"lon":5.79574,"lat":53.21551,"pop":6105},{"id":2758928,"name":"Billinghuizen","lon":5.85972,"lat":50.7925,"pop":0},{"id":6544692,"name":"Bilt","lon":5.85417,"lat":51.1275,"pop":0},{"id":2758927,"name":"Bilthoven","alt":["Biltchoven","biltobeon","Μπιλτχόβεν","빌토번"],"lon":5.20139,"lat":52.13,"pop":0},{"id":11525106,"name":"Binckhorst","lon":4.34052,"lat":52.06857,"pop":0},{"id":2758922,"name":"Bingelrade","lon":5.92704,"lat":50.9761,"pop":825},{"id":2758919,"name":"Bingerden","lon":6.10417,"lat":51.99,"pop":0},{"id":2758903,"name":"Binnen-Moerdijk","alt":["De Binnen-Moerdijk"],"lon":4.66806,"lat":51.70083,"pop":0},{"id":2758909,"name":"Binnenheurne","alt":["Heurne"],"lon":6.45,"lat":51.93333,"pop":0},{"id":2758908,"name":"Binnenhof","lon":4.53644,"lat":52.16418,"pop":1400},{"id":6621526,"name":"Binnenstad","lon":5.95957,"lat":52.21304,"pop":4900},{"id":8199406,"name":"Binnenstad","lon":4.90437,"lat":52.37216,"pop":0},{"id":2758896,"name":"Binnenwijzend","lon":5.14444,"lat":52.68,"pop":245},{"id":2758893,"name":"Birstum","lon":5.84425,"lat":53.07329,"pop":0},{"id":2758891,"name":"Bisschop","alt":["De Biskop"],"lon":6.25809,"lat":53.05703,"pop":0},{"id":2758888,"name":"Bisschopswetering","lon":5.99028,"lat":52.56667,"pop":0},{"id":2758887,"name":"Bisselt","lon":5.90417,"lat":51.75667,"pop":0},{"id":2758886,"name":"Bissen","lon":5.90139,"lat":50.78833,"pop":0},{"id":2759283,"name":"Bitgum","alt":["Beetgum"],"lon":5.68333,"lat":53.23333,"pop":0},{"id":2759281,"name":"Bitgummole","alt":["Beetgumermolden","Beetgumermolen"],"lon":5.70469,"lat":53.2352,"pop":0},{"id":2758884,"name":"Bitswijk","lon":5.60921,"lat":51.6687,"pop":4030},{"id":2758883,"name":"Bittens","lon":5.48333,"lat":53.08333,"pop":0},{"id":2758881,"name":"Blaaksedijk","alt":["Blaak","Blaaksche Dijk","Blaakschendijk","De Blaak"],"lon":4.51111,"lat":51.815,"pop":0},{"id":2758880,"name":"Blaarthem","alt":["Blaartem"],"lon":5.45784,"lat":51.42501,"pop":2465},{"id":2758879,"name":"Blaasbalg","lon":4.81667,"lat":51.8,"pop":0},{"id":2758878,"name":"Bladel","alt":["bladl","Բլադել","بلادل"],"lon":5.22083,"lat":51.36833,"pop":9785},{"id":2758876,"name":"Blaker","lon":4.27083,"lat":51.98167,"pop":0},{"id":6544780,"name":"Blankenberg","lon":5.83056,"lat":51.77917,"pop":0},{"id":2758872,"name":"Blankenburg","alt":["Blankenberg"],"lon":4.25,"lat":51.9,"pop":0},{"id":2758871,"name":"Blankenham","lon":5.89583,"lat":52.76417,"pop":0},{"id":2758868,"name":"Blaricum","alt":["Blarikjum","Blarikum","blarykwm","bu la li ke mu","Бларикюм","Բլարիկում","بلاريكوم","布拉里克姆"],"lon":5.24167,"lat":52.2725,"pop":5060},{"id":2758864,"name":"Blauw","lon":6.36806,"lat":53.1275,"pop":0},{"id":2758862,"name":"Blauwe Hand","lon":6.07639,"lat":52.6925,"pop":0},{"id":2758860,"name":"Blauwe Keet","lon":4.7802,"lat":52.89658,"pop":50},{"id":2758855,"name":"Blauwe Sluis","lon":4.69861,"lat":51.69333,"pop":125},{"id":2758856,"name":"Blauwe Sluis","lon":4.36944,"lat":51.59333,"pop":0},{"id":2758858,"name":"Blauwenhoek","lon":5.87222,"lat":51.60083,"pop":0},{"id":2758854,"name":"Blauwesluis","lon":5.55139,"lat":51.84083,"pop":0},{"id":8299268,"name":"Blauwestad","lon":7.03623,"lat":53.16648,"pop":0},{"id":2758852,"name":"Blauwewijk","lon":3.85278,"lat":51.51917,"pop":0},{"id":2758851,"name":"Blauwhuis","lon":5.53359,"lat":53.02134,"pop":590},{"id":2758850,"name":"Blauwkapel","lon":5.15278,"lat":52.1125,"pop":125},{"id":2758849,"name":"Blauwverlaat","alt":["Blauferlaat","Blauforlaet"],"lon":6.17354,"lat":53.22582,"pop":0},{"id":2758840,"name":"Bleijenbeek","alt":["Bleienbeek","Blijenbeek"],"lon":6.05139,"lat":51.635,"pop":0},{"id":2758839,"name":"Bleijerheide","lon":6.06789,"lat":50.85538,"pop":4285},{"id":6544853,"name":"Bleijs","lon":5.74306,"lat":51.47833,"pop":0},{"id":2758838,"name":"Bleiswijk","lon":4.53194,"lat":52.01083,"pop":10549},{"id":2758835,"name":"Blekkink","lon":6.66219,"lat":51.92356,"pop":0},{"id":2758833,"name":"Blekslage","lon":7.06389,"lat":52.99,"pop":0},{"id":2758832,"name":"Blenkert","lon":5.89861,"lat":51.2675,"pop":0},{"id":2758831,"name":"Blerick","alt":["Blerik","Blierik"],"lon":6.14861,"lat":51.37167,"pop":0},{"id":2758828,"name":"Blesdijke","alt":["Blesdijk"],"lon":6.01429,"lat":52.83077,"pop":325},{"id":2758826,"name":"Blesdijkerveld","lon":6.03333,"lat":52.83333,"pop":0},{"id":2758825,"name":"Bleskensgraaf","alt":["Bleskensgraaf ca"],"lon":4.78333,"lat":51.8725,"pop":2800},{"id":2758821,"name":"Blessum","lon":5.71014,"lat":53.18096,"pop":85},{"id":2758816,"name":"Blijdenstein","lon":6.25,"lat":52.71167,"pop":0},{"id":2758820,"name":"Blije","alt":["Blija"],"lon":5.86138,"lat":53.35193,"pop":610},{"id":2758815,"name":"Blijham","lon":7.07639,"lat":53.10917,"pop":2060},{"id":2758814,"name":"Blikhalm","lon":5.7,"lat":51.45,"pop":0},{"id":2758809,"name":"Blitterswijck","alt":["Blitterswijk"],"lon":6.10833,"lat":51.53083,"pop":1105},{"id":2758807,"name":"Bloemberg","lon":6.35278,"lat":52.65167,"pop":0},{"id":2758803,"name":"Bloemendaal","alt":["Bloemendaalseweg"],"lon":4.6944,"lat":52.02878,"pop":9900},{"id":2758804,"name":"Bloemendaal","lon":4.62222,"lat":52.4025,"pop":3905},{"id":2758805,"name":"Bloemendaal","lon":4.67271,"lat":52.04205,"pop":0},{"id":2758799,"name":"Bloemendaal aan Zee","lon":4.54452,"lat":52.40166,"pop":0},{"id":2758795,"name":"Bloemhof","lon":4.49943,"lat":51.89723,"pop":13715},{"id":2758791,"name":"Blokdijk","lon":5.14167,"lat":52.65667,"pop":0},{"id":2758788,"name":"Blokhuizen","lon":4.83056,"lat":52.75167,"pop":0},{"id":2744770,"name":"Blokker","lon":5.1,"lat":52.66417,"pop":0},{"id":2758785,"name":"Blokland","lon":4.78333,"lat":52.21167,"pop":0},{"id":2758786,"name":"Blokland","lon":4.96111,"lat":52.03667,"pop":140},{"id":2758780,"name":"Blokum","lon":6.71944,"lat":53.26,"pop":0},{"id":2758777,"name":"Blokzijl","lon":5.96111,"lat":52.72667,"pop":1110},{"id":2758772,"name":"Bobeldijk","lon":5,"lat":52.65333,"pop":300},{"id":2758770,"name":"Bocholtz","alt":["Boches","Bocholz","Bóches"],"lon":6.00556,"lat":50.81833,"pop":4340},{"id":2758768,"name":"Bocholtzerheide","lon":5.99028,"lat":50.81583,"pop":515},{"id":2758767,"name":"Boddenbroek","lon":6.05694,"lat":51.5125,"pop":0},{"id":2758765,"name":"Bodegraven","lon":4.75,"lat":52.0825,"pop":19395},{"id":2758762,"name":"Boeicop","alt":["Boeikoop","Boeikop"],"lon":5.11667,"lat":51.93333,"pop":0},{"id":2758761,"name":"Boeiink","lon":4.41528,"lat":51.52917,"pop":0},{"id":2758758,"name":"Boekel","lon":4.75417,"lat":52.59,"pop":20},{"id":2758759,"name":"Boekel","lon":5.675,"lat":51.60333,"pop":5480},{"id":2758755,"name":"Boekelo","alt":["Boekeloo"],"lon":6.79861,"lat":52.20417,"pop":0},{"id":6697902,"name":"Boekelte","lon":6.18219,"lat":52.92855,"pop":0},{"id":2758753,"name":"Boekend","alt":["Boekent","Boekhout"],"lon":5.69298,"lat":51.54431,"pop":0},{"id":2758754,"name":"Boekend","lon":6.11667,"lat":51.37833,"pop":900},{"id":2758752,"name":"Boekenderbos","lon":6.03333,"lat":51.31667,"pop":0},{"id":2758750,"name":"Boeket","lon":5.7268,"lat":51.28962,"pop":0},{"id":2758749,"name":"Boekhorst","lon":6.29242,"lat":52.9734,"pop":0},{"id":2758748,"name":"Boelenslaan","alt":["Boelensloane","Surhuisterveensterheide"],"lon":6.14479,"lat":53.1617,"pop":695},{"id":2758747,"name":"Boer","lon":5.56533,"lat":53.21585,"pop":45},{"id":2758746,"name":"Boerakker","lon":6.32778,"lat":53.1875,"pop":365},{"id":2758742,"name":"Boerdonk","lon":5.625,"lat":51.55917,"pop":535},{"id":2758740,"name":"Boerelaan","lon":6.49167,"lat":53.1325,"pop":0},{"id":2758738,"name":"Boerengat","lon":3.79861,"lat":51.33083,"pop":0},{"id":2758736,"name":"Boerenhoek","lon":5.97639,"lat":51.90583,"pop":0},{"id":2758735,"name":"Boerenhol","lon":3.54028,"lat":51.38333,"pop":0},{"id":2758734,"name":"Boerenstreek","lon":6.34583,"lat":53.11583,"pop":85},{"id":2758730,"name":"Boerhaar","lon":6.15139,"lat":52.37583,"pop":0},{"id":2758729,"name":"Boermastreek","lon":6.90221,"lat":52.88362,"pop":0},{"id":2758722,"name":"Boesingheliede","lon":4.725,"lat":52.36083,"pop":140},{"id":2758720,"name":"Boetele","alt":["Boeteloo"],"lon":6.30531,"lat":52.37244,"pop":0},{"id":2758718,"name":"Boevenheuvel","lon":5.35,"lat":51.35,"pop":0},{"id":2758713,"name":"Bogaard","lon":5.44076,"lat":51.62894,"pop":0},{"id":2758711,"name":"Bohemen","lon":4.23333,"lat":52.06667,"pop":0},{"id":2758453,"name":"Boijl","alt":["Beuil","Beul","Boil","Boyl","Boyle"],"lon":6.19972,"lat":52.90921,"pop":525},{"id":2758709,"name":"Bokhorst","lon":5.6842,"lat":51.46887,"pop":0},{"id":2758708,"name":"Bokhoven","lon":5.23056,"lat":51.7375,"pop":280},{"id":6639666,"name":"Bokkum","lon":5.84387,"lat":53.06015,"pop":0},{"id":2758703,"name":"Boksheide","lon":5.30833,"lat":51.32583,"pop":0},{"id":2758458,"name":"Boksum","lon":5.72971,"lat":53.1779,"pop":360},{"id":2758699,"name":"Bokt","lon":5.50139,"lat":51.49,"pop":125},{"id":2758696,"name":"Bolberg","lon":4.84306,"lat":51.56417,"pop":0},{"id":2758697,"name":"Bolberg","lon":4.93472,"lat":51.53417,"pop":0},{"id":2758694,"name":"Bolenberg","lon":6.11389,"lat":51.30333,"pop":10},{"id":2758691,"name":"Bolkshoek","alt":["Bolkhoek"],"lon":6.69424,"lat":52.35267,"pop":0},{"id":2758689,"name":"Bollendorp","lon":4.68333,"lat":52.58333,"pop":0},{"id":2758688,"name":"Bollingawier","alt":["Bollingwier"],"lon":6.03767,"lat":53.38056,"pop":0},{"id":2758686,"name":"Bolnes","lon":4.57917,"lat":51.895,"pop":7650},{"id":2758684,"name":"Bolshuizen","lon":6.47917,"lat":53.3,"pop":0},{"id":2758683,"name":"Bolst","lon":5.60139,"lat":51.60667,"pop":0},{"id":2758682,"name":"Bolsward","alt":["Boalsert","Bolsvard","Gemeen Bolsward","bo er si wa de","bolseubaleuteu","borusuvuaruto","Болсвард","ボルスヴァルト","博尔斯瓦德","볼스바르트"],"lon":5.53176,"lat":53.06555,"pop":9160},{"id":2758676,"name":"Bomen- en Bloemen Buurt","lon":4.28333,"lat":52.06667,"pop":0},{"id":11525080,"name":"Bomen- en Bloemenbuurt","lon":4.26342,"lat":52.07765,"pop":0},{"id":2758671,"name":"Bommelskous","alt":["Bemmelskous"],"lon":4.40972,"lat":51.76583,"pop":0},{"id":2758670,"name":"Bommenede","lon":3.93333,"lat":51.73333,"pop":0},{"id":2758667,"name":"Bommerig","lon":5.92778,"lat":50.77917,"pop":0},{"id":2758663,"name":"Bong","lon":6.17083,"lat":51.43167,"pop":0},{"id":2758664,"name":"Bong","lon":6.08056,"lat":51.3325,"pop":620},{"id":2758657,"name":"Bonkwerd","lon":5.60457,"lat":53.1339,"pop":0},{"id":2758656,"name":"Bonnen","lon":6.77778,"lat":53.005,"pop":0},{"id":2758655,"name":"Bonnerveen","lon":6.83194,"lat":53.01333,"pop":95},{"id":2758652,"name":"Bonrepas","lon":4.84444,"lat":51.96333,"pop":130},{"id":2758651,"name":"Bontebok","lon":6.02514,"lat":52.9626,"pop":410},{"id":2758650,"name":"Bontebrug","alt":["Nieuwdorp"],"lon":6.39583,"lat":51.89417,"pop":0},{"id":2758648,"name":"Bontemorgen","lon":5.52083,"lat":51.96333,"pop":0},{"id":2758643,"name":"Boomen","lon":5.69306,"lat":51.41917,"pop":0},{"id":6544751,"name":"Boomhoek","lon":5.09583,"lat":52.18833,"pop":295},{"id":2758640,"name":"Boompjesdijk","alt":["Boompjes","Drogendijk"],"lon":4.31806,"lat":51.62167,"pop":110},{"id":2758636,"name":"Booneschans","lon":7.17222,"lat":53.16167,"pop":0},{"id":2758634,"name":"Boord","lon":5.52222,"lat":51.46917,"pop":0},{"id":2758633,"name":"Boornbergum","alt":["Boarnburgum"],"lon":6.04578,"lat":53.08284,"pop":1660},{"id":2758629,"name":"Boornzwaag","alt":["Boarnsweach"],"lon":5.7443,"lat":52.95888,"pop":105},{"id":2758628,"name":"Boornzwaag over de Wielen","alt":["Boarnsweach oer de Wielen"],"lon":5.75,"lat":52.95,"pop":0},{"id":2758627,"name":"Borchwerf","lon":4.45,"lat":51.55,"pop":0},{"id":2758626,"name":"Borculo","alt":["Berkelland","Borkulo"],"lon":6.52222,"lat":52.11583,"pop":10373},{"id":2758623,"name":"Borgele","lon":6.14926,"lat":52.2763,"pop":3580},{"id":2758621,"name":"Borger","alt":["bwrkhr","Боргер","بورخر"],"lon":6.79306,"lat":52.92333,"pop":4570},{"id":2758618,"name":"Borgercompagnie","lon":6.81389,"lat":53.12333,"pop":0},{"id":2758615,"name":"Borgertange","lon":7.1125,"lat":52.9375,"pop":0},{"id":6544926,"name":"Borgerveld","lon":7.11389,"lat":52.93167,"pop":0},{"id":2758611,"name":"Borgharen","alt":["Bowgraven"],"lon":5.6875,"lat":50.8775,"pop":1735},{"id":2758607,"name":"Borgsweer","alt":["Borgweg"],"lon":7.0125,"lat":53.29833,"pop":125},{"id":2758605,"name":"Borgweg","lon":6.7125,"lat":53.17833,"pop":0},{"id":2758604,"name":"Borkel","lon":5.44028,"lat":51.2975,"pop":595},{"id":2758603,"name":"Borkeld","alt":["De Boikeld","De Borkeld"],"lon":6.46667,"lat":52.27583,"pop":0},{"id":2758602,"name":"Born","alt":["Bor"],"lon":5.80972,"lat":51.03167,"pop":2430},{"id":2758598,"name":"Borne","alt":["Boorn","bwrnh","Борне","Բորնե","بورنه"],"lon":6.7482,"lat":52.30136,"pop":20550},{"id":2758599,"name":"Borne","lon":5.41667,"lat":51.62,"pop":0},{"id":6544867,"name":"Borneo","lon":5.775,"lat":51.6775,"pop":0},{"id":2758595,"name":"Bornerbroek","alt":["Bornebroek"],"lon":6.65417,"lat":52.30917,"pop":970},{"id":2758591,"name":"Bornwird","alt":["Boarnwert","Bornwerd"],"lon":5.95407,"lat":53.33379,"pop":120},{"id":2758590,"name":"Bornwirdhuizen","alt":["Boarnwerterhuzen"],"lon":5.98333,"lat":53.33333,"pop":0},{"id":2758587,"name":"Borssele","alt":["Borsele","Borssel'","Borsselen","Bossele","Борссель"],"lon":3.73472,"lat":51.42333,"pop":22285},{"id":2758583,"name":"Borteldonk","lon":4.46667,"lat":51.50417,"pop":155},{"id":2758564,"name":"Bos en Lommer","lon":4.84755,"lat":52.37948,"pop":0},{"id":2758582,"name":"Bosch","lon":5.59167,"lat":51.27,"pop":0},{"id":2758579,"name":"Bosch en Duin","lon":5.24167,"lat":52.11667,"pop":1675},{"id":2758580,"name":"Boscheind","lon":5.30694,"lat":51.2825,"pop":0},{"id":2758577,"name":"Boschheurne","lon":6.45833,"lat":52.11167,"pop":0},{"id":2759555,"name":"Boschhoven","alt":["Baarle Boschoven","Baarle Bosschoven"],"lon":4.93889,"lat":51.4575,"pop":0},{"id":6544750,"name":"Boschhoven","lon":5.54861,"lat":51.35583,"pop":0},{"id":2758573,"name":"Boschkens","lon":5.06389,"lat":51.53333,"pop":0},{"id":2758570,"name":"Boschoord","lon":6.22676,"lat":52.89813,"pop":0},{"id":2758566,"name":"Boschweg","lon":5.41776,"lat":51.63054,"pop":0},{"id":2758562,"name":"Boshoek","lon":6.03611,"lat":52.34083,"pop":0},{"id":2758555,"name":"Boshoven","lon":5.55259,"lat":51.35321,"pop":0},{"id":2758556,"name":"Boshoven","lon":5.37778,"lat":51.34583,"pop":0},{"id":2758557,"name":"Boshoven","alt":["Boschoven","Boshoven-Vrakker"],"lon":5.68472,"lat":51.2625,"pop":0},{"id":2759873,"name":"Boshoven","alt":["Alfen-Boschoven","Alphen Boschoven","Alphen Bosschoven","Boschhoven"],"lon":4.94861,"lat":51.46333,"pop":0},{"id":2758552,"name":"Boshuijzen","lon":6.00139,"lat":51.5375,"pop":0},{"id":2758550,"name":"Bosje","lon":6.86806,"lat":53.02417,"pop":0},{"id":2758549,"name":"Boskamp","lon":6.12778,"lat":52.33083,"pop":1150},{"id":2758575,"name":"Boskant","lon":5.42083,"lat":51.55,"pop":790},{"id":6544766,"name":"Boskant","alt":["Boschkant"],"lon":5.76465,"lat":51.78903,"pop":0},{"id":2758547,"name":"Boskoop","alt":["Boskop","bo si ke pu","Боскоп","Բոսկոպ","博斯科普"],"lon":4.65556,"lat":52.075,"pop":15222},{"id":2758545,"name":"Boslust","lon":4.975,"lat":51.4825,"pop":0},{"id":2758540,"name":"Bosschenhoofd","lon":4.54028,"lat":51.56083,"pop":1925},{"id":2758539,"name":"Bosschenhuizen","lon":5.95833,"lat":50.83583,"pop":0},{"id":2758538,"name":"Bosscherheide","alt":["Bosserheide"],"lon":6.08333,"lat":51.57083,"pop":0},{"id":2758536,"name":"Bossenburgh","lon":3.57281,"lat":51.4629,"pop":0},{"id":2758534,"name":"Bosserstraat","lon":5.74861,"lat":51.29417,"pop":0},{"id":2758532,"name":"Boteburen","lon":5.85,"lat":53.35,"pop":0},{"id":2758527,"name":"Boterveen","lon":6.38611,"lat":52.86417,"pop":0},{"id":2758526,"name":"Boterwijk","lon":5.29028,"lat":51.51083,"pop":0},{"id":2758521,"name":"Botshol","lon":4.90293,"lat":52.24391,"pop":0},{"id":2758520,"name":"Botshoofd","lon":4.23056,"lat":51.5575,"pop":0},{"id":2758518,"name":"Bouchauterhaven","alt":["Boechouterhaven","Haventje van Bouchaute"],"lon":3.72361,"lat":51.27417,"pop":0},{"id":2758517,"name":"Boudewijnskerke","lon":3.47639,"lat":51.52333,"pop":0},{"id":2758516,"name":"Boukoul","alt":["Boukoel"],"lon":6.04722,"lat":51.21583,"pop":935},{"id":2758514,"name":"Bourtange","alt":["Boertang","Boertange"],"lon":7.19028,"lat":53.01,"pop":425},{"id":2758510,"name":"Bouwberg","lon":5.99373,"lat":50.95491,"pop":125},{"id":2758509,"name":"Bouwerschap","lon":6.70732,"lat":53.27366,"pop":0},{"id":11525085,"name":"Bouwlust","lon":4.25697,"lat":52.03812,"pop":0},{"id":6544786,"name":"Boven Pekela","lon":6.93333,"lat":53.03417,"pop":0},{"id":2758468,"name":"Boven Veensloot","lon":6.91667,"lat":53.125,"pop":0},{"id":2758501,"name":"Boven-Haastrecht","lon":4.79444,"lat":52.00917,"pop":215},{"id":2758500,"name":"Boven-Hardinxveld","alt":["Boven Hardingsveld","Hardingsveld","Hardinxveld"],"lon":4.88194,"lat":51.82333,"pop":4500},{"id":2758490,"name":"Boven-Leeuwen","alt":["Leeuwen"],"lon":5.55278,"lat":51.885,"pop":0},{"id":2758506,"name":"Bovenberg","lon":4.82778,"lat":51.95583,"pop":0},{"id":2758505,"name":"Bovenburen","lon":5.46592,"lat":52.9254,"pop":0},{"id":2758503,"name":"Bovendijks","lon":6.78333,"lat":53.31667,"pop":0},{"id":2758502,"name":"Boveneind","lon":5.51111,"lat":51.81417,"pop":0},{"id":6544767,"name":"Boveneinde","lon":5.78056,"lat":52.1925,"pop":0},{"id":2758498,"name":"Bovenkarspel","lon":5.24028,"lat":52.69667,"pop":0},{"id":2758495,"name":"Bovenkerk","lon":4.83333,"lat":52.2925,"pop":0},{"id":2758496,"name":"Bovenkerk","lon":4.7875,"lat":51.975,"pop":215},{"id":2758492,"name":"Bovenknijpe","alt":["De Knijpe","De Knipe","De Knype","Nieuw Brongerga"],"lon":5.98333,"lat":52.96667,"pop":0},{"id":2758484,"name":"Bovenrijge","lon":6.66389,"lat":53.27167,"pop":0},{"id":2758480,"name":"Bovensluis","lon":4.47639,"lat":51.6825,"pop":0},{"id":2758479,"name":"Bovensmilde","lon":6.48194,"lat":52.97583,"pop":0},{"id":2758477,"name":"Bovenstad","lon":4.81667,"lat":51.93333,"pop":160},{"id":2758474,"name":"Bovenstehuis","lon":5.67917,"lat":51.61583,"pop":0},{"id":2758471,"name":"Bovenstreek","lon":6.95972,"lat":53.125,"pop":0},{"id":2758472,"name":"Bovenstreek","lon":6.85417,"lat":53.02333,"pop":0},{"id":2758473,"name":"Bovenstreek","lon":5.9,"lat":52.43333,"pop":300},{"id":2758469,"name":"Bovenveen","lon":5.89861,"lat":52.42583,"pop":0},{"id":2758462,"name":"Boxmeer","alt":["Boc's Mere","Boksmaer","Boksmeer","Meer","Mere"],"lon":5.94722,"lat":51.64667,"pop":12407},{"id":2758460,"name":"Boxtel","alt":["Bokstel","bwkstl","Бокстел","Բոքստել","بوكستل"],"lon":5.32917,"lat":51.59083,"pop":29511},{"id":2758452,"name":"Bozum","alt":["Boazum"],"lon":5.69521,"lat":53.08804,"pop":0},{"id":2758450,"name":"Braakhoek","lon":5.17639,"lat":51.40333,"pop":0},{"id":2758449,"name":"Braakhuizen","lon":5.56813,"lat":51.42614,"pop":0},{"id":2758443,"name":"Braakpeel","lon":5.79727,"lat":51.28165,"pop":0},{"id":2758438,"name":"Braamberg","lon":7.04794,"lat":52.94233,"pop":0},{"id":2758439,"name":"Braamberg","lon":6.50305,"lat":52.64744,"pop":0},{"id":2758436,"name":"Braambosch","lon":5.4125,"lat":51.34333,"pop":0},{"id":2758434,"name":"Braamt","lon":6.26528,"lat":51.92333,"pop":675},{"id":2758432,"name":"Braband","lon":4.33333,"lat":51.83333,"pop":0},{"id":2758431,"name":"Brabander","alt":["De Brabander"],"lon":5.96806,"lat":51.53583,"pop":1680},{"id":2758429,"name":"Brachterbeek","alt":["Brachterbaek"],"lon":5.90446,"lat":51.14694,"pop":1220},{"id":2758426,"name":"Brakel","lon":5.09028,"lat":51.8175,"pop":2555},{"id":2758427,"name":"Brakel","lon":4.99861,"lat":51.51417,"pop":0},{"id":2758422,"name":"Brakkenstein","alt":["Brakkestein"],"lon":5.86539,"lat":51.81324,"pop":3755},{"id":2758421,"name":"Brakkenstraat","lon":4.65597,"lat":51.55066,"pop":0},{"id":2758417,"name":"Brammelo","alt":["Brammeloo"],"lon":6.67778,"lat":52.1525,"pop":0},{"id":2758415,"name":"Brand","lon":5.67361,"lat":51.68833,"pop":0},{"id":2758416,"name":"Brand","lon":5.62427,"lat":51.45839,"pop":1270},{"id":2758413,"name":"Brandeburen","lon":5.49419,"lat":52.94641,"pop":0},{"id":2758410,"name":"Brandemolen","lon":6.19306,"lat":51.48417,"pop":0},{"id":2758408,"name":"Brandevoort","lon":5.61642,"lat":51.46117,"pop":0},{"id":2758406,"name":"Brandt","lon":5.86111,"lat":51.13667,"pop":0},{"id":2758405,"name":"Brandwijk","lon":4.81389,"lat":51.89083,"pop":280},{"id":2758402,"name":"Brantgum","lon":5.93009,"lat":53.35209,"pop":215},{"id":2758401,"name":"Breda","alt":["Breda khot","Brehda","Brenta","Brigita","Bréda","GLZ","be rda","beuleda","brda","brdh","breda","bryda","bu lei da","bureda","Μπρέντα","Бреда","Бреда хот","Брэда","Բրեդա","ברדה","بردا","بريدا","بریڈا","เบรดา","ბრედა","ブレダ","布雷达","브레다"],"lon":4.77596,"lat":51.58656,"pop":167673},{"id":2758397,"name":"Bredelaar","lon":5.88194,"lat":51.91083,"pop":0},{"id":2758393,"name":"Bredevoort","alt":["Bradford","Bredevort","Breevoort","Brādford","bu lei de fu te","Бредеворт","布雷德福特"],"lon":6.62083,"lat":51.94167,"pop":1405},{"id":2758391,"name":"Bredeweg","alt":["Breedeweg"],"lon":5.94189,"lat":51.76019,"pop":2500},{"id":2758390,"name":"Brediuskwartier","lon":5.17301,"lat":52.28061,"pop":0},{"id":2758386,"name":"Breede","lon":6.5375,"lat":53.38583,"pop":0},{"id":2758382,"name":"Breedenbroek","lon":6.47222,"lat":51.87333,"pop":440},{"id":2758380,"name":"Breedeveen","lon":5.41806,"lat":52.02333,"pop":65},{"id":2758376,"name":"Breedschot","lon":4.7125,"lat":51.5075,"pop":0},{"id":2758374,"name":"Breehees","lon":5.06806,"lat":51.49833,"pop":0},{"id":2758369,"name":"Breemortel","lon":5.81111,"lat":51.44333,"pop":0},{"id":2758366,"name":"Breeveld","lon":4.93056,"lat":52.10417,"pop":100},{"id":2758360,"name":"Breezand","lon":4.80417,"lat":52.89,"pop":3370},{"id":2758361,"name":"Breezand","lon":3.62222,"lat":51.58583,"pop":30},{"id":2758357,"name":"Bregtdorp","lon":4.69583,"lat":52.71167,"pop":0},{"id":6639645,"name":"Brekkenpolder","lon":5.69246,"lat":52.85327,"pop":0},{"id":2758354,"name":"Breklenkamp","lon":6.98611,"lat":52.45417,"pop":0},{"id":2758350,"name":"Brem","lon":5.14722,"lat":51.5975,"pop":0},{"id":2758351,"name":"Brem","lon":5.04167,"lat":51.53083,"pop":0},{"id":2758349,"name":"Bremberg","lon":4.68333,"lat":51.56667,"pop":0},{"id":2758348,"name":"Brembosch","lon":4.43333,"lat":51.49583,"pop":0},{"id":2758341,"name":"Breskens","alt":["Bresjes","Брескенс"],"lon":3.55556,"lat":51.39583,"pop":4335},{"id":2758338,"name":"Breudijk","lon":4.96111,"lat":52.1025,"pop":0},{"id":2758336,"name":"Breugel","lon":5.51111,"lat":51.5175,"pop":1055},{"id":2758333,"name":"Breukelen","alt":["beuloekeolleon","ბროიკელენი","브뢰컬런"],"lon":5.00139,"lat":52.17417,"pop":14498},{"id":2758334,"name":"Breukelen","lon":5.31667,"lat":51.58333,"pop":0},{"id":2758329,"name":"Breukeleveen","alt":["Breukelerveen"],"lon":5.06944,"lat":52.17583,"pop":200},{"id":2758327,"name":"Breust","lon":5.71074,"lat":50.78109,"pop":0},{"id":6544756,"name":"Breyvin","lon":5.71806,"lat":51.18833,"pop":0},{"id":2758326,"name":"Brielle","alt":["Brile","Brille","Bryle","Den Briel","brylh","bu li lei","Брилле","Брыле","Брілле","Բրիլե","بريله","布里勒"],"lon":4.1625,"lat":51.90167,"pop":2765},{"id":2758319,"name":"Brigdamme","lon":3.60556,"lat":51.51583,"pop":595},{"id":2758318,"name":"Brijdorpe","lon":3.87639,"lat":51.72083,"pop":0},{"id":2758317,"name":"Brillerij","lon":6.48194,"lat":53.2875,"pop":0},{"id":2758316,"name":"Briltil","alt":["De Bril"],"lon":6.38889,"lat":53.24167,"pop":490},{"id":2758315,"name":"Brinke","lon":6.67396,"lat":51.93824,"pop":0},{"id":2758314,"name":"Brinkheurne","alt":["Winterswijk Brinkheurne"],"lon":6.74306,"lat":51.95167,"pop":0},{"id":2758313,"name":"Brinkhoek","lon":6.12222,"lat":52.53583,"pop":595},{"id":2758311,"name":"Brinkhorst","lon":5.95167,"lat":52.21302,"pop":3070},{"id":2758310,"name":"Brinkmanshoek","lon":6.49583,"lat":52.085,"pop":0},{"id":2758309,"name":"Britsum","lon":5.78576,"lat":53.25428,"pop":910},{"id":2758306,"name":"Britswerd","alt":["Britswert"],"lon":5.67564,"lat":53.11247,"pop":0},{"id":2757245,"name":"Broek","lon":6.02639,"lat":51.39,"pop":0},{"id":2758293,"name":"Broek","lon":6.15402,"lat":51.34698,"pop":0},{"id":2758294,"name":"Broek","lon":6.425,"lat":53.39333,"pop":0},{"id":2758295,"name":"Broek","lon":5.77795,"lat":52.9832,"pop":200},{"id":2758296,"name":"Broek","lon":4.97222,"lat":51.9325,"pop":0},{"id":2758297,"name":"Broek","alt":["'t Broek"],"lon":5.55972,"lat":51.52583,"pop":0},{"id":2758298,"name":"Broek","lon":6.06389,"lat":51.44333,"pop":0},{"id":2758299,"name":"Broek","alt":["'t Broek"],"lon":6.04583,"lat":51.29667,"pop":0},{"id":2758300,"name":"Broek","lon":5.91557,"lat":50.78421,"pop":0},{"id":2758258,"name":"Broek in Waterland","alt":["Broek"],"lon":4.99583,"lat":52.43417,"pop":2655},{"id":2758245,"name":"Broek op Langedijk","alt":["Broek op Langendijk"],"lon":4.80556,"lat":52.67417,"pop":5695},{"id":2758247,"name":"Broek-Noord","lon":5.77722,"lat":52.98715,"pop":0},{"id":2758290,"name":"Broekdijk","lon":5.93333,"lat":52.45,"pop":825},{"id":2758288,"name":"Broekeind","lon":6.14028,"lat":51.42833,"pop":0},{"id":2758282,"name":"Broekenseind","lon":5.3,"lat":51.39583,"pop":0},{"id":2758279,"name":"Broekerhaven","lon":5.25278,"lat":52.68833,"pop":850},{"id":2758275,"name":"Broekhem","alt":["Brokem"],"lon":5.82069,"lat":50.87119,"pop":1960},{"id":2758274,"name":"Broekheurne","lon":6.86667,"lat":52.18,"pop":0},{"id":2758273,"name":"Broekhin","lon":6.00806,"lat":51.20519,"pop":0},{"id":2758272,"name":"Broekhoek","lon":5.51428,"lat":51.73405,"pop":0},{"id":2758271,"name":"Broekhorn","lon":4.82083,"lat":52.6725,"pop":220},{"id":2758268,"name":"Broekhoven","lon":5.09175,"lat":51.54801,"pop":7420},{"id":2758269,"name":"Broekhoven","lon":5.38056,"lat":51.3625,"pop":0},{"id":2758270,"name":"Broekhoven","lon":5.74861,"lat":50.93,"pop":0},{"id":2758263,"name":"Broekhuizen","lon":6.26667,"lat":52.695,"pop":120},{"id":2758264,"name":"Broekhuizen","lon":6.2125,"lat":52.52083,"pop":0},{"id":2758265,"name":"Broekhuizen","lon":5.4,"lat":52.01667,"pop":0},{"id":2758266,"name":"Broekhuizen","lon":6.16389,"lat":51.48583,"pop":610},{"id":2758267,"name":"Broekhuizen","lon":6.08171,"lat":50.9125,"pop":0},{"id":2758260,"name":"Broekhuizenvorst","alt":["Broekhuizervorst"],"lon":6.15694,"lat":51.495,"pop":870},{"id":2758252,"name":"Broekkant","lon":5.83333,"lat":51.8,"pop":0},{"id":2758253,"name":"Broekkant","lon":5.83472,"lat":51.6625,"pop":0},{"id":2758254,"name":"Broekkant","lon":5.65278,"lat":51.53583,"pop":0},{"id":2758255,"name":"Broekkant","lon":5.65,"lat":51.42917,"pop":0},{"id":2758256,"name":"Broekkant","lon":5.58889,"lat":51.28333,"pop":0},{"id":2758250,"name":"Broekland","lon":6.19861,"lat":52.36083,"pop":0},{"id":2758251,"name":"Broekland","lon":6.00712,"lat":52.26705,"pop":0},{"id":2758249,"name":"Broeklanden","lon":5.97673,"lat":51.95695,"pop":0},{"id":2758246,"name":"Broekoord","lon":5.2,"lat":52.75,"pop":0},{"id":2758241,"name":"Broeksittard","lon":5.89511,"lat":51.0029,"pop":1550},{"id":2758239,"name":"Broeksterwâld","alt":["Broek","Broeksterwald","Broeksterwoude","De Broek"],"lon":5.99648,"lat":53.27466,"pop":1115},{"id":2758237,"name":"Broekveld","lon":6.06667,"lat":50.9,"pop":0},{"id":2758234,"name":"Broekzijde","lon":6.73651,"lat":52.35246,"pop":0},{"id":2758235,"name":"Broekzijde","lon":5.17778,"lat":51.52167,"pop":0},{"id":2758744,"name":"Broerdijk","lon":5.07222,"lat":52.72667,"pop":0},{"id":2758227,"name":"Brommelen","lon":5.73472,"lat":50.91167,"pop":0},{"id":2758228,"name":"Brommelen","lon":5.90972,"lat":50.9075,"pop":0},{"id":2758225,"name":"Brongerga","alt":["Brongergea"],"lon":5.98333,"lat":52.95,"pop":0},{"id":2758224,"name":"Bronkhorst","lon":6.17917,"lat":52.07583,"pop":95},{"id":6544830,"name":"Bronkhorst","lon":5.05,"lat":51.78167,"pop":0},{"id":2758222,"name":"Bronneger","lon":6.81528,"lat":52.94667,"pop":110},{"id":2758221,"name":"Bronnegerveen","lon":6.8375,"lat":52.955,"pop":0},{"id":2758220,"name":"Bronsbergen","alt":["Baronsbergen","Bronsberg","Brunsbergen"],"lon":6.2,"lat":52.11667,"pop":0},{"id":2758219,"name":"Bronsveen","lon":7.03889,"lat":53.10167,"pop":0},{"id":2758213,"name":"Brouwershaven","lon":3.9125,"lat":51.72667,"pop":1275},{"id":2758210,"name":"Brouwershoek","lon":6.46263,"lat":52.10203,"pop":0},{"id":2758209,"name":"Brouwhuis","lon":5.70139,"lat":51.46,"pop":0},{"id":2758207,"name":"Bruchem","lon":5.23611,"lat":51.78667,"pop":1370},{"id":2758206,"name":"Brucht","lon":6.60972,"lat":52.55083,"pop":285},{"id":2758205,"name":"Bruchterveld","lon":6.66111,"lat":52.53083,"pop":0},{"id":2758204,"name":"Brug","lon":5.61667,"lat":51.6,"pop":0},{"id":2758200,"name":"Bruggen","lon":5.37361,"lat":51.72583,"pop":0},{"id":2758201,"name":"Bruggen","lon":5.77917,"lat":51.69917,"pop":0},{"id":2758198,"name":"Bruggenmors","alt":["Bruggemors"],"lon":6.85306,"lat":52.23354,"pop":0},{"id":2758197,"name":"Bruggerhuizen","lon":5.48056,"lat":51.32833,"pop":0},{"id":2758189,"name":"Bruinehaar","lon":6.70417,"lat":52.47,"pop":0},{"id":2758186,"name":"Bruinisse","lon":4.09444,"lat":51.66167,"pop":3100},{"id":2758181,"name":"Bruisterbosch","lon":5.80278,"lat":50.80583,"pop":50},{"id":2758180,"name":"Brukske","lon":5.9927,"lat":51.52101,"pop":4955},{"id":2758179,"name":"Brumholt","lon":5.95417,"lat":51.27083,"pop":0},{"id":6621517,"name":"Brummelhof","lon":5.96789,"lat":52.20503,"pop":3455},{"id":2758177,"name":"Brummen","alt":["Бруммен"],"lon":6.15556,"lat":52.09,"pop":21344},{"id":2758175,"name":"Brunnepe","lon":5.90343,"lat":52.56185,"pop":3780},{"id":2758174,"name":"Brunssum","alt":["Brjunssume","Broensem","Brunsum","Брюнссуме"],"lon":5.97083,"lat":50.94667,"pop":29254},{"id":2758171,"name":"Brunsting","lon":6.48889,"lat":52.87083,"pop":85},{"id":2758168,"name":"Bruntinge","lon":6.58333,"lat":52.81667,"pop":0},{"id":2758167,"name":"Buchten","lon":5.80972,"lat":51.04333,"pop":2015},{"id":2758166,"name":"Budel","alt":["Buul"],"lon":5.575,"lat":51.27167,"pop":7895},{"id":2758164,"name":"Budel-Dorplein","alt":["Dorplein","Dorpplein"],"lon":5.5875,"lat":51.23667,"pop":1540},{"id":2758163,"name":"Budel-Schoot","alt":["Groot Schoot","Groote Schoot"],"lon":5.56528,"lat":51.2475,"pop":1860},{"id":2758162,"name":"Budschop","lon":5.75898,"lat":51.28511,"pop":1550},{"id":2758161,"name":"Buggenum","alt":["Bruggenum","Buggenem"],"lon":5.98194,"lat":51.2325,"pop":0},{"id":2758159,"name":"Buiksloot","alt":["Banne Buiksloot"],"lon":4.91896,"lat":52.40807,"pop":0},{"id":2758158,"name":"Buikslotermeer","lon":4.95,"lat":52.4,"pop":0},{"id":2758157,"name":"Buikstede","lon":6.2913,"lat":53.24154,"pop":0},{"id":2758156,"name":"Buinen","lon":6.83611,"lat":52.93083,"pop":750},{"id":2758154,"name":"Buinerveen","lon":6.87917,"lat":52.93667,"pop":430},{"id":2758143,"name":"Buitenhof","lon":4.33974,"lat":51.99289,"pop":0},{"id":2758140,"name":"Buitenhuizen","lon":6.76513,"lat":53.18369,"pop":0},{"id":2758141,"name":"Buitenhuizen","lon":6.25278,"lat":52.71583,"pop":0},{"id":2758142,"name":"Buitenhuizen","lon":4.7076,"lat":52.43132,"pop":0},{"id":2758138,"name":"Buitenkaag","lon":4.55972,"lat":52.22083,"pop":435},{"id":2758131,"name":"Buitenpost","alt":["Butenpost","Bûtenpost"],"lon":6.14483,"lat":53.25166,"pop":5120},{"id":2758128,"name":"Buitenstverlaat","alt":["Buitenstvallaat","Butenstferlaat","Bûtenstferlaat"],"lon":6.04539,"lat":53.10403,"pop":0},{"id":2758125,"name":"Buitenveldert","lon":4.87518,"lat":52.33093,"pop":0},{"id":2758122,"name":"Bulkemsbroek","lon":5.96389,"lat":50.83083,"pop":0},{"id":2758121,"name":"Bulkenaar","lon":4.42222,"lat":51.51583,"pop":0},{"id":2758119,"name":"Bullenkamp","lon":5.77917,"lat":51.78583,"pop":0},{"id":2758114,"name":"Bultinge","lon":6.44167,"lat":52.775,"pop":0},{"id":2758111,"name":"Bunde","lon":5.73194,"lat":50.89667,"pop":5500},{"id":2758108,"name":"Bunne","lon":6.53333,"lat":53.1175,"pop":130},{"id":2758106,"name":"Bunnik","lon":5.19861,"lat":52.06667,"pop":6315},{"id":2758104,"name":"Bunschoten","alt":["Bunschoten-Spakenburg","Bunskoat","Bunsxoten","bwnskhwtn","Բունշխոտեն","بونسخوتن"],"lon":5.37884,"lat":52.24304,"pop":3015},{"id":2758102,"name":"Bunt","alt":["De Bund","De Bunt"],"lon":5.33333,"lat":52.15,"pop":0},{"id":2758895,"name":"Burdaard","alt":["Birdaard"],"lon":5.87897,"lat":53.29421,"pop":1166},{"id":2758096,"name":"Buren","alt":["Bueren"],"lon":5.79906,"lat":53.44717,"pop":710},{"id":2758097,"name":"Buren","alt":["Bjuren","bi lun","bwryn","Бюрен","Բուրեն","بورين","比倫"],"lon":5.33194,"lat":51.91167,"pop":0},{"id":2758091,"name":"Burgemeester Beinsdorp","lon":7.07917,"lat":52.8625,"pop":370},{"id":7870374,"name":"Burgemeesterswijk","lon":5.89597,"lat":51.98943,"pop":2850},{"id":2758089,"name":"Burgerbrug","lon":4.70278,"lat":52.74833,"pop":560},{"id":2758088,"name":"Burgerenk","lon":5.96958,"lat":52.34633,"pop":0},{"id":2758086,"name":"Burgersdijk","alt":["Burgerdijk"],"lon":4.26111,"lat":51.96833,"pop":0},{"id":2758085,"name":"Burgerveen","lon":4.68194,"lat":52.24,"pop":315},{"id":2758084,"name":"Burgervlotbrug","lon":4.68194,"lat":52.75333,"pop":205},{"id":2758081,"name":"Burgh","alt":["Burg","Бург"],"lon":3.73333,"lat":51.68917,"pop":730},{"id":8335037,"name":"Burgh-Haamstede","lon":3.73677,"lat":51.6952,"pop":0},{"id":2758078,"name":"Burghsluis","alt":["Burgsluis"],"lon":3.75,"lat":51.67833,"pop":0},{"id":2758076,"name":"Burgt","lon":5.68056,"lat":51.6075,"pop":0},{"id":2759103,"name":"Burgum","alt":["Bergum"],"lon":5.99009,"lat":53.19243,"pop":9720},{"id":2758075,"name":"Burgwerd","lon":5.54621,"lat":53.08799,"pop":255},{"id":2758073,"name":"Burum","lon":6.22942,"lat":53.2734,"pop":525},{"id":2758071,"name":"Bus","lon":5.59167,"lat":51.7,"pop":0},{"id":2758072,"name":"Bus","lon":5.49722,"lat":51.595,"pop":0},{"id":2758070,"name":"Busch en Dam","lon":4.72917,"lat":52.49833,"pop":0},{"id":2758068,"name":"Bussel","lon":5.71389,"lat":51.41917,"pop":0},{"id":2758067,"name":"Busselte","lon":6.19722,"lat":52.765,"pop":0},{"id":2758066,"name":"Bussereind","lon":6.05139,"lat":51.26333,"pop":115},{"id":2758065,"name":"Bussloo","lon":6.13056,"lat":52.1975,"pop":90},{"id":2758064,"name":"Bussum","alt":["Bjussjum","Busum","bu sen","bwswm","Бюссюм","Բուսում","بوسوم","布森"],"lon":5.16111,"lat":52.27333,"pop":31334},{"id":2758058,"name":"Butterhuizen","lon":4.81667,"lat":52.65,"pop":0},{"id":2758057,"name":"Buttinga","alt":["Buttinge"],"lon":6.27804,"lat":52.97966,"pop":0},{"id":2758056,"name":"Buttinge","lon":3.57361,"lat":51.51833,"pop":0},{"id":2758052,"name":"Buurmalsen","lon":5.29444,"lat":51.89167,"pop":685},{"id":2758050,"name":"Buurse","lon":6.83056,"lat":52.14667,"pop":0},{"id":2758045,"name":"Buurtje","lon":4.925,"lat":51.82417,"pop":0},{"id":2758043,"name":"Buurtsdijk","lon":5.42917,"lat":52.20083,"pop":0},{"id":2758042,"name":"Buweklooster","alt":["Bouwekleaster"],"lon":6.12678,"lat":53.20138,"pop":0},{"id":2758041,"name":"Buytenwegh de Leyens","lon":4.485,"lat":52.07077,"pop":0},{"id":2758038,"name":"Cabauw","alt":["Kabauw"],"lon":4.89861,"lat":51.96417,"pop":730},{"id":2758035,"name":"Cadier en Keer","alt":["Cadier","Kadier","Kadier en Keer"],"lon":5.76528,"lat":50.82833,"pop":0},{"id":2758033,"name":"Cadzand","alt":["Casant","Kadzand","Kezand"],"lon":3.40833,"lat":51.36833,"pop":445},{"id":2758032,"name":"Cadzand-Bad","alt":["Kadzand-Bad"],"lon":3.38611,"lat":51.37667,"pop":185},{"id":2758030,"name":"Calfven","lon":4.31806,"lat":51.41,"pop":430},{"id":2758029,"name":"Californië","lon":6.10694,"lat":51.42167,"pop":0},{"id":6544777,"name":"Californië","lon":5.23472,"lat":51.7475,"pop":0},{"id":2758027,"name":"Callantsoog","alt":["Kallensoog"],"lon":4.69583,"lat":52.84,"pop":2420},{"id":6544721,"name":"Caluna","lon":5.86806,"lat":51.3,"pop":0},{"id":6888798,"name":"Calveen","lon":5.39248,"lat":52.19688,"pop":130},{"id":2758023,"name":"Camerig","lon":5.93194,"lat":50.7675,"pop":0},{"id":6324403,"name":"Camminghaburen","lon":5.84318,"lat":53.20973,"pop":11500},{"id":2758020,"name":"Camperduin","alt":["Camp"],"lon":4.65139,"lat":52.725,"pop":250},{"id":2758013,"name":"Capelle","alt":["'s Grevelduin Kapelle","'s Grevelduin-Capelle"],"lon":4.98472,"lat":51.69167,"pop":0},{"id":2758012,"name":"Capelle aan den IJssel","alt":["Capelle","Capelle a/d IJssel","Capelle a/d Yssel","Capelle aan de IJssel","Capelle aan de Yssel","Capelle aan den Ijssel","Capelle aan den Yssel","Kapele an den Eysel","Kapelle","Kapelle-an-den-Ehjssel","ai se er he pan ka pei lei","ka pe lex xan dex xi seil","kabyla an dn aysl","kapelleoanden-eiseol","Капелле-ан-ден-Эйссел","Կապելե ան դեն Էյսել","كابيلا آن دن آيسل","کاپله ان‌دن ایسل","กาเปเลออานเดอไอเซิล","艾瑟尔河畔卡佩勒","카펠러안덴에이설"],"lon":4.57778,"lat":51.92917,"pop":65255},{"id":2758010,"name":"Capelle-Oostgaarde","lon":4.60117,"lat":51.92889,"pop":0},{"id":2758007,"name":"Capelle-West","lon":4.56667,"lat":51.91667,"pop":2400},{"id":2758001,"name":"Carnisse","alt":["Carnisselande","Garnisse","Karnisse"],"lon":4.47758,"lat":51.88932,"pop":11225},{"id":2757997,"name":"Cartils","lon":5.90833,"lat":50.82083,"pop":0},{"id":2757996,"name":"Castelré","alt":["Castelre","Kastelree"],"lon":4.78333,"lat":51.42417,"pop":0},{"id":2757994,"name":"Castenray","alt":["Castenraai","Castenraij","Kastenraai"],"lon":6.03472,"lat":51.48917,"pop":775},{"id":2757993,"name":"Casteren","alt":["Kasteren"],"lon":5.2375,"lat":51.39667,"pop":990},{"id":6544798,"name":"Castert","lon":5.75417,"lat":51.21583,"pop":0},{"id":2757991,"name":"Castricum","alt":["Kastrikjum","Kastrikum","ka si te li ke mu","kastrkwm","kasutorikumu","Кастрикюм","Կաստրիկում","كاستركوم","カストリクム","卡斯特里克姆"],"lon":4.66944,"lat":52.54833,"pop":35256},{"id":2757989,"name":"Castricum aan Zee","lon":4.60972,"lat":52.55667,"pop":0},{"id":2757987,"name":"Catarinadal","lon":4.65,"lat":51.46667,"pop":0},{"id":2757979,"name":"Catrijp","alt":["Catryp","Katrijp"],"lon":4.68194,"lat":52.715,"pop":305},{"id":2757978,"name":"Catsop","alt":["Katsep"],"lon":5.76667,"lat":50.93917,"pop":535},{"id":2757977,"name":"Cattenbroek","alt":["Kattenbroek"],"lon":4.93611,"lat":52.06583,"pop":0},{"id":2757974,"name":"Cellemuiden","lon":6.0625,"lat":52.62667,"pop":40},{"id":7870526,"name":"Centre","lon":5.90773,"lat":51.98139,"pop":0},{"id":2757973,"name":"Centrum","lon":4.38333,"lat":51.46667,"pop":0},{"id":11525101,"name":"Centrum","lon":4.30977,"lat":52.07815,"pop":0},{"id":2757971,"name":"Ceresdorp","lon":6.97322,"lat":52.96601,"pop":950},{"id":2757969,"name":"Chaam","lon":4.86111,"lat":51.50583,"pop":2805},{"id":2757966,"name":"Chaamdijk","lon":4.83889,"lat":51.4975,"pop":0},{"id":2757963,"name":"Charlois","lon":4.46989,"lat":51.88984,"pop":0},{"id":6619678,"name":"Chevremont","alt":["Chèvremont","Geitberg"],"lon":6.05981,"lat":50.87554,"pop":3160},{"id":2757956,"name":"Cillaarshoek","lon":4.54722,"lat":51.77417,"pop":210},{"id":2757951,"name":"Clinge","alt":["Klinge"],"lon":4.08889,"lat":51.27083,"pop":0},{"id":2757944,"name":"Coelhorst","alt":["Koelhorst"],"lon":5.34566,"lat":52.18162,"pop":105},{"id":2757942,"name":"Coendersborg","lon":6.58944,"lat":53.1941,"pop":3075},{"id":2757938,"name":"Coevering","lon":5.57463,"lat":51.41742,"pop":5290},{"id":2757937,"name":"Coevorden","alt":["Koevorden","Kuvorden","ku fu er deng","Куворден","Կուվորդեն","庫福爾登"],"lon":6.74046,"lat":52.66103,"pop":14600},{"id":2757932,"name":"Coldenhove","lon":6.04861,"lat":52.0925,"pop":140},{"id":2757931,"name":"Colijnsplaat","lon":3.84861,"lat":51.59917,"pop":1485},{"id":2757928,"name":"Collendoorn","alt":["Kollendoorn"],"lon":6.60417,"lat":52.59417,"pop":350},{"id":2757927,"name":"Collendoornerveen","lon":6.59167,"lat":52.59333,"pop":0},{"id":2757925,"name":"Colmont","lon":5.93194,"lat":50.8525,"pop":80},{"id":2757924,"name":"Colmschate","alt":["Kolmschate"],"lon":6.22917,"lat":52.245,"pop":0},{"id":2757923,"name":"Colonjes","alt":["Colonies"],"lon":5.93333,"lat":51.76667,"pop":0},{"id":2757922,"name":"Commandeurs","lon":4.65843,"lat":52.50902,"pop":2595},{"id":2757921,"name":"Commissiepolle","lon":5.79412,"lat":52.86787,"pop":0},{"id":6621519,"name":"Componistenkwartier","lon":5.96609,"lat":52.18977,"pop":3615},{"id":7115205,"name":"Corlaer","lon":5.46535,"lat":52.21639,"pop":2700},{"id":2757906,"name":"Cornwerd","alt":["Koarnwert"],"lon":5.39085,"lat":53.08299,"pop":90},{"id":2757902,"name":"Cortenoever","alt":["Kortenoever"],"lon":6.19474,"lat":52.10777,"pop":210},{"id":2757899,"name":"Cothen","alt":["Koten"],"lon":5.30833,"lat":51.99667,"pop":2765},{"id":2757896,"name":"Cottessen","lon":5.94583,"lat":50.76083,"pop":0},{"id":2755395,"name":"Couwelaar","lon":4.80694,"lat":51.53583,"pop":0},{"id":2757894,"name":"Covik","lon":6.20135,"lat":52.07439,"pop":0},{"id":2757892,"name":"Crabbehof","lon":4.66584,"lat":51.79049,"pop":0},{"id":2757893,"name":"Crailo","alt":["Crailoo","Kraailoo"],"lon":5.20417,"lat":52.26917,"pop":395},{"id":2757890,"name":"Cranendonck","alt":["Kranedonk"],"lon":5.58889,"lat":51.30417,"pop":19966},{"id":2757888,"name":"Crapoel","lon":5.87917,"lat":50.79417,"pop":0},{"id":2757887,"name":"Craubeek","lon":5.89444,"lat":50.87583,"pop":195},{"id":2757886,"name":"Creil","lon":5.65972,"lat":52.76417,"pop":0},{"id":2755307,"name":"Crixhoek","lon":5.69722,"lat":51.1875,"pop":0},{"id":2757880,"name":"Crob","lon":5.19306,"lat":51.81667,"pop":0},{"id":2757879,"name":"Cromvoirt","alt":["Crummert","Crumvoert"],"lon":5.23194,"lat":51.66083,"pop":700},{"id":2757877,"name":"Croy","lon":5.62083,"lat":51.49583,"pop":0},{"id":2757875,"name":"Cruquius","lon":4.63472,"lat":52.33583,"pop":695},{"id":2757874,"name":"Cuijk","alt":["Ceuclum","Cuyk","Kauk","Kuic","Kuk","Kuuk","Kuyc","Kuyk","kawk","Կաուկ","كاوك"],"lon":5.87917,"lat":51.73083,"pop":3610},{"id":2757872,"name":"Culemborg","alt":["Culembourg","Kuilenburg","Kulemborg","Kulemborx","kwlmbwrkh","qu lun bo he","Кулемборг","Կուլեմբորխ","كولمبورخ","屈伦博赫"],"lon":5.22778,"lat":51.955,"pop":26826},{"id":2757442,"name":"D’ Ekker","lon":5.40309,"lat":51.41373,"pop":0},{"id":2757867,"name":"Daarle","lon":6.5375,"lat":52.43417,"pop":855},{"id":2757866,"name":"Daarlerveen","lon":6.57639,"lat":52.4425,"pop":0},{"id":2757862,"name":"Dal","lon":5.9125,"lat":50.78917,"pop":0},{"id":2757861,"name":"Daland","lon":5.90972,"lat":51.53583,"pop":0},{"id":2757860,"name":"Dale","lon":6.56528,"lat":51.9425,"pop":0},{"id":2757858,"name":"Dalem","lon":5.00972,"lat":51.8275,"pop":895},{"id":2757859,"name":"Dalem","lon":5.26111,"lat":51.3525,"pop":105},{"id":2757857,"name":"Dalen","lon":6.75556,"lat":52.69917,"pop":3295},{"id":2757855,"name":"Dalerend","lon":6.60922,"lat":52.68159,"pop":0},{"id":2757853,"name":"Dalerpeel","lon":6.65972,"lat":52.68,"pop":610},{"id":2757852,"name":"Dalerveen","lon":6.80697,"lat":52.69907,"pop":315},{"id":2757850,"name":"Dalfsen","alt":["Dal'fsen","Дальфсен"],"lon":6.25694,"lat":52.51167,"pop":26575},{"id":2757846,"name":"Dallingeweer","lon":7.06389,"lat":53.29417,"pop":0},{"id":2757845,"name":"Dalmsholte","alt":["Dalmsholt"],"lon":6.36389,"lat":52.47583,"pop":0},{"id":2757844,"name":"Dalvoorden","alt":["Dalvoorde"],"lon":6.51885,"lat":52.44405,"pop":0},{"id":2757842,"name":"Dam","lon":4.9125,"lat":52.89583,"pop":0},{"id":2757843,"name":"Dam","lon":6.03194,"lat":51.715,"pop":0},{"id":2757838,"name":"Damwâld","alt":["Damval'd","Damwald","Damwoude","Moarrewald","Moarrewâld","Murmerwoude","Дамвальд"],"lon":5.99785,"lat":53.29046,"pop":5560},{"id":2757837,"name":"Daniken","lon":5.85,"lat":50.96667,"pop":0},{"id":2757835,"name":"Dante","lon":6.4089,"lat":52.5244,"pop":0},{"id":2757833,"name":"Dantumawoude","alt":["Dantumawald","Dantumawâld"],"lon":6.01667,"lat":53.3,"pop":0},{"id":12495525,"name":"Dapperbuurt","lon":4.92798,"lat":52.36222,"pop":9755},{"id":2757831,"name":"Darp","alt":["Derp"],"lon":6.20417,"lat":52.775,"pop":615},{"id":2757830,"name":"Darthuizen","lon":5.39028,"lat":52.0125,"pop":0},{"id":2757828,"name":"Dashorst","lon":5.48404,"lat":52.10938,"pop":0},{"id":2757826,"name":"Dassemus","lon":4.84861,"lat":51.515,"pop":0},{"id":2757823,"name":"Dauwendaele","lon":3.62624,"lat":51.49299,"pop":6220},{"id":2757818,"name":"De Aa","lon":6.66206,"lat":52.3832,"pop":0},{"id":2757819,"name":"De Aa","lon":5.65556,"lat":51.5925,"pop":0},{"id":2757820,"name":"De Aa","lon":5.35,"lat":51.28333,"pop":0},{"id":6951635,"name":"De Aker","lon":4.78025,"lat":52.35154,"pop":0},{"id":2757814,"name":"De Baan","lon":4.99028,"lat":51.73,"pop":0},{"id":2757813,"name":"De Baest","lon":5.25,"lat":51.48333,"pop":0},{"id":6956042,"name":"De Balije, Hoge Veld","lon":5.02277,"lat":52.08193,"pop":0},{"id":6956041,"name":"De Balije, Lage Veld","lon":5.02217,"lat":52.07877,"pop":0},{"id":2757809,"name":"De Banjaard","lon":3.67287,"lat":51.59174,"pop":0},{"id":2757808,"name":"De Banken","lon":4.75694,"lat":52.22167,"pop":0},{"id":2757803,"name":"De Beek","lon":5.75,"lat":52.25083,"pop":0},{"id":2757804,"name":"De Beek","alt":["Beek"],"lon":5.725,"lat":51.41833,"pop":0},{"id":2757801,"name":"De Beekkant","lon":5.90472,"lat":51.22613,"pop":0},{"id":2757797,"name":"De Belt","lon":6.53889,"lat":52.63833,"pop":75},{"id":2757796,"name":"De Bente","lon":6.75417,"lat":52.69,"pop":0},{"id":2757793,"name":"De Berg","lon":6.10139,"lat":52.80333,"pop":0},{"id":2757794,"name":"De Berg","lon":5.82083,"lat":51.67,"pop":0},{"id":6544757,"name":"De Berg","lon":5.70139,"lat":51.19833,"pop":0},{"id":2757791,"name":"De Bergen","lon":4.90944,"lat":51.68749,"pop":0},{"id":6544845,"name":"De Berk","lon":4.60556,"lat":51.54583,"pop":0},{"id":2757789,"name":"De Berken","lon":5.76806,"lat":51.42,"pop":0},{"id":2757788,"name":"De Biezen","lon":5.0924,"lat":51.97583,"pop":0},{"id":2757783,"name":"De Bilt","alt":["Nte Bilt","dy bylt","Ντε Μπιλτ","Դե Բիլտ","دي بيلت"],"lon":5.18056,"lat":52.11,"pop":8945},{"id":2757779,"name":"De Birkt","alt":["Birk"],"lon":5.33194,"lat":52.16167,"pop":180},{"id":2757777,"name":"De Blaak","lon":5.04465,"lat":51.54626,"pop":6005},{"id":2757773,"name":"De Blesse","alt":["Blesse"],"lon":6.04111,"lat":52.8428,"pop":710},{"id":2757772,"name":"De Blijnse","alt":["De Blynse"],"lon":5.44252,"lat":53.18968,"pop":0},{"id":2757765,"name":"De Blokken","lon":5.42553,"lat":53.1289,"pop":0},{"id":6544846,"name":"De Bocht","lon":4.33472,"lat":51.57333,"pop":0},{"id":2757762,"name":"De Boer","lon":5.80972,"lat":51.66917,"pop":0},{"id":2757758,"name":"De Bolt","lon":5.73056,"lat":51.7375,"pop":0},{"id":2757750,"name":"De Bosjes","lon":5.28056,"lat":51.94,"pop":0},{"id":6621535,"name":"De Bouwhof","lon":5.94704,"lat":52.18546,"pop":2380},{"id":2757746,"name":"De Bramert","lon":5.78333,"lat":50.98333,"pop":0},{"id":2757744,"name":"De Brand","lon":5.40862,"lat":52.18817,"pop":0},{"id":2757742,"name":"De Bree","lon":4.82778,"lat":52.08083,"pop":0},{"id":2757739,"name":"De Briel","alt":["Briel"],"lon":4.7,"lat":51.63333,"pop":0},{"id":2757733,"name":"De Bruil","lon":7.10972,"lat":52.875,"pop":0},{"id":2758192,"name":"De Bruil","alt":["Den Bruil"],"lon":6.45417,"lat":52.06833,"pop":0},{"id":2757730,"name":"De Buis","alt":["Buis"],"lon":4.6,"lat":51.46667,"pop":0},{"id":2757724,"name":"De Bult","alt":["Bult"],"lon":7.13056,"lat":53.15083,"pop":0},{"id":2757725,"name":"De Bult","alt":["De Bult  Friesland"],"lon":6.28929,"lat":52.95531,"pop":0},{"id":2757726,"name":"De Bult","lon":6.12917,"lat":52.81333,"pop":0},{"id":2757718,"name":"De Burgh","lon":5.49582,"lat":51.43052,"pop":0},{"id":2757715,"name":"De Bus","lon":5.38472,"lat":51.64333,"pop":0},{"id":2757716,"name":"De Bus","lon":5.42083,"lat":51.55917,"pop":0},{"id":2757713,"name":"De Buurt","lon":5.05833,"lat":52.70583,"pop":0},{"id":2757710,"name":"De Cocksdorp","alt":["Cocksdorp"],"lon":4.87083,"lat":53.15667,"pop":535},{"id":2757703,"name":"De Delle","alt":["De Dellen","Dellen"],"lon":6,"lat":52.4,"pop":0},{"id":6544848,"name":"De Dellen","lon":5.73889,"lat":51.68333,"pop":0},{"id":2757697,"name":"De Dennenhoek","lon":6.55457,"lat":52.17042,"pop":0},{"id":2757690,"name":"De Domp","lon":5.67716,"lat":53.03113,"pop":1925},{"id":2757688,"name":"De Donk","lon":4.7875,"lat":51.89333,"pop":0},{"id":2757686,"name":"De Dood","lon":4.5625,"lat":51.52167,"pop":0},{"id":2757685,"name":"De Doornakkers","alt":["Doornakkers"],"lon":5.50887,"lat":51.43844,"pop":6345},{"id":2757683,"name":"De Drait","lon":6.06791,"lat":53.09743,"pop":6310},{"id":6544754,"name":"De Driesprong","lon":4.25,"lat":52.01333,"pop":0},{"id":2757679,"name":"De Droo","alt":["Droo"],"lon":6.01817,"lat":51.94374,"pop":0},{"id":2757678,"name":"De Druif","lon":4.54028,"lat":51.65417,"pop":0},{"id":2757675,"name":"De Eeck","lon":4.03333,"lat":51.36667,"pop":0},{"id":2757671,"name":"De Eeuwsels","lon":5.66552,"lat":51.4984,"pop":0},{"id":2757663,"name":"De Elft","alt":["Elft"],"lon":5.73056,"lat":51.75,"pop":0},{"id":2757660,"name":"De Emmer","alt":["Groot Emmer"],"lon":6.16667,"lat":52.06667,"pop":0},{"id":2756109,"name":"De Eng","lon":6.00833,"lat":51.95667,"pop":0},{"id":2757657,"name":"De Engel","alt":["Engel"],"lon":4.5375,"lat":52.24167,"pop":645},{"id":2756993,"name":"De Falom","alt":["De Valom","Valom"],"lon":6.00643,"lat":53.26727,"pop":240},{"id":2757641,"name":"De Gaasten","alt":["Gaasten"],"lon":5.98493,"lat":53.11781,"pop":0},{"id":2755776,"name":"De Gagel","lon":5.76389,"lat":51.705,"pop":0},{"id":2757640,"name":"De Galhoek","alt":["Galhoeke"],"lon":6.05,"lat":53.08333,"pop":0},{"id":2757635,"name":"De Geeren","lon":4.79673,"lat":51.60768,"pop":0},{"id":2757631,"name":"De Gest","alt":["Gest"],"lon":5.02639,"lat":52.93,"pop":0},{"id":2755492,"name":"De Glind","alt":["Glind","Glinde","Glinder"],"lon":5.50694,"lat":52.12,"pop":320},{"id":2757627,"name":"De Glip","alt":["Glip"],"lon":4.61111,"lat":52.33083,"pop":1355},{"id":2757623,"name":"De Goorn","alt":["Goorn"],"lon":4.94722,"lat":52.62583,"pop":3510},{"id":2757622,"name":"De Gors","lon":4.95812,"lat":52.49638,"pop":0},{"id":2757619,"name":"De Greiden","lon":5.91366,"lat":52.9496,"pop":7470},{"id":2757617,"name":"De Grits","lon":5.56684,"lat":53.11622,"pop":0},{"id":2757616,"name":"De Groe","alt":["Groe"],"lon":3.90417,"lat":51.48083,"pop":0},{"id":2757613,"name":"De Groep","lon":5.50417,"lat":52.05167,"pop":0},{"id":2757608,"name":"De Groeve","alt":["Groeve"],"lon":6.76667,"lat":53.35,"pop":0},{"id":2757609,"name":"De Groeve","alt":["De Groeze","Groeve"],"lon":6.71528,"lat":53.11417,"pop":360},