[{"id":3241831,"name":"Abbedisso","alt":["Abbedissa"],"lon":5.01717,"lat":60.53844,"pop":0},{"id":3163600,"name":"Abelnes","alt":["Abelsnes"],"lon":6.64904,"lat":58.23982,"pop":0},{"id":3163598,"name":"Abelvær","alt":["Abelvaer"],"lon":11.18012,"lat":64.72944,"pop":0},{"id":9536906,"name":"Abrahamsplassen","lon":13.06697,"lat":66.6652,"pop":0},{"id":9537615,"name":"Adamsfjord","lon":26.63359,"lat":70.38059,"pop":0},{"id":12078339,"name":"Adamsrød","alt":["Adamsrod"],"lon":10.48874,"lat":59.32054,"pop":0},{"id":6355073,"name":"Adamstua","alt":["Adamstuen"],"lon":10.73445,"lat":59.93246,"pop":0},{"id":3163609,"name":"Aen","alt":["A","Aaen","Å"],"lon":9.75,"lat":62.98333,"pop":0},{"id":3163543,"name":"Afdal","lon":6.48333,"lat":60.73333,"pop":0},{"id":3163534,"name":"Aftræt","alt":["Aftraet","Aftret","Avtret"],"lon":10.96667,"lat":63.2,"pop":0},{"id":9537814,"name":"Aga","lon":5.24897,"lat":59.84507,"pop":0},{"id":3163524,"name":"Agdestein","lon":5.52361,"lat":59.86556,"pop":0},{"id":3163521,"name":"Aglapsvik","alt":["Aglapsvika"],"lon":18.21007,"lat":69.46237,"pop":0},{"id":3163519,"name":"Agle","lon":12.52288,"lat":64.27596,"pop":0},{"id":3163512,"name":"Agnefest","lon":7.04785,"lat":58.12313,"pop":0},{"id":3163510,"name":"Agnes","lon":10.03333,"lat":59.01667,"pop":0},{"id":9536783,"name":"Agåssæter","alt":["Agassaeter"],"lon":11.77537,"lat":60.85307,"pop":0},{"id":9536194,"name":"Áhkávuonnjárgga","alt":["Ahkavuonnjargga","Stefjordneset"],"lon":16.48028,"lat":68.208,"pop":0},{"id":780993,"name":"Aidejavre","alt":["Ai'dejav'ri","Aiddejavrre","Aidejavri","Ai’dejav’ri","Ajddejavrre","Áidejávri","Айддеяврре"],"lon":23.30405,"lat":68.75251,"pop":0},{"id":9537613,"name":"Aigir","alt":["Áigir"],"lon":25.06025,"lat":70.27211,"pop":0},{"id":780985,"name":"Áisaroaivi","alt":["Aisaroaivi"],"lon":24.10086,"lat":70.26904,"pop":0},{"id":9537344,"name":"Ájdevuolle","alt":["Ajdevuolle","Eidet"],"lon":16.3431,"lat":68.27178,"pop":0},{"id":9304018,"name":"Ajer","lon":11.06343,"lat":60.80685,"pop":0},{"id":9536370,"name":"Ájonjárga","alt":["Ajonjarga"],"lon":25.60588,"lat":69.4527,"pop":0},{"id":9537490,"name":"Ak'šumuot'ki","alt":["Ak'sumuot'ki","Aksomuotki","Ákšomuotki"],"lon":22.90254,"lat":68.9339,"pop":0},{"id":6940432,"name":"Aker brygge","lon":10.72504,"lat":59.90993,"pop":0},{"id":780972,"name":"Akkarfjord","alt":["Akkerfjord","Akkerfjorden"],"lon":23.40911,"lat":70.79474,"pop":0},{"id":780973,"name":"Akkarfjord","alt":["Akerfjord","Akkerfjord","Nesara","Nesära"],"lon":20.5,"lat":70.05,"pop":0},{"id":9536679,"name":"Akkarfjord","lon":23.64987,"lat":70.6122,"pop":0},{"id":9537635,"name":"Akkarfjord","alt":["Akkarfjord yt","Ytre Akkarfjord"],"lon":23.4219,"lat":70.78818,"pop":0},{"id":780965,"name":"Akkarvik","alt":["Akkervik"],"lon":20.49253,"lat":70.06407,"pop":0},{"id":8692901,"name":"Akkerhaugen","lon":9.25128,"lat":59.39509,"pop":0},{"id":9535935,"name":"Akksjøsætra","alt":["Akksjosaetra"],"lon":10.60492,"lat":61.34106,"pop":0},{"id":3163468,"name":"Akland","lon":9.05,"lat":58.73333,"pop":0},{"id":7626359,"name":"Aksdal","lon":5.44553,"lat":59.42408,"pop":0},{"id":3163434,"name":"Akse","lon":5.35,"lat":61.16667,"pop":0},{"id":9536622,"name":"Akselvoll","lon":6.69761,"lat":62.69763,"pop":0},{"id":3163429,"name":"Akset","lon":9.03333,"lat":63.63333,"pop":0},{"id":3163430,"name":"Akset","alt":["Aksaet","Aksæt"],"lon":8.97585,"lat":63.50335,"pop":0},{"id":3163421,"name":"Aksnes","lon":11.63575,"lat":63.8621,"pop":0},{"id":3163422,"name":"Aksnes","lon":6.21667,"lat":60.33333,"pop":0},{"id":9536884,"name":"Aksnes","lon":5.91294,"lat":62.07731,"pop":0},{"id":12078334,"name":"Albretskjær","alt":["Albretskjaer"],"lon":9.95977,"lat":59.11994,"pop":0},{"id":12078333,"name":"Alby","lon":10.35254,"lat":59.16341,"pop":0},{"id":3163401,"name":"Alden","lon":4.76667,"lat":61.31667,"pop":0},{"id":3163398,"name":"Aldra","lon":13.1,"lat":66.4,"pop":0},{"id":11844542,"name":"Alfaset","lon":10.85762,"lat":59.93098,"pop":0},{"id":11999158,"name":"Alfheim","lon":10.31899,"lat":59.47566,"pop":0},{"id":12078327,"name":"Alfheim","lon":10.08168,"lat":59.29704,"pop":0},{"id":9404491,"name":"Algarheim","lon":11.25274,"lat":60.14401,"pop":0},{"id":3163376,"name":"Algerøyna","alt":["Algeroy","Algeroyna","Algerøy","Algroy","Algroyna","Algrøy","Algrøyna"],"lon":4.95264,"lat":60.35946,"pop":0},{"id":3163377,"name":"Algrem","lon":11.25,"lat":60.15,"pop":0},{"id":3163369,"name":"Alleen","lon":7.0675,"lat":58.13768,"pop":0},{"id":3163345,"name":"Allmenningen","alt":["Almenning","Almenningen","Ålmenningen"],"lon":5.24167,"lat":61.91136,"pop":0},{"id":3163366,"name":"Allmenningen","alt":["Almenningen"],"lon":6.83333,"lat":60.7,"pop":0},{"id":3163365,"name":"Allstad","alt":["Alstad"],"lon":13.95,"lat":68.26667,"pop":0},{"id":3163360,"name":"Alm","lon":10.73333,"lat":60.61667,"pop":0},{"id":3163353,"name":"Almberg","lon":9.13333,"lat":63.05,"pop":0},{"id":11999157,"name":"Almedalen","lon":10.34525,"lat":59.46727,"pop":0},{"id":11845434,"name":"Almeløkka","alt":["Almelokka"],"lon":10.36596,"lat":59.67752,"pop":0},{"id":3163343,"name":"Almenningen","lon":11.98333,"lat":59.91667,"pop":0},{"id":3163331,"name":"Almlia","alt":["Almlien"],"lon":14.05,"lat":66.31667,"pop":0},{"id":3163332,"name":"Almlia","alt":["Almlien"],"lon":13.41667,"lat":66,"pop":0},{"id":3163323,"name":"Almus","lon":11.3,"lat":61.11667,"pop":0},{"id":3163356,"name":"Almås","alt":["Almaas","Almas"],"lon":10.58333,"lat":63.68333,"pop":0},{"id":3163357,"name":"Almås","alt":["Almaas","Almas"],"lon":10.88333,"lat":62.98333,"pop":0},{"id":9536117,"name":"Almåsen","alt":["Almasen"],"lon":11.27192,"lat":62.85075,"pop":0},{"id":11693836,"name":"Alna","lon":10.83023,"lat":59.92906,"pop":0},{"id":3224699,"name":"Alnes","lon":5.97551,"lat":62.48539,"pop":204},{"id":3163310,"name":"Alset","lon":8.75,"lat":60.01667,"pop":0},{"id":3163308,"name":"Alsgard","alt":["Alsgaarden"],"lon":13.31667,"lat":65.76667,"pop":0},{"id":3163305,"name":"Alsos","lon":14.81667,"lat":67.51667,"pop":0},{"id":3163298,"name":"Alstad","lon":8.7,"lat":63.38333,"pop":0},{"id":3224783,"name":"Alstad","lon":9.08333,"lat":63.31667,"pop":0},{"id":9016242,"name":"Alstad","lon":10.73769,"lat":63.58519,"pop":0},{"id":9304196,"name":"Alstad","lon":14.46926,"lat":67.27376,"pop":0},{"id":3163294,"name":"Alstahaug","lon":12.43333,"lat":65.9,"pop":0},{"id":3163287,"name":"Alsvik","lon":14.28333,"lat":67.18333,"pop":0},{"id":3163288,"name":"Alsvik","alt":["Alsvik i Ryfylke","Alsvika"],"lon":5.935,"lat":59.10056,"pop":0},{"id":3163290,"name":"Alsvåg","alt":["Alsvaag","Alsvag"],"lon":15.27971,"lat":68.90188,"pop":347},{"id":3131249,"name":"Alsåker","alt":["Alsaaker","Alsaker","Ytre Alsaaker","Ytre Alsaken","Ytre Alsaker","Ytre Alsåken","Ytre Alsåker"],"lon":6.50207,"lat":60.39123,"pop":0},{"id":847633,"name":"Alta","alt":["ALF","Alattio","Alta vald","Kommun Alta","a er ta","alta","aruta","Áltá","Алта","ألتا","التا","アルタ","阿尔塔","알타"],"lon":23.27165,"lat":69.96887,"pop":15094},{"id":780942,"name":"Alteidet","lon":22.09432,"lat":70.029,"pop":0},{"id":9404275,"name":"Alternes","lon":14.02149,"lat":66.30833,"pop":0},{"id":3163279,"name":"Altevik","alt":["Altvika"],"lon":16.67448,"lat":68.94329,"pop":0},{"id":3163269,"name":"Alvdal","alt":["Alvdal kommun","XJA"],"lon":10.63073,"lat":62.10766,"pop":2445},{"id":3163259,"name":"Alveim","alt":["Alvheim"],"lon":4.80556,"lat":60.60111,"pop":0},{"id":3163265,"name":"Alverstraumen","alt":["Alverstraum"],"lon":5.21878,"lat":60.57784,"pop":0},{"id":9536922,"name":"Alversund","lon":5.23495,"lat":60.57095,"pop":0},{"id":3163260,"name":"Alvestad","lon":16.28539,"lat":68.95332,"pop":0},{"id":3163261,"name":"Alvestad","lon":6.4,"lat":62.61667,"pop":0},{"id":3163262,"name":"Alvestad","lon":5.46667,"lat":59.23333,"pop":0},{"id":3163258,"name":"Alvheim","alt":["Alfheim"],"lon":11.03333,"lat":61.5,"pop":0},{"id":11722448,"name":"Alvheim","lon":10.77077,"lat":59.87792,"pop":0},{"id":3259391,"name":"Alværn","alt":["Alvaern","Alveren"],"lon":10.62778,"lat":59.82093,"pop":0},{"id":3163250,"name":"Alvøen","alt":["Alvoen","Alvoy","Alvøy"],"lon":5.19139,"lat":60.35361,"pop":0},{"id":9304381,"name":"Ambjørnrød","alt":["Ambjornrod"],"lon":10.92352,"lat":59.24962,"pop":0},{"id":12078318,"name":"Ambjørnrød","alt":["Ambjornrod"],"lon":10.05819,"lat":59.29694,"pop":0},{"id":3163234,"name":"Amdal","lon":5.94352,"lat":59.09147,"pop":0},{"id":3163225,"name":"Amla","lon":7.2704,"lat":61.18012,"pop":0},{"id":11693834,"name":"Ammerud","lon":10.87417,"lat":59.96232,"pop":0},{"id":9403926,"name":"Amundrød","alt":["Amundrod"],"lon":10.11415,"lat":59.1069,"pop":0},{"id":11844798,"name":"Amundrød","alt":["Amundrod"],"lon":9.87375,"lat":58.97884,"pop":0},{"id":11845393,"name":"Amundrød","alt":["Amundrod"],"lon":9.87387,"lat":58.98065,"pop":0},{"id":9404305,"name":"Andabeløy","alt":["Andabeloy"],"lon":6.67209,"lat":58.23198,"pop":0},{"id":3163159,"name":"Andalen","lon":5.6,"lat":61.46667,"pop":0},{"id":7626346,"name":"Andebu","lon":10.17653,"lat":59.30592,"pop":0},{"id":3163146,"name":"Andenes","alt":["ANX","an de nei si","andyns","Анденес","اندینس","安德內斯"],"lon":16.11939,"lat":69.31428,"pop":2694},{"id":780935,"name":"Andersby","alt":["Anderaby"],"lon":29.59655,"lat":70.09077,"pop":0},{"id":3163140,"name":"Andersdalen","lon":18.23333,"lat":69.26667,"pop":0},{"id":3163137,"name":"Anderskogen","alt":["Anderskog"],"lon":8.31667,"lat":63.45,"pop":0},{"id":3163127,"name":"Andfiskåa","alt":["Andfiska","Andfiskaa","Andfiskaaen","Andfiskå"],"lon":14.1,"lat":66.28333,"pop":0},{"id":3163117,"name":"Andgard","alt":["Andgaard"],"lon":9.33333,"lat":59.5,"pop":0},{"id":3163111,"name":"Andopen","lon":13.43333,"lat":68.1,"pop":0},{"id":3163095,"name":"Andrå","alt":["Andra","Andraa"],"lon":11.23333,"lat":61.56667,"pop":0},{"id":3163094,"name":"Andselv","alt":["Andselva","Annsehl'v","Аннсэльв"],"lon":18.51552,"lat":69.06554,"pop":741},{"id":3163093,"name":"Andset","lon":11.95,"lat":60.6,"pop":0},{"id":9404366,"name":"Andslimoen","lon":18.57949,"lat":69.0904,"pop":0},{"id":780931,"name":"Andsnes","alt":["Ansnes"],"lon":21.2369,"lat":70.23505,"pop":0},{"id":3163086,"name":"Andsnes","lon":11.4,"lat":64.46667,"pop":0},{"id":3163083,"name":"Andvik","lon":5.38333,"lat":60.81667,"pop":0},{"id":3163082,"name":"Andvikgrend","lon":5.36667,"lat":60.83333,"pop":0},{"id":3163081,"name":"Andvord","lon":8.55,"lat":61.83333,"pop":0},{"id":12078302,"name":"Andørka","alt":["Andorka"],"lon":10.27579,"lat":59.08545,"pop":0},{"id":9304389,"name":"Andøya","alt":["Andoya"],"lon":7.97632,"lat":58.11242,"pop":0},{"id":9536949,"name":"Andås","alt":["Andas"],"lon":7.98066,"lat":58.07752,"pop":0},{"id":3163060,"name":"Angelshaug","lon":5.2,"lat":61.9,"pop":0},{"id":3240793,"name":"Angeltveitsjøen","alt":["Angeltveitsjoen","Ongeltveit","Ongeltveitsjoen","Ongeltveitsjøen"],"lon":4.97083,"lat":60.405,"pop":0},{"id":3163059,"name":"Angen","lon":10.5325,"lat":64.40222,"pop":0},{"id":3163058,"name":"Angermoen","lon":13.45,"lat":66.01667,"pop":0},{"id":3163057,"name":"Angersnes","alt":["Angersneset"],"lon":12.68333,"lat":66.06667,"pop":0},{"id":3163053,"name":"Angvika","alt":["Angvik"],"lon":8.08604,"lat":62.89225,"pop":0},{"id":12078301,"name":"Anholt","lon":10.21672,"lat":59.24485,"pop":0},{"id":12078300,"name":"Anholt Sør","alt":["Anholt Sor"],"lon":10.21984,"lat":59.23959,"pop":0},{"id":12078299,"name":"Anholtengene","lon":10.20771,"lat":59.24344,"pop":0},{"id":12078296,"name":"Anildrød","alt":["Anildrod"],"lon":10.41505,"lat":59.19969,"pop":0},{"id":3163049,"name":"Ankenes","alt":["Ankenesstrand","Onka","Oŋká"],"lon":17.37821,"lat":68.42062,"pop":0},{"id":9304307,"name":"Ankerløkka","alt":["Ankerlokka"],"lon":11.07553,"lat":60.79988,"pop":0},{"id":9403972,"name":"Annijåki","alt":["Annejohka","Annijaki","Annijoki","Vestre Jakobselv","Ánnejohka"],"lon":29.33298,"lat":70.11149,"pop":0},{"id":11871251,"name":"Annisrød","alt":["Annisrod"],"lon":9.97237,"lat":59.01732,"pop":0},{"id":3241158,"name":"Anntveit","lon":5.32611,"lat":60.47917,"pop":0},{"id":3163030,"name":"Ansnes","alt":["Andsnaes","Andsnes","Andsnæs"],"lon":18.44838,"lat":69.49992,"pop":0},{"id":3163087,"name":"Ansnes","alt":["Andsnes"],"lon":8.99441,"lat":63.63793,"pop":0},{"id":11844848,"name":"Anvik Nedre","lon":9.95463,"lat":58.97696,"pop":0},{"id":11844849,"name":"Anvik Øvre","alt":["Anvik Ovre"],"lon":9.95866,"lat":58.97551,"pop":0},{"id":9536072,"name":"Anvissætrane","alt":["Anvisasvollan","Anvissaetrane","Anvisåsvollan"],"lon":11.12979,"lat":62.46483,"pop":0},{"id":3163016,"name":"Apalset","alt":["Apelset"],"lon":6.76667,"lat":62.48333,"pop":0},{"id":3163017,"name":"Apalset","alt":["Apildset"],"lon":5.35,"lat":61.48333,"pop":0},{"id":6693010,"name":"Apanes","lon":23.20965,"lat":69.95579,"pop":0},{"id":3163011,"name":"Apeland","lon":5.46667,"lat":59.36667,"pop":0},{"id":3163012,"name":"Apeland","lon":9.03333,"lat":58.88333,"pop":0},{"id":3163010,"name":"Apenes","lon":10.45024,"lat":59.42504,"pop":0},{"id":9304242,"name":"Apenesfjellet","lon":10.94123,"lat":59.21288,"pop":0},{"id":3163008,"name":"Apnaset","lon":5.3,"lat":61.5,"pop":0},{"id":781025,"name":"Áppošborri","alt":["Abbusbarri","Abbušbårri","Abelsborg","Apposborri"],"lon":28.79116,"lat":70.16338,"pop":0},{"id":3163004,"name":"Arabygdi","lon":7.72843,"lat":59.77528,"pop":0},{"id":3162966,"name":"Are","lon":5.43333,"lat":59.16667,"pop":0},{"id":3253430,"name":"Arefjord","lon":5.1425,"lat":60.35972,"pop":0},{"id":3162955,"name":"Arendal","alt":["Arehndal","Arendale","Arendales","Arendali vald","Arendalis","Arendals kommun","Arendalės","Kommun Arendal","XGD","a lun da er","alendal","arenadala","arendaru","arndal","Ārendāle","Арендал","Арэндал","أرندال","ارنڈل","আরেনডাল","アーレンダール","阿伦达尔","아렌달"],"lon":8.77253,"lat":58.46151,"pop":30916},{"id":780912,"name":"Arildseng","alt":["Areldseng"],"lon":21.29224,"lat":69.91715,"pop":0},{"id":9304414,"name":"Arna","alt":["Арна"],"lon":5.46824,"lat":60.42203,"pop":0},{"id":12078286,"name":"Arnadal","lon":10.25117,"lat":59.28988,"pop":0},{"id":3162922,"name":"Arnafjord","alt":["Arnefjord"],"lon":6.36667,"lat":61.01667,"pop":0},{"id":11747276,"name":"Arnatveit","lon":5.47548,"lat":60.40275,"pop":0},{"id":3162914,"name":"Arneberg","lon":10.8,"lat":61,"pop":0},{"id":3162915,"name":"Arneberg","lon":11.2,"lat":60.75,"pop":0},{"id":3162916,"name":"Arneberg","alt":["Арнеберг"],"lon":12.0556,"lat":60.56072,"pop":0},{"id":3162901,"name":"Arnes","lon":16.94415,"lat":68.35093,"pop":0},{"id":3225996,"name":"Arnevik","alt":["Arneviken"],"lon":8.91361,"lat":58.52722,"pop":0},{"id":780907,"name":"Arnøyhamn","alt":["Arnoyhamn"],"lon":20.63242,"lat":70.05272,"pop":0},{"id":9404370,"name":"Aronnes","lon":23.33146,"lat":69.9673,"pop":0},{"id":3162862,"name":"Arset","lon":5.38333,"lat":61.48333,"pop":0},{"id":3162848,"name":"Arstad","lon":14.55236,"lat":67.01989,"pop":0},{"id":3162850,"name":"Arstad","lon":11.13333,"lat":60.76667,"pop":0},{"id":3162843,"name":"Arstein","lon":5.2,"lat":61.35,"pop":0},{"id":11722414,"name":"Arveset","lon":10.85422,"lat":59.93086,"pop":0},{"id":3162785,"name":"Asak","lon":11.1,"lat":59.98333,"pop":0},{"id":3162786,"name":"Asak","lon":11.45,"lat":59.15,"pop":0},{"id":3162764,"name":"Asdal","lon":9.61667,"lat":59.08333,"pop":0},{"id":3162763,"name":"Asdøl","lon":10.3,"lat":59.88333,"pop":0},{"id":3162673,"name":"Asheim","lon":5.5,"lat":61.01667,"pop":0},{"id":3162665,"name":"Ask","lon":5.1,"lat":61.35,"pop":0},{"id":3162666,"name":"Ask","alt":["Ask i Nordhordaland"],"lon":5.21327,"lat":60.47873,"pop":0},{"id":3162667,"name":"Ask","lon":10.16799,"lat":60.13538,"pop":0},{"id":3162668,"name":"Ask","lon":11.0362,"lat":60.07131,"pop":6890},{"id":3162661,"name":"Askedalen","lon":7.95316,"lat":58.2594,"pop":0},{"id":11872216,"name":"Askedalen","lon":9.8523,"lat":59.02866,"pop":0},{"id":11872215,"name":"Askedalen Nedre","lon":9.8535,"lat":59.02784,"pop":0},{"id":3162659,"name":"Askeland","lon":5.12639,"lat":60.64556,"pop":0},{"id":3162660,"name":"Askeland","lon":5.46667,"lat":60.46667,"pop":0},{"id":3245245,"name":"Askeland","lon":5.43017,"lat":60.66015,"pop":0},{"id":9403911,"name":"Askenga","lon":10.47956,"lat":59.87205,"pop":0},{"id":3162657,"name":"Asker","alt":["Asker koezseg","Asker kommuna","Asker község","Askeri vald","Askeris","Askers kommun","Kommun Asker","XGU","a si ke er","asakera","aseukeleu","asuke","Аскер","আসকের","アスケー","阿斯克尔","아스케르"],"lon":10.43721,"lat":59.83333,"pop":61906},{"id":9536202,"name":"Askgrenda","lon":10.20257,"lat":59.81223,"pop":0},{"id":11845459,"name":"Askholtbakken","lon":10.19971,"lat":59.66478,"pop":0},{"id":3162652,"name":"Askilt","lon":9.13333,"lat":59.43333,"pop":0},{"id":3162650,"name":"Askim","lon":10.45,"lat":60.4,"pop":0},{"id":3162651,"name":"Askim","alt":["Ashim","Askimi vald","Kommun Askim","a xi mu","asim","askima","Ашим","আস্কিম","阿希姆","아심"],"lon":11.16286,"lat":59.58326,"pop":12482},{"id":11846447,"name":"Askim","lon":10.33985,"lat":59.41669,"pop":0},{"id":9536845,"name":"Askjem","lon":9.99637,"lat":63.50742,"pop":0},{"id":9537886,"name":"Askkroken","lon":10.91177,"lat":60.06586,"pop":0},{"id":3162644,"name":"Askland","lon":8.30194,"lat":58.87261,"pop":0},{"id":3162643,"name":"Asklund","lon":10.4,"lat":63.58333,"pop":0},{"id":3162642,"name":"Askosberget","lon":12.51667,"lat":60.35,"pop":0},{"id":3162632,"name":"Askvik","lon":5.38083,"lat":60.17722,"pop":0},{"id":3162634,"name":"Askvik","lon":6.13333,"lat":59.21667,"pop":0},{"id":3162633,"name":"Askvika","alt":["Askvik"],"lon":5.95,"lat":59.38333,"pop":0},{"id":7626364,"name":"Askvoll","lon":5.06224,"lat":61.34673,"pop":0},{"id":3162636,"name":"Askvåg","alt":["Askevag","Askvag"],"lon":7.08333,"lat":62.98333,"pop":0},{"id":9536939,"name":"Aslaksdal","lon":8.07806,"lat":58.26901,"pop":0},{"id":3162615,"name":"Asland","lon":8.66667,"lat":60.01667,"pop":0},{"id":9537868,"name":"Aslandgrendi","lon":8.65333,"lat":60.008,"pop":0},{"id":3162598,"name":"Asmundvåg","alt":["Asmundvaag","Asmundvag"],"lon":8.65,"lat":63.58333,"pop":0},{"id":12078216,"name":"Asnes","lon":10.24102,"lat":59.09666,"pop":0},{"id":3162588,"name":"Aspa","lon":7.9,"lat":63.01667,"pop":0},{"id":3224164,"name":"Aspaker","lon":16.53556,"lat":68.71889,"pop":0},{"id":3162585,"name":"Aspdalen","lon":13.06667,"lat":66.5,"pop":0},{"id":3162584,"name":"Aspedammen","lon":11.5,"lat":59.06667,"pop":0},{"id":3158036,"name":"Aspenes","alt":["Espenes"],"lon":15.53163,"lat":67.47882,"pop":0},{"id":9404139,"name":"Aspermyra","lon":5.76424,"lat":58.86667,"pop":0},{"id":9403908,"name":"Asphaugen","lon":11.50677,"lat":64.06563,"pop":0},{"id":3162568,"name":"Aspneset","lon":13.65622,"lat":64.28631,"pop":0},{"id":9404233,"name":"Aspneset","lon":13.40886,"lat":65.53357,"pop":0},{"id":9537537,"name":"Assebakti","alt":["Ássebákti"],"lon":25.19286,"lat":69.44311,"pop":0},{"id":3162558,"name":"Assheim","alt":["Asseim"],"lon":5.7,"lat":58.83333,"pop":0},{"id":9404182,"name":"Atna","lon":10.83208,"lat":61.73078,"pop":0},{"id":3162514,"name":"Atnbrua","alt":["Atnabru","Atnafoss","Atnfoss"],"lon":10.23396,"lat":61.85113,"pop":0},{"id":3162511,"name":"Atnosen","alt":["Atnaoset","Atnoset"],"lon":10.81786,"lat":61.72877,"pop":0},{"id":3162505,"name":"Atterås","lon":5.33333,"lat":61.16667,"pop":0},{"id":3162498,"name":"Aufles","lon":13.23333,"lat":65.78333,"pop":0},{"id":3162497,"name":"Augedalsbru","alt":["Augedals Bro"],"lon":10.5,"lat":60.41667,"pop":0},{"id":9535944,"name":"Augesætra","alt":["Augesaetra"],"lon":10.67156,"lat":61.30177,"pop":0},{"id":3162492,"name":"Auka","alt":["Aukan"],"lon":8.75,"lat":63.76667,"pop":0},{"id":3162484,"name":"Aukland","alt":["Okland","Økland"],"lon":6.66667,"lat":59.06667,"pop":0},{"id":3162485,"name":"Aukland","lon":7.91667,"lat":58.2,"pop":0},{"id":3162486,"name":"Aukland","alt":["Augland"],"lon":7.81667,"lat":58.18333,"pop":0},{"id":3162487,"name":"Aukland","alt":["Augland"],"lon":7.96667,"lat":58.11667,"pop":0},{"id":3143757,"name":"Auklandshamn","alt":["Okland","Økland"],"lon":5.38287,"lat":59.64291,"pop":0},{"id":3162482,"name":"Auklend","alt":["Auglend"],"lon":5.91667,"lat":58.86667,"pop":0},{"id":9304267,"name":"Auklend","lon":5.72229,"lat":58.93534,"pop":0},{"id":3162481,"name":"Aukner","alt":["Auktner","Okner","Oktner","Ökner","Øktner"],"lon":11.71677,"lat":60.23974,"pop":0},{"id":3162480,"name":"Aukra","alt":["Aukra kommun"],"lon":6.9,"lat":62.78333,"pop":730},{"id":9403894,"name":"Aukrasanden","lon":6.91804,"lat":62.79099,"pop":0},{"id":12078209,"name":"Aulerød","alt":["Aulerod"],"lon":10.3326,"lat":59.28437,"pop":0},{"id":3162478,"name":"Aulestad","lon":10.28333,"lat":61.21667,"pop":0},{"id":3162475,"name":"Auli","lon":11.36046,"lat":60.0345,"pop":2638},{"id":9404492,"name":"Aulifeltet","lon":11.35562,"lat":60.03349,"pop":0},{"id":12089517,"name":"Aulilund","lon":10.35357,"lat":59.28332,"pop":0},{"id":3162473,"name":"Aulstad","alt":["Olstad"],"lon":10.01667,"lat":61.26667,"pop":0},{"id":3162471,"name":"Auma","lon":10.66141,"lat":62.22116,"pop":0},{"id":3222976,"name":"Auna","lon":16.33645,"lat":68.83092,"pop":0},{"id":9536390,"name":"Auna","lon":10.03531,"lat":63.51468,"pop":0},{"id":3162453,"name":"Aunan","alt":["Aune"],"lon":11.5683,"lat":64.15369,"pop":0},{"id":3162452,"name":"Aune","lon":10.88333,"lat":64.31667,"pop":0},{"id":3162454,"name":"Aune","alt":["Aunet"],"lon":10.63333,"lat":63.7,"pop":0},{"id":3162455,"name":"Aune","lon":9.1,"lat":63.03333,"pop":0},{"id":3162456,"name":"Aune","lon":9.68333,"lat":62.6,"pop":0},{"id":9536143,"name":"Aunegrenda","lon":11.25748,"lat":62.95209,"pop":0},{"id":9536405,"name":"Aunegrenda","lon":9.67579,"lat":62.60043,"pop":0},{"id":3162451,"name":"Aunehågån","alt":["Aunehagan","Aunehagen"],"lon":9.76667,"lat":62.93333,"pop":0},{"id":3162444,"name":"Aunet","alt":["Aune"],"lon":10.46667,"lat":63.01667,"pop":0},{"id":9536601,"name":"Aunet","lon":12.45961,"lat":64.88564,"pop":0},{"id":3162439,"name":"Aunevollen","alt":["Aunevold"],"lon":11.35,"lat":62.93333,"pop":0},{"id":3162437,"name":"Aunfoss","lon":12.56667,"lat":64.61667,"pop":0},{"id":3162423,"name":"Auran","lon":10.8,"lat":63.48333,"pop":0},{"id":3162418,"name":"Aurdal","alt":["Aurdalsbyen"],"lon":9.41488,"lat":60.92443,"pop":702},{"id":3162419,"name":"Aurdal","lon":10.36667,"lat":60.18333,"pop":0},{"id":3162412,"name":"Aure","alt":["Aure kommun","Ehure","Kommun Aure","ai yu lei","aure","Ауре","Эуре","ঔরে","艾于勒"],"lon":8.52913,"lat":63.2679,"pop":3384},{"id":3162413,"name":"Aure","lon":6.57953,"lat":62.39145,"pop":0},{"id":9536932,"name":"Aurebekk","lon":7.88208,"lat":58.20093,"pop":0},{"id":9536107,"name":"Aureosen","lon":7.10084,"lat":62.8139,"pop":0},{"id":8354589,"name":"Aurland","alt":["Aurlandi vald","Aurlands kommun","Ehurlann","Kommun Aurland","ai yu lan","auralenda","Эурланн","ঔরলেন্ড","艾于蘭"],"lon":7.20167,"lat":60.90321,"pop":0},{"id":7626362,"name":"Aurlandsvangen","lon":7.18706,"lat":60.90578,"pop":0},{"id":9537527,"name":"Aursfjord","lon":18.71804,"lat":69.27032,"pop":0},{"id":3162398,"name":"Aursfjordbotn","lon":18.68624,"lat":69.25262,"pop":0},{"id":3162396,"name":"Aursfjordgården","lon":18.65469,"lat":69.30362,"pop":0},{"id":9536816,"name":"Aursletta","lon":12.74425,"lat":65.63125,"pop":0},{"id":3162385,"name":"Aursmoen","alt":["Aurskog","Urskog"],"lon":11.44275,"lat":59.92763,"pop":2173},{"id":3162380,"name":"Aurstad","lon":11.35,"lat":60.16667,"pop":0},{"id":3162366,"name":"Ausevik","lon":5.26667,"lat":61.53333,"pop":0},{"id":3162358,"name":"Austad","lon":11.21667,"lat":60.71667,"pop":0},{"id":3162359,"name":"Austad","lon":9.78544,"lat":59.24368,"pop":0},{"id":3162360,"name":"Austad","lon":7.6791,"lat":58.96209,"pop":0},{"id":3162361,"name":"Austad","lon":7.04443,"lat":58.09011,"pop":0},{"id":9881328,"name":"Austad","lon":10.2054,"lat":59.72808,"pop":0},{"id":3162357,"name":"Austadberget","lon":12.08333,"lat":60.55,"pop":0},{"id":3162355,"name":"Austafjord","lon":10.93962,"lat":64.91713,"pop":0},{"id":3162350,"name":"Austbygdi","alt":["Austbygd","Tinn Austbygd"],"lon":8.82825,"lat":59.99554,"pop":0},{"id":3162352,"name":"Austbø","alt":["Austbo","Austbo i Helgeland","Austbø i Helgeland"],"lon":12.35292,"lat":65.9334,"pop":0},{"id":3162353,"name":"Austbø","lon":8.10621,"lat":59.69342,"pop":0},{"id":3227425,"name":"Austbø","lon":5.725,"lat":58.995,"pop":0},{"id":3241418,"name":"Austdalen","alt":["Austadal"],"lon":5.23194,"lat":60.43306,"pop":0},{"id":9537289,"name":"Austdalfeltet","lon":10.44002,"lat":60.87138,"pop":0},{"id":3162340,"name":"Austein","alt":["Oystein","Öystein"],"lon":18.02403,"lat":69.59887,"pop":0},{"id":3162339,"name":"Austenå","alt":["Austana","Austanå","Austena"],"lon":8.1,"lat":58.83333,"pop":0},{"id":3162336,"name":"Austerbygda","alt":["Austerbygden"],"lon":13.3,"lat":65.83333,"pop":0},{"id":3162330,"name":"Austerheim","lon":5.95,"lat":61.16667,"pop":0},{"id":780866,"name":"Austertana","alt":["Ehustertana","Juovlavuotna","Эустертана"],"lon":28.48836,"lat":70.43926,"pop":0},{"id":3162327,"name":"Austerøya","alt":["Osteroen","Österöen"],"lon":8.36667,"lat":58.21667,"pop":0},{"id":3162321,"name":"Austevoll","alt":["Austevolls kommun","Ehustevoll","Kommun Austevoll","ai yu si te wo er","ausatebhola","Эустеволл","ঔসটেভোল","艾于斯特沃爾"],"lon":5.16246,"lat":60.10952,"pop":0},{"id":3142753,"name":"Austgard","alt":["Ostgaard","Oystgard","Östgaard","Øystgard"],"lon":11.73927,"lat":64.10901,"pop":0},{"id":9536230,"name":"Austgården","alt":["Austgarden"],"lon":7.29081,"lat":58.03449,"pop":0},{"id":9536449,"name":"Austheim","lon":10.44212,"lat":59.07484,"pop":0},{"id":3162306,"name":"Austmarka","alt":["Austmark","Ostmark","Ostmarken","Östmark","Östmarken"],"lon":12.32129,"lat":60.10025,"pop":0},{"id":3162301,"name":"Austnes","alt":["Ausnes"],"lon":6.27351,"lat":62.63729,"pop":385},{"id":9403963,"name":"Austra Mosterhamn","lon":5.38507,"lat":59.70244,"pop":0},{"id":3225332,"name":"Austre Kaldvåg","lon":15.74722,"lat":68.04361,"pop":0},{"id":779096,"name":"Austre Lafjord","alt":["Lafjord"],"lon":25.49462,"lat":70.86731,"pop":0},{"id":3132432,"name":"Austre Vatne","lon":7.60779,"lat":58.07762,"pop":0},{"id":3163182,"name":"Austre Åmøy","alt":["Amoy","Ostre Aamoy","Åmøy","Östre Aamöy"],"lon":5.7592,"lat":59.0383,"pop":0},{"id":3162272,"name":"Austrheim","lon":4.9323,"lat":60.7774,"pop":0},{"id":3162296,"name":"Austrått","alt":["Austraat","Austrat","Austratt","Austråt","Ostraat","Ostrat","Östraat","Østråt"],"lon":9.74604,"lat":63.70536,"pop":0},{"id":3162297,"name":"Austrått","alt":["Austraat","Austratt"],"lon":5.73986,"lat":58.8419,"pop":0},{"id":3162261,"name":"Austvatn","lon":11.69158,"lat":60.37887,"pop":0},{"id":3162255,"name":"Austvoll","lon":9.4,"lat":60.43333,"pop":0},{"id":9537343,"name":"Auten","lon":11.54153,"lat":59.92767,"pop":0},{"id":9404429,"name":"Avaldsnes","lon":5.27703,"lat":59.35462,"pop":0},{"id":779622,"name":"Ávanuorri","alt":["Avanuorri","Havosund","Havoysund","Havøsund","Havøysund","Khavesunn","Хавесунн"],"lon":24.66217,"lat":70.99634,"pop":1138},{"id":3162237,"name":"Avedal","lon":5.53333,"lat":61.15,"pop":0},{"id":3162233,"name":"Aven","lon":5.61667,"lat":61.15,"pop":0},{"id":9536195,"name":"Avki","alt":["Avkke","Haukoya","Haukøya","Ávkke"],"lon":16.41201,"lat":68.20643,"pop":0},{"id":3162225,"name":"Avløysa","alt":["Afloisen","Aflojsen","Aflöisen","Aflöjsen","Avloisa","Avlos","Avloysa","Avløisa","Avløs"],"lon":8.56667,"lat":63.66667,"pop":0},{"id":9537616,"name":"Avskar","alt":["Auskarnes","Ávskár"],"lon":28.03335,"lat":70.49022,"pop":0},{"id":780833,"name":"Badderbotn","alt":["Badderbotten"],"lon":22.03333,"lat":69.85,"pop":0},{"id":780830,"name":"Badderen","alt":["Baddern"],"lon":22.02614,"lat":69.84515,"pop":0},{"id":9536207,"name":"Baddje-Smájlle","alt":["Baddje-Smajlle"],"lon":16.19652,"lat":67.90242,"pop":0},{"id":9536357,"name":"Badjenjárga","alt":["Badjenjarga"],"lon":25.4734,"lat":69.45557,"pop":0},{"id":3162220,"name":"Badstuvika","alt":["Badstuvik"],"lon":9.15,"lat":63.53333,"pop":0},{"id":3162199,"name":"Bagn","lon":9.55207,"lat":60.82249,"pop":607},{"id":3162198,"name":"Bagne","lon":6.95,"lat":60.51667,"pop":0},{"id":9536360,"name":"Báhkiljohka","alt":["Bahkiljohka"],"lon":25.40684,"lat":69.44624,"pop":0},{"id":9536359,"name":"Báhkiljohknjárga","alt":["Bahkiljohknjarga","Bahkiljohnjarga","Báhkiljohnjárga"],"lon":25.41423,"lat":69.45186,"pop":0},{"id":3162196,"name":"Bak","lon":9.78333,"lat":63.25,"pop":0},{"id":3162195,"name":"Bakarvågen","alt":["Bagervaag","Bakarvaagen","Bakarvag","Bakarvagen","Bakarvåg","Bakervag","Bakervåg"],"lon":5.23953,"lat":60.42681,"pop":0},{"id":3162184,"name":"Bakka","lon":5.01,"lat":60.76722,"pop":0},{"id":3162185,"name":"Bakka","alt":["Bakkasund","Bakke"],"lon":6.01667,"lat":60.25,"pop":0},{"id":3162186,"name":"Bakka","lon":6.25,"lat":60.15,"pop":0},{"id":3162187,"name":"Bakka","lon":5.0926,"lat":60.13076,"pop":0},{"id":3162188,"name":"Bakka","lon":8.73333,"lat":60.03333,"pop":0},{"id":3162189,"name":"Bakka","lon":9.03333,"lat":59.86667,"pop":0},{"id":3162190,"name":"Bakka","alt":["Bakke"],"lon":6.86894,"lat":60.91629,"pop":0},{"id":9536770,"name":"Bakkagrende","lon":8.73933,"lat":60.041,"pop":0},{"id":9536328,"name":"Bakkan","lon":10.17743,"lat":64.15887,"pop":0},{"id":11872564,"name":"Bakkane","lon":9.97589,"lat":59.0338,"pop":0},{"id":9404437,"name":"Bakkasund","lon":5.08885,"lat":60.13083,"pop":0},{"id":3162174,"name":"Bakke","lon":18.7,"lat":69.56667,"pop":0},{"id":3162175,"name":"Bakke","lon":8.36667,"lat":61.88333,"pop":0},{"id":3162176,"name":"Bakke","lon":5.18333,"lat":61.36667,"pop":0},{"id":3162177,"name":"Bakke","lon":11.46667,"lat":59.01667,"pop":0},{"id":9537217,"name":"Bakke","lon":10.082,"lat":60.92775,"pop":0},{"id":11844850,"name":"Bakke","lon":9.94812,"lat":58.97592,"pop":0},{"id":12089523,"name":"Bakke","lon":10.08283,"lat":59.28373,"pop":0},{"id":11999136,"name":"Bakke Søndre","alt":["Bakke Sondre"],"lon":10.29824,"lat":59.54873,"pop":0},{"id":780771,"name":"Bakkeby","alt":["Sokkuvuono"],"lon":20.84865,"lat":69.85061,"pop":0},{"id":3162171,"name":"Bakkeby","lon":18.54441,"lat":69.42889,"pop":0},{"id":801134,"name":"Bakkeby Indre","lon":20.84868,"lat":69.85065,"pop":0},{"id":3225564,"name":"Bakkehaug","alt":["Haugen"],"lon":16.84243,"lat":68.34622,"pop":0},{"id":11722374,"name":"Bakkehaugen","lon":10.75509,"lat":59.94716,"pop":0},{"id":11722372,"name":"Bakkehavn","lon":10.83161,"lat":59.87651,"pop":0},{"id":3162167,"name":"Bakkejord","lon":18.29185,"lat":69.52905,"pop":0},{"id":3162168,"name":"Bakkejord","lon":18.06667,"lat":69.13333,"pop":0},{"id":3225381,"name":"Bakkejorda","lon":17.43753,"lat":68.52505,"pop":0},{"id":9537473,"name":"Bakkejorda","lon":17.44514,"lat":68.52638,"pop":0},{"id":11999135,"name":"Bakkeland","lon":10.34723,"lat":59.46126,"pop":0},{"id":11693826,"name":"Bakkeløkka","alt":["Bakkelokka"],"lon":10.83328,"lat":59.85859,"pop":0},{"id":3222361,"name":"Bakkemo","lon":17.92972,"lat":69.34111,"pop":0},{"id":3162141,"name":"Bakken","lon":18.5,"lat":69.35,"pop":0},{"id":3162142,"name":"Bakken","lon":9.9,"lat":63.56667,"pop":0},{"id":3162143,"name":"Bakken","lon":9.4,"lat":63.1,"pop":0},{"id":3162144,"name":"Bakken","lon":11.71667,"lat":62.31667,"pop":0},{"id":3162145,"name":"Bakken","lon":5.56667,"lat":61.88333,"pop":0},{"id":3162146,"name":"Bakken","lon":8.5,"lat":61.86667,"pop":0},{"id":3162147,"name":"Bakken","lon":11.05,"lat":61.55,"pop":0},{"id":3162148,"name":"Bakken","lon":12.11667,"lat":61.13333,"pop":0},{"id":3162149,"name":"Bakken","lon":12.43333,"lat":60.66667,"pop":0},{"id":3162150,"name":"Bakken","lon":9.96667,"lat":60.23333,"pop":0},{"id":3162151,"name":"Bakken","lon":5.23333,"lat":60.01667,"pop":0},{"id":3162152,"name":"Bakken","lon":7.91667,"lat":58.4,"pop":0},{"id":9536148,"name":"Bakken","lon":10.76123,"lat":63.36677,"pop":0},{"id":9537145,"name":"Bakken","lon":11.91673,"lat":63.97109,"pop":0},{"id":11693825,"name":"Bakken","lon":10.78605,"lat":59.99663,"pop":0},{"id":11722371,"name":"Bakken","lon":10.75377,"lat":59.86971,"pop":0},{"id":11845424,"name":"Bakken","lon":10.35376,"lat":59.6851,"pop":0},{"id":11872563,"name":"Bakken","lon":10.11386,"lat":59.03136,"pop":0},{"id":3162140,"name":"Bakkerud","lon":9.36667,"lat":59.9,"pop":0},{"id":800195,"name":"Bakkevoll","lon":21.61583,"lat":70.00917,"pop":0},{"id":9404337,"name":"Bakklandet","lon":10.40366,"lat":63.42823,"pop":0},{"id":3162129,"name":"Bakko","lon":8.83333,"lat":60,"pop":0},{"id":9535870,"name":"Baksetra","lon":10.37787,"lat":61.21309,"pop":0},{"id":9537321,"name":"Bakstadgrenda","lon":11.33567,"lat":61.11425,"pop":0},{"id":11867383,"name":"Bakstevold Mellom","lon":10.21833,"lat":59.43426,"pop":0},{"id":9536362,"name":"Báktemohkenjárga","alt":["Baktemohkenjarga"],"lon":25.3641,"lat":69.44447,"pop":0},{"id":11693827,"name":"Bakås","alt":["Bakas"],"lon":10.90841,"lat":59.93838,"pop":0},{"id":3206601,"name":"Baldersheim","lon":5.74862,"lat":60.14703,"pop":0},{"id":3162116,"name":"Balestrand","alt":["Balestrands kommun","Balestrann","Kommun Balestrand","ba lei si te lan","balestranda","Балестранн","বালেস্ট্রান্ড","巴勒斯特蘭"],"lon":6.53608,"lat":61.20962,"pop":769},{"id":3162108,"name":"Ballangen","alt":["Balak","Balangen","Balat","Ballangeni vald","Ballangens kommun","Bálat","Bálák","Kommun Ballangen","ba lang en","ballanena","barangen","Баланген","Балланген","বাল্লাঙেন","バランゲン","巴朗恩"],"lon":16.83145,"lat":68.34283,"pop":956},{"id":3162106,"name":"Ballangrud","alt":["Balangrud"],"lon":10.5,"lat":60.3,"pop":0},{"id":3162104,"name":"Balleshol","alt":["Ballishol"],"lon":10.86667,"lat":60.76667,"pop":0},{"id":3162102,"name":"Ballesvika","lon":17.11204,"lat":69.38196,"pop":0},{"id":3162100,"name":"Ballset","lon":13.66667,"lat":66.83333,"pop":0},{"id":3162095,"name":"Ballstad","alt":["Balstad","Balstadt"],"lon":13.54515,"lat":68.07431,"pop":758},{"id":3162096,"name":"Ballstad","alt":["Balstad"],"lon":11,"lat":63.26667,"pop":0},{"id":3162093,"name":"Balsfjord","alt":["Bahccavuotna","Balsf'ord","Balsfjordi vald","Balsfjords kommun","Báhccavuotna","Kommun Balsfjord","Paatsivuono","ba er si fei you er","balasphajorda","Балсфьорд","বালস্ফজোর্ড","巴爾斯菲尤爾"],"lon":19.36667,"lat":69.31667,"pop":0},{"id":3162088,"name":"Balstad","lon":10.18333,"lat":63.55,"pop":0},{"id":9537647,"name":"Balteskaret","lon":17.05876,"lat":68.68062,"pop":0},{"id":3162077,"name":"Bamle","lon":9.05,"lat":59.6,"pop":0},{"id":3162079,"name":"Bamle","alt":["Bamble"],"lon":9.56308,"lat":59.01378,"pop":0},{"id":3162073,"name":"Bandaksli","lon":8.18842,"lat":59.40776,"pop":0},{"id":3162068,"name":"Bangstad","lon":12.52397,"lat":65.1184,"pop":0},{"id":3162067,"name":"Bangsund","alt":["ZXC"],"lon":11.39688,"lat":64.39232,"pop":878},{"id":12089541,"name":"Bankbakken","lon":10.17655,"lat":59.30634,"pop":0},{"id":9537401,"name":"Banken","lon":11.13547,"lat":59.916,"pop":0},{"id":801338,"name":"Bankenes","lon":21.89694,"lat":69.88389,"pop":0},{"id":3162062,"name":"Barbogen","alt":["Bardbogen"],"lon":17.00048,"lat":69.36774,"pop":0},{"id":3226893,"name":"Barbu","lon":8.7754,"lat":58.46597,"pop":0},{"id":3162056,"name":"Bardal","lon":13.38018,"lat":66.217,"pop":0},{"id":7290286,"name":"Bardu","lon":18.34717,"lat":68.85856,"pop":0},{"id":6355182,"name":"Bardufoss","alt":["BDU"],"lon":18.51521,"lat":69.06448,"pop":0},{"id":3162042,"name":"Bardujord","alt":["Bardujorda"],"lon":18.53138,"lat":68.80547,"pop":0},{"id":3162040,"name":"Barekstadlandet","lon":4.88333,"lat":61.66667,"pop":0},{"id":9536658,"name":"Barkald","lon":10.8695,"lat":61.99835,"pop":0},{"id":9537155,"name":"Barkedalen","lon":10.9398,"lat":59.18511,"pop":0},{"id":3162028,"name":"Barkestad","lon":14.80429,"lat":68.81756,"pop":0},{"id":3162026,"name":"Barkost","lon":10.18467,"lat":59.47481,"pop":0},{"id":3162032,"name":"Barkåker","alt":["Barkaaker","Barkaker"],"lon":10.38963,"lat":59.31859,"pop":1238},{"id":3162018,"name":"Barman","lon":8.85,"lat":63.63333,"pop":0},{"id":9537043,"name":"Barmen Indre","lon":5.29809,"lat":61.99818,"pop":0},{"id":3162015,"name":"Barmen Ytre","lon":5.28583,"lat":61.99906,"pop":0},{"id":3162002,"name":"Barsnes","lon":7.13333,"lat":61.25,"pop":0},{"id":3161999,"name":"Barstad","lon":6.26667,"lat":58.4,"pop":0},{"id":3161993,"name":"Barstadvik","alt":["Barstad","Barstadvika"],"lon":6.2679,"lat":62.35977,"pop":0},{"id":3161991,"name":"Barstrand","lon":14.26667,"lat":68.28333,"pop":0},{"id":9537566,"name":"Barta","lon":26.17575,"lat":69.76117,"pop":0},{"id":3161990,"name":"Bartnes","lon":11.25,"lat":64.05,"pop":0},{"id":11722356,"name":"Basarhallene","lon":10.74769,"lat":59.9123,"pop":0},{"id":12089549,"name":"Basberg","lon":10.45041,"lat":59.29654,"pop":0},{"id":12089550,"name":"Basbergrønningen","alt":["Basbergronningen"],"lon":10.48718,"lat":59.28813,"pop":0},{"id":3161981,"name":"Bassebu","lon":9.83333,"lat":59.06667,"pop":0},{"id":3241402,"name":"Bastaneset","alt":["Bastoyneset","Bastøyneset"],"lon":5.24333,"lat":60.41528,"pop":0},{"id":3161969,"name":"Batnfjordsøra","alt":["Batnfjordsora","Batnfjordsoren","Batnfjordsören","Battenfjordsoren","Battenfjordsören"],"lon":7.67251,"lat":62.89463,"pop":387},{"id":3161963,"name":"Bauge","lon":6,"lat":59.76667,"pop":0},{"id":9536052,"name":"Baugen","alt":["Vestatil"],"lon":10.62395,"lat":62.09272,"pop":0},{"id":3161962,"name":"Baugerud","lon":9.06667,"lat":59.58333,"pop":0},{"id":9535978,"name":"Baukholsstulen","alt":["Baukalsstulen","Baukalstulen","Baukålsstulen","Baukålstulen"],"lon":9.82704,"lat":61.53908,"pop":0},{"id":780803,"name":"Baukop","alt":["Baevkopp","Baukopp","Beavgohppi","Bevkop","Bevkopp","Bævkopp"],"lon":24.91398,"lat":70.20832,"pop":0},{"id":3161958,"name":"Baukål","alt":["Baukaal","Baukal"],"lon":9.81667,"lat":61.56667,"pop":0},{"id":9404202,"name":"Bausplass","lon":8.70856,"lat":58.43979,"pop":0},{"id":3161956,"name":"Baustad","lon":12.2,"lat":65.33333,"pop":0},{"id":9535835,"name":"Baustin","lon":9.47425,"lat":61.11417,"pop":0},{"id":9404423,"name":"Bede","alt":["Navestad"],"lon":11.13066,"lat":59.2606,"pop":0},{"id":8558585,"name":"Begby","lon":11.00088,"lat":59.21272,"pop":0},{"id":3161949,"name":"Begndal","alt":["Begndalen"],"lon":9.81667,"lat":60.65,"pop":0},{"id":3161948,"name":"Beian","lon":9.56953,"lat":63.65553,"pop":0},{"id":3161929,"name":"Beisfjord","alt":["Beisfjord i Ofoten"],"lon":17.59596,"lat":68.37618,"pop":589},{"id":3161926,"name":"Beisland","lon":8.36667,"lat":58.35,"pop":0},{"id":3161921,"name":"Beitostølen","alt":["Beitestol","Beitestøl","Beitostol","Beitostolen","Beitostøl"],"lon":8.90621,"lat":61.24866,"pop":0},{"id":9536125,"name":"Beitstad","lon":10.99736,"lat":63.47952,"pop":0},{"id":9537260,"name":"Bekk","lon":10.58293,"lat":59.75293,"pop":0},{"id":795833,"name":"Bekkarfjord","lon":27.27903,"lat":70.58943,"pop":0},{"id":9537885,"name":"Bekkeberga","lon":10.99914,"lat":60.08772,"pop":0},{"id":3161916,"name":"Bekkedal","alt":["Baekkedal"],"lon":11.18333,"lat":60.45,"pop":0},{"id":9535651,"name":"Bekkegrenda","lon":11.66469,"lat":60.42734,"pop":0},{"id":12089554,"name":"Bekkejordet","lon":10.36689,"lat":59.25626,"pop":0},{"id":3161914,"name":"Bekkelaget","lon":10.77173,"lat":59.88338,"pop":0},{"id":3161915,"name":"Bekkelaget","alt":["Baekkelaget","Bækkelaget"],"lon":11.11617,"lat":60.77383,"pop":0},{"id":9535883,"name":"Bekkelaget","lon":11.35311,"lat":61.11685,"pop":0},{"id":3161907,"name":"Bekken","alt":["Baekken","Bækken"],"lon":8.56667,"lat":63.66667,"pop":0},{"id":3161908,"name":"Bekken","lon":5.41667,"lat":61.08333,"pop":0},{"id":3161909,"name":"Bekken","lon":12.43333,"lat":60.13333,"pop":0},{"id":11693821,"name":"Bekken","lon":10.6065,"lat":60.01267,"pop":0},{"id":11872213,"name":"Bekker","lon":10.19706,"lat":59.02747,"pop":0},{"id":9304300,"name":"Bekkesvea","lon":11.04948,"lat":60.8108,"pop":0},{"id":9537822,"name":"Bekkevika","lon":6.83603,"lat":58.0931,"pop":0},{"id":11999116,"name":"Bekkevold","lon":10.26197,"lat":59.56656,"pop":0},{"id":3161901,"name":"Bekkjarvik","lon":5.20056,"lat":60.00807,"pop":367},{"id":3161898,"name":"Bekkjus","alt":["Bekkjes"],"lon":9,"lat":59.43333,"pop":0},{"id":3161897,"name":"Bekkos","alt":["Baekos","Bækos"],"lon":11.65,"lat":62.65,"pop":0},{"id":9536455,"name":"Belgefet","lon":8.87397,"lat":60.55915,"pop":0},{"id":9536470,"name":"Bellabakkan","lon":7.95386,"lat":63.51843,"pop":0},{"id":3161885,"name":"Belland","lon":7.01667,"lat":58.06667,"pop":0},{"id":3161882,"name":"Belle","lon":11.03333,"lat":63.23333,"pop":0},{"id":9535742,"name":"Belle","lon":7.34093,"lat":60.87384,"pop":0},{"id":9304286,"name":"Bellevue","lon":10.63519,"lat":59.4372,"pop":0},{"id":11722343,"name":"Bellevue","lon":10.77714,"lat":59.91916,"pop":0},{"id":3161879,"name":"Bellingmo","alt":["Bellingmoen"],"lon":10.8,"lat":62.03333,"pop":0},{"id":9537762,"name":"Bellvika","lon":18.7664,"lat":69.78381,"pop":0},{"id":3161873,"name":"Belsvik","lon":9.03333,"lat":63.41667,"pop":0},{"id":3151457,"name":"Benasuoloj","alt":["Beanasuolui","Hundholme","Hundholmen"],"lon":16.26549,"lat":68.14557,"pop":0},{"id":3161867,"name":"Bendosen","lon":11.23333,"lat":62.85,"pop":0},{"id":9537335,"name":"Benjaminbyen","lon":10.32752,"lat":63.40355,"pop":0},{"id":3161861,"name":"Bennlibygda","lon":9.8914,"lat":61.31565,"pop":0},{"id":3161859,"name":"Bentsjord","lon":18.63333,"lat":69.53333,"pop":0},{"id":3160152,"name":"Bentsnes","alt":["Beinsnes","Breinsnes"],"lon":19.84546,"lat":69.62128,"pop":0},{"id":11997030,"name":"Bentsrød","alt":["Bentsrod"],"lon":10.00827,"lat":59.03455,"pop":0},{"id":12078192,"name":"Bentsrød","alt":["Bentsrod"],"lon":10.26261,"lat":59.07042,"pop":0},{"id":3161847,"name":"Berdal","alt":["Berdalen"],"lon":10.29369,"lat":63.99196,"pop":0},{"id":3161848,"name":"Berdal","lon":6.73333,"lat":61.13333,"pop":0},{"id":9537096,"name":"Berdalsbru","lon":7.41374,"lat":59.4472,"pop":0},{"id":3161840,"name":"Berekvam","lon":7.1,"lat":60.8,"pop":0},{"id":9536593,"name":"Beretsjord","lon":23.89786,"lat":70.49872,"pop":0},{"id":3243011,"name":"Berfjord","lon":5.14,"lat":60.66556,"pop":0},{"id":3161837,"name":"Berfjorden","lon":12.61667,"lat":66.11667,"pop":0},{"id":3161791,"name":"Berg","alt":["Bergi vald","Bergs kommun","Birgi","Comuna Berg","Gmina Berg","Kommun Berg","bei ge","berga","brgh","Берг","برغ","বের্গ","貝格"],"lon":17.25,"lat":69.45,"pop":0},{"id":3161792,"name":"Berg","lon":16.55,"lat":68.81667,"pop":0},{"id":3161793,"name":"Berg","lon":16.16667,"lat":68.78333,"pop":0},{"id":3161794,"name":"Berg","lon":13.63333,"lat":68.13333,"pop":0},{"id":3161795,"name":"Berg","lon":15.15417,"lat":67.91667,"pop":0},{"id":3161796,"name":"Berg","alt":["Berg i Helgeland"],"lon":12.19775,"lat":65.3675,"pop":474},{"id":3161797,"name":"Berg","lon":9.53333,"lat":63.41667,"pop":0},{"id":3161798,"name":"Berg","lon":10.16831,"lat":63.37848,"pop":0},{"id":3161799,"name":"Berg","lon":9.10537,"lat":63.32391,"pop":0},{"id":3161800,"name":"Berg","lon":8.55,"lat":63.28333,"pop":0},{"id":3161801,"name":"Berg","lon":10.13333,"lat":60.8,"pop":0},{"id":3161802,"name":"Berg","lon":11.18333,"lat":60.68333,"pop":0},{"id":3161803,"name":"Berg","lon":10.35,"lat":60.15,"pop":0},{"id":3161804,"name":"Berg","lon":10.9,"lat":60.08333,"pop":0},{"id":3161805,"name":"Berg","lon":9.86667,"lat":59.75,"pop":0},{"id":3161806,"name":"Berg","lon":11.38333,"lat":59.48333,"pop":0},{"id":3161807,"name":"Berg","lon":10.13333,"lat":59.3,"pop":0},{"id":3161808,"name":"Berg","lon":11.15,"lat":59.16667,"pop":0},{"id":3161809,"name":"Berg","lon":9.91667,"lat":59,"pop":0},{"id":3161810,"name":"Berg","lon":9.4,"lat":58.88333,"pop":0},{"id":3209644,"name":"Berg","lon":9.71667,"lat":59.08333,"pop":0},{"id":9404391,"name":"Berg","lon":10.42283,"lat":63.42061,"pop":0},{"id":9536290,"name":"Berg","lon":11.0592,"lat":59.94195,"pop":0},{"id":9536883,"name":"Berg","lon":7.41538,"lat":58.61756,"pop":0},{"id":11693819,"name":"Berg","lon":10.74351,"lat":59.95109,"pop":0},{"id":11693820,"name":"Berg","lon":10.58425,"lat":60.02672,"pop":0},{"id":11845610,"name":"Berg","lon":10.23864,"lat":59.65573,"pop":0},{"id":12089565,"name":"Berg Mellom","lon":10.24763,"lat":59.35657,"pop":0},{"id":9536243,"name":"Berga","lon":11.13438,"lat":59.42021,"pop":0},{"id":9537221,"name":"Bergabrøtin","alt":["Bergabrotin"],"lon":9.42826,"lat":60.96623,"pop":0},{"id":3161782,"name":"Bergan","lon":8.91667,"lat":59.61667,"pop":0},{"id":3161783,"name":"Bergan","lon":9.9,"lat":59.28333,"pop":0},{"id":3161784,"name":"Bergan","lon":9.41667,"lat":59.23333,"pop":0},{"id":9537688,"name":"Bergan","lon":9.20776,"lat":59.39297,"pop":0},{"id":12078191,"name":"Bergan","lon":10.13801,"lat":59.09477,"pop":0},{"id":12089569,"name":"Bergan","lon":10.43974,"lat":59.20896,"pop":0},{"id":11872121,"name":"Bergane","lon":9.9913,"lat":59.02433,"pop":0},{"id":9537834,"name":"Bergangrendi","alt":["Bergangrende"],"lon":9.33891,"lat":59.98629,"pop":0},{"id":11999107,"name":"Bergbryggodden","lon":10.36023,"lat":59.52974,"pop":0},{"id":3161739,"name":"Berge","alt":["Berre"],"lon":11.2,"lat":64.25,"pop":0},{"id":3161740,"name":"Berge","lon":9.65,"lat":63.2,"pop":0},{"id":3161741,"name":"Berge","alt":["Berg"],"lon":7.88333,"lat":62.98333,"pop":0},{"id":3161743,"name":"Berge","lon":11.1,"lat":61.88333,"pop":0},{"id":3161744,"name":"Berge","lon":5.99413,"lat":61.18221,"pop":0},{"id":3161745,"name":"Berge","lon":5.31667,"lat":61.18333,"pop":0},{"id":3161746,"name":"Berge","lon":11.8,"lat":61.01667,"pop":0},{"id":3161747,"name":"Berge","lon":6.23333,"lat":60.38333,"pop":0},{"id":3161748,"name":"Berge","lon":5.08333,"lat":60.21667,"pop":0},{"id":3161749,"name":"Berge","lon":5.53333,"lat":60.2,"pop":0},{"id":3161750,"name":"Berge","lon":5.63333,"lat":59.96667,"pop":0},{"id":3161751,"name":"Berge","lon":6.03333,"lat":59.66667,"pop":0},{"id":3161752,"name":"Berge","lon":8.38333,"lat":59.63333,"pop":0},{"id":3161753,"name":"Berge","lon":5.2,"lat":59.63333,"pop":0},{"id":3161754,"name":"Berge","lon":8.66667,"lat":59.6,"pop":0},{"id":3161755,"name":"Berge","lon":8.4,"lat":59.48333,"pop":0},{"id":3161756,"name":"Berge","lon":5.93333,"lat":58.8,"pop":0},{"id":3161757,"name":"Berge","lon":8.36667,"lat":58.21667,"pop":0},{"id":3161758,"name":"Berge","lon":7.96667,"lat":58.06667,"pop":0},{"id":9404098,"name":"Berge","lon":7.07184,"lat":58.13759,"pop":0},{"id":9536799,"name":"Berge","lon":7.85403,"lat":58.08812,"pop":0},{"id":9537850,"name":"Berge","lon":7.53332,"lat":57.99388,"pop":0},{"id":9537047,"name":"Berge Nedre","lon":5.38688,"lat":62.0363,"pop":0},{"id":9537048,"name":"Berge Øvre","alt":["Berge Ovre"],"lon":5.38564,"lat":62.03804,"pop":0},{"id":780698,"name":"Bergeby","alt":["Bergby","Bergebyelven","Boaresarku","Boaresárku"],"lon":28.90638,"lat":70.1485,"pop":0},{"id":9535777,"name":"Bergegarda","lon":10.30237,"lat":60.77647,"pop":0},{"id":3161732,"name":"Bergen","alt":["BGO","Bargen","Berga","Bergen (Hordaland Fylke)","Bergena","Bergenas","Bergeno","Bergn","Bernken","Birgon","Bjoergvin","Björgvin","baragena","bargana","bei er gen","beleugen","bergeni","berugen","brghn","brgn","perkan","Μπέργκεν","Берген","ברגן","برغن","برگن","बार्गन","বারগেন","பேர்கன்","แบร์เกน","ბერგენი","ベルゲン","卑爾根","베르겐"],"lon":5.32415,"lat":60.39299,"pop":285911},{"id":9304173,"name":"Bergenhus","lon":5.32561,"lat":60.40123,"pop":0},{"id":3161719,"name":"Berger","lon":11.03333,"lat":61.55,"pop":0},{"id":3161720,"name":"Berger","lon":11.38333,"lat":61.08333,"pop":0},{"id":3161721,"name":"Berger","lon":11.16667,"lat":60.55,"pop":0},{"id":3161722,"name":"Berger","lon":12.1,"lat":60.45,"pop":0},{"id":3161723,"name":"Berger","lon":12.1,"lat":60,"pop":0},{"id":3161724,"name":"Berger","alt":["Berger i Vestfold"],"lon":10.38641,"lat":59.54994,"pop":1108},{"id":3161725,"name":"Berger","lon":11.66667,"lat":59.51667,"pop":0},{"id":3259378,"name":"Berger","lon":10.69409,"lat":59.83305,"pop":0},{"id":9537396,"name":"Bergerud","lon":12.07713,"lat":60.26017,"pop":0},{"id":9537356,"name":"Bergesiden","lon":11.84821,"lat":60.63395,"pop":0},{"id":11872560,"name":"Bergeskogen","lon":10.07769,"lat":59.03347,"pop":0},{"id":9536019,"name":"Bergesætra","alt":["Bergesaetra"],"lon":11.93842,"lat":61.75266,"pop":0},{"id":3161706,"name":"Berget","lon":8.75,"lat":63.65,"pop":0},{"id":9304054,"name":"Berget","lon":10.82473,"lat":59.92886,"pop":0},{"id":11872561,"name":"Bergeåsen","alt":["Bergeasen"],"lon":10.07258,"lat":59.03169,"pop":0},{"id":11873379,"name":"Bergheim","lon":10.24868,"lat":59.62401,"pop":0},{"id":780693,"name":"Bergjord","alt":["Kaafjordberg"],"lon":20.48333,"lat":69.63333,"pop":0},{"id":3161695,"name":"Bergjord","lon":6.43333,"lat":59.46667,"pop":0},{"id":11693818,"name":"Bergkrystallen","lon":10.8212,"lat":59.86683,"pop":0},{"id":9536272,"name":"Bergli","lon":10.77549,"lat":59.55967,"pop":0},{"id":3161685,"name":"Berglund","lon":18.23333,"lat":69.13333,"pop":0},{"id":3161682,"name":"Bergo","lon":6.11667,"lat":60.78333,"pop":0},{"id":9404036,"name":"Bergsaker","lon":7.0793,"lat":58.1445,"pop":0},{"id":3161678,"name":"Bergsbotn","lon":17.42372,"lat":69.44174,"pop":0},{"id":3161676,"name":"Bergsdalen","lon":13.66667,"lat":68.13333,"pop":0},{"id":3161673,"name":"Bergseid","lon":9.3,"lat":59.95,"pop":0},{"id":9304238,"name":"Bergseng","lon":16.50003,"lat":68.80831,"pop":0},{"id":3161602,"name":"Bergset","alt":["Baersaeter","Bersaeter","Bersæter","Bærsæter"],"lon":6.4706,"lat":61.84173,"pop":0},{"id":3161669,"name":"Bergset","lon":18.7,"lat":69.08333,"pop":0},{"id":7626329,"name":"Bergset","alt":["Berset"],"lon":11.07769,"lat":61.89126,"pop":0},{"id":780690,"name":"Bergsfjord","lon":21.79087,"lat":70.24959,"pop":0},{"id":3161666,"name":"Bergsgrende","alt":["Bergsgrenda","Bergsgrendi"],"lon":9.24837,"lat":61.99661,"pop":0},{"id":12089584,"name":"Bergshaugen","lon":10.24933,"lat":59.35648,"pop":0},{"id":8659190,"name":"Bergsjøstølen","lon":8.28678,"lat":60.71721,"pop":0},{"id":11872559,"name":"Bergslien","lon":10.07474,"lat":59.03377,"pop":0},{"id":3161658,"name":"Bergsmoen","lon":12.21844,"lat":64.46753,"pop":0},{"id":3161656,"name":"Bergsneset","lon":11,"lat":63.23333,"pop":0},{"id":3161653,"name":"Bergsnev","lon":13.36667,"lat":66.2,"pop":0},{"id":3161641,"name":"Bergstrøm","lon":11.66667,"lat":59.3,"pop":0},{"id":9535979,"name":"Bergstulen","lon":10.03522,"lat":61.63153,"pop":0},{"id":3161645,"name":"Bergstøl","lon":8.41667,"lat":59.85,"pop":0},{"id":3161639,"name":"Bergsund","lon":10.15,"lat":60.31667,"pop":0},{"id":3161632,"name":"Bergsviki","alt":["Bergsvik"],"lon":4.90139,"lat":60.76306,"pop":0},{"id":12089578,"name":"Bergsåsen","alt":["Bergsasen"],"lon":10.24977,"lat":59.36362,"pop":0},{"id":3161630,"name":"Bergunnhaugen","alt":["Bergundhaugen"],"lon":10.83333,"lat":61.08333,"pop":0},{"id":12089576,"name":"Bergåsen","alt":["Bergasen"],"lon":10.2475,"lat":59.36375,"pop":0},{"id":3161622,"name":"Berkåk","alt":["Berkaak","Berkak"],"lon":10.01177,"lat":62.82496,"pop":914},{"id":3161616,"name":"Berland","lon":5.05494,"lat":60.52493,"pop":0},{"id":3161617,"name":"Berland","lon":5.91667,"lat":60.25,"pop":0},{"id":3161615,"name":"Berle","alt":["Berdle"],"lon":5.11667,"lat":61.83333,"pop":0},{"id":780687,"name":"Berlevåg","alt":["BVG","Bearalvahki","Bearalváhki","Berlevaag","Berlevag","Berlevog","Берлевог"],"lon":29.08636,"lat":70.85778,"pop":906},{"id":9536216,"name":"Bermestaden","lon":8.20773,"lat":58.12681,"pop":0},{"id":3161611,"name":"Bernes","lon":5.51667,"lat":60.6,"pop":0},{"id":9537030,"name":"Bernvågen","alt":["Bernvagen"],"lon":11.3592,"lat":63.97344,"pop":0},{"id":3161606,"name":"Berrvik","alt":["Bervik"],"lon":14.83333,"lat":68.56667,"pop":0},{"id":9536014,"name":"Bersetvollen","lon":11.03127,"lat":61.83064,"pop":0},{"id":9536002,"name":"Bersrudstrondi","lon":8.39681,"lat":61.87528,"pop":0},{"id":3161596,"name":"Berstad","alt":["Bergstad","Berrestad"],"lon":5.415,"lat":62.01083,"pop":0},{"id":3161597,"name":"Berstad","alt":["Berestad"],"lon":5.65,"lat":61.93333,"pop":0},{"id":12077349,"name":"Berstad","lon":10.38189,"lat":59.1131,"pop":0},{"id":3161593,"name":"Bertnes","lon":14.6,"lat":67.28333,"pop":0},{"id":3161854,"name":"Berås","lon":5.17778,"lat":60.65639,"pop":0},{"id":3161587,"name":"Bessaker","lon":10.32475,"lat":64.24536,"pop":0},{"id":9537497,"name":"Bessebostad","lon":16.60316,"lat":68.88874,"pop":0},{"id":11693817,"name":"Besserud","lon":10.67278,"lat":59.95752,"pop":0},{"id":11693816,"name":"Bestun","lon":10.66457,"lat":59.9205,"pop":0},{"id":9536527,"name":"Betholmen","lon":17.68872,"lat":69.11458,"pop":0},{"id":3161569,"name":"Bettna","lon":8.35,"lat":63.08333,"pop":0},{"id":11846445,"name":"Bettum","lon":10.25473,"lat":59.41934,"pop":0},{"id":9537788,"name":"Bevergrenda","lon":9.62953,"lat":59.70357,"pop":0},{"id":9537701,"name":"Bidringsås","alt":["Bidringsas"],"lon":6.83734,"lat":58.14424,"pop":0},{"id":9536174,"name":"Biesaidgohppi","alt":["Piesankoppa","Ytre Leirpollen"],"lon":25.61662,"lat":70.43613,"pop":0},{"id":9537541,"name":"Bieskenjarga","alt":["Bieskkenjarga","Bieskkenjárga"],"lon":25.14218,"lat":69.39175,"pop":0},{"id":9537253,"name":"Biesseluokta","alt":["Nevervika"],"lon":16.10628,"lat":68.12238,"pop":0},{"id":9536903,"name":"Bievrrá","alt":["Bievrra"],"lon":27.32932,"lat":69.99229,"pop":0},{"id":780672,"name":"Bigganes","alt":["Bergitnes","Bigganjargga","Bikkanjarga","Bikkanjárga","Birgitnes"],"lon":28.59655,"lat":70.12394,"pop":0},{"id":3161563,"name":"Bigset","lon":5.98333,"lat":62.36667,"pop":0},{"id":11872558,"name":"Bikkjeglova","lon":10.06756,"lat":59.03139,"pop":0},{"id":9535665,"name":"Biktjønn","alt":["Biktjonn"],"lon":7.10609,"lat":58.13053,"pop":0},{"id":3161562,"name":"Bilbøn","lon":9.46667,"lat":61.7,"pop":0},{"id":9536904,"name":"Bildán","alt":["Bildan"],"lon":27.63288,"lat":70.07653,"pop":0},{"id":3161560,"name":"Bilitt","alt":["Bilit"],"lon":10.90567,"lat":60.67156,"pop":0},{"id":779507,"name":"Billávuotna","alt":["Billavuotna","Billefjord","Indre Billefjord","Indre-Billef'ord","Pillavuono","Индре-Биллефьорд"],"lon":25.04613,"lat":70.31526,"pop":0},{"id":3161557,"name":"Billingsjø","lon":12.31667,"lat":60,"pop":0},{"id":8504433,"name":"Billingstad","lon":10.4823,"lat":59.87548,"pop":2349},{"id":3161555,"name":"Bilstad","lon":6.33333,"lat":58.53333,"pop":0},{"id":780666,"name":"Bilto","alt":["Bilta"],"lon":21.47772,"lat":69.48501,"pop":0},{"id":11748656,"name":"Bindalseidet","lon":12.23122,"lat":65.12719,"pop":0},{"id":3161548,"name":"Binde","lon":11.71108,"lat":64.09034,"pop":0},{"id":3161547,"name":"Bingen","lon":9.76667,"lat":59.88333,"pop":0},{"id":12089588,"name":"Bingene","lon":9.88133,"lat":59.30661,"pop":0},{"id":6355199,"name":"Biri","lon":10.6115,"lat":60.95558,"pop":0},{"id":11776683,"name":"Biristrand","lon":10.49139,"lat":60.99838,"pop":0},{"id":3161535,"name":"Birkedal","lon":8.41667,"lat":58.45,"pop":0},{"id":3161531,"name":"Birkeland","alt":["Byrkjeland"],"lon":5.22921,"lat":60.10702,"pop":0},{"id":3161532,"name":"Birkeland","lon":8.23229,"lat":58.33091,"pop":2962},{"id":11722310,"name":"Birkelund","lon":10.84649,"lat":59.83355,"pop":0},{"id":12089590,"name":"Birkely","lon":10.47529,"lat":59.38602,"pop":0},{"id":3161529,"name":"Birkenes","lon":8.2,"lat":58.31667,"pop":0},{"id":3161620,"name":"Birkenes","alt":["Berknes","Birkenaes","Birkenæs"],"lon":5.93889,"lat":62.21986,"pop":0},{"id":9537620,"name":"Birkestrand","alt":["Skuvgi"],"lon":28.36637,"lat":70.46876,"pop":0},{"id":7626351,"name":"Birketveit","lon":7.91692,"lat":58.45909,"pop":0},{"id":3161525,"name":"Birkjeland","alt":["Birkeland"],"lon":7.21667,"lat":58.36667,"pop":0},{"id":3161526,"name":"Birkjeland","lon":7.2,"lat":58.28333,"pop":0},{"id":3161527,"name":"Birkjeland","lon":7.41667,"lat":58.25,"pop":0},{"id":3161523,"name":"Birkjenes","alt":["Birkenes"],"lon":6.86667,"lat":58.08333,"pop":0},{"id":780662,"name":"Birtavarre","lon":20.83214,"lat":69.49379,"pop":0},{"id":9537307,"name":"Birtedalen,øvre","alt":["Birtedalen ovre","Birtedalen øvre","Ovre Birtedalen","Øvre Birtedalen"],"lon":7.96531,"lat":59.05971,"pop":0},{"id":3241121,"name":"Biskopshavn","lon":5.29532,"lat":60.4238,"pop":0},{"id":7626332,"name":"Bismo","lon":8.26665,"lat":61.88406,"pop":0},{"id":3161518,"name":"Bismoen","lon":8.26667,"lat":61.88333,"pop":573},{"id":9304268,"name":"Bispeladegård","alt":["Bispeladegard"],"lon":5.74404,"lat":58.94601,"pop":0},{"id":3161511,"name":"Bitterstad","lon":14.98277,"lat":68.58598,"pop":0},{"id":7626401,"name":"Bjarkøy","alt":["B'jarkjoj","Bjarkeddjo","Bjarkoy","Bjarkoy kommun","Bjarkøy kommun","Kommun Bjarkoy","Kommun Bjarkøy","bajarakaya","Бьяркёй","বজারকায়"],"lon":16.56392,"lat":68.99994,"pop":0},{"id":3161494,"name":"Bjelkarøy","lon":5.21667,"lat":60.25,"pop":0},{"id":11693814,"name":"Bjelkerud","lon":10.63341,"lat":59.99267,"pop":0},{"id":3161486,"name":"Bjelland","lon":5.26667,"lat":60.08333,"pop":0},{"id":3161487,"name":"Bjelland","lon":5.7,"lat":59.83333,"pop":0},{"id":3161488,"name":"Bjelland","lon":6.2,"lat":59.81667,"pop":0},{"id":3161489,"name":"Bjelland","lon":5.78333,"lat":58.56667,"pop":0},{"id":3161490,"name":"Bjelland","lon":8.88111,"lat":58.45833,"pop":0},{"id":3161491,"name":"Bjelland","lon":7.52767,"lat":58.38407,"pop":0},{"id":9536869,"name":"Bjelland","lon":6.73174,"lat":58.24968,"pop":0},{"id":12089591,"name":"Bjelland","lon":10.35736,"lat":59.27043,"pop":0},{"id":3161481,"name":"Bjelle","alt":["Bjaelle","Bjælle"],"lon":8.05,"lat":58.25,"pop":0},{"id":3161477,"name":"Bjerga","lon":5.38333,"lat":61.36667,"pop":0},{"id":3161474,"name":"Bjerka","alt":["ZMZ"],"lon":13.83622,"lat":66.14908,"pop":452},{"id":9304065,"name":"Bjerkaker","lon":18.92043,"lat":69.63241,"pop":0},{"id":3161470,"name":"Bjerkan","lon":9.01667,"lat":63.28333,"pop":0},{"id":11745783,"name":"Bjerke","lon":10.80836,"lat":59.94073,"pop":0},{"id":11745784,"name":"Bjerke","lon":10.86148,"lat":59.88879,"pop":0},{"id":11873378,"name":"Bjerke","lon":10.24248,"lat":59.63981,"pop":0},{"id":11999100,"name":"Bjerke","lon":10.17909,"lat":59.48899,"pop":0},{"id":9537082,"name":"Bjerkebekk","lon":11.753,"lat":59.14325,"pop":0},{"id":11845423,"name":"Bjerkely","lon":10.33454,"lat":59.68589,"pop":0},{"id":9535655,"name":"Bjerkesætra","alt":["Bjerkesaetra"],"lon":11.85911,"lat":60.41132,"pop":0},{"id":9536324,"name":"Bjerkli","lon":10.84177,"lat":59.84624,"pop":0},{"id":801529,"name":"Bjerknes","lon":21.03694,"lat":69.83083,"pop":0},{"id":3161461,"name":"Bjerknes","alt":["Bjertnes"],"lon":9.8,"lat":59.6,"pop":0},{"id":3161458,"name":"Bjerkreim","alt":["Bjerkreim kommun","Bjorkreim"],"lon":6.11667,"lat":58.6,"pop":0},{"id":3161456,"name":"Bjerkvik","alt":["Bjorkvang","Bjorkvik","Bjørkvang","Bjørkvik"],"lon":17.55709,"lat":68.54917,"pop":1220},{"id":8558597,"name":"Bjerkås","alt":["Bjerkas","Bjorkas","Bjørkås"],"lon":10.48588,"lat":59.79243,"pop":0},{"id":3161455,"name":"Bjerland","lon":7.48333,"lat":58.38333,"pop":0},{"id":3161454,"name":"Bjerom","lon":7.23333,"lat":58.4,"pop":0},{"id":9537378,"name":"Bjertnes","lon":12.00742,"lat":60.55462,"pop":0},{"id":9404433,"name":"Bjervamoen","lon":9.1057,"lat":59.29839,"pop":0},{"id":3161452,"name":"Bjerve","lon":10.9,"lat":59.6,"pop":0},{"id":11748707,"name":"Bjoa","lon":5.64176,"lat":59.6653,"pop":0},{"id":3161432,"name":"Bjoneroa","alt":["Bjone"],"lon":10.28468,"lat":60.52374,"pop":0},{"id":11746739,"name":"Bjorbekk","lon":8.69546,"lat":58.43504,"pop":0},{"id":3161412,"name":"Bjordal","lon":5.43333,"lat":61.25,"pop":0},{"id":3161413,"name":"Bjordal","lon":5.82989,"lat":61.07653,"pop":0},{"id":6692397,"name":"Bjorli","lon":8.20583,"lat":62.25799,"pop":0},{"id":3161170,"name":"Bjorvatn","lon":8.93333,"lat":58.78333,"pop":0},{"id":3161164,"name":"Bjorvik","lon":18.93333,"lat":69.68333,"pop":0},{"id":9403953,"name":"Bjorøyna","alt":["Bjoroyna"],"lon":5.17939,"lat":60.32274,"pop":0},{"id":3161162,"name":"Bjotveit","lon":6.81667,"lat":60.45,"pop":0},{"id":11863762,"name":"Bjugn","lon":9.80598,"lat":63.76314,"pop":0},{"id":3161157,"name":"Bjunes","lon":6.73333,"lat":58.7,"pop":0},{"id":3161506,"name":"Bjærangen","alt":["Bjaerangen","Bjaerangfjord","Bjaerangsfjord","Bjærangfjord","Bjærangsfjord"],"lon":13.76667,"lat":66.75,"pop":0},{"id":3161447,"name":"Bjødalssætrane","alt":["Bjodalen","Bjodalssaetrane","Bjödalen"],"lon":9.33333,"lat":60.76667,"pop":0},{"id":6255072,"name":"Bjølsen","lon":10.75982,"lat":59.94362,"pop":0},{"id":3161439,"name":"Bjølset","lon":11.7,"lat":60.78333,"pop":0},{"id":3161429,"name":"Bjønnes","lon":9.76667,"lat":59.05,"pop":0},{"id":11996983,"name":"Bjønnes","alt":["Bjonnes"],"lon":10.11523,"lat":59.03908,"pop":0},{"id":12089607,"name":"Bjønnes","alt":["Bjonnes"],"lon":10.42901,"lat":59.21866,"pop":0},{"id":11997003,"name":"Bjønnesbakken","alt":["Bjonnesbakken"],"lon":10.12279,"lat":59.037,"pop":0},{"id":11996998,"name":"Bjønnesskogen","alt":["Bjonnesskogen"],"lon":10.11375,"lat":59.03799,"pop":0},{"id":9536076,"name":"Bjønnkuvvollan","alt":["Bjonnkuvvollan"],"lon":11.06178,"lat":62.44606,"pop":0},{"id":9536692,"name":"Bjørdal","alt":["Bjordal"],"lon":7.00962,"lat":62.03297,"pop":0},{"id":3161408,"name":"Bjøre","lon":9.63333,"lat":60.16667,"pop":0},{"id":9537761,"name":"Bjørga","alt":["Bjorga"],"lon":17.94104,"lat":69.14434,"pop":0},{"id":3161396,"name":"Bjørgan","alt":["Bjorgan"],"lon":11.18333,"lat":62.91667,"pop":0},{"id":9536179,"name":"Bjørgan","alt":["Bjorgan"],"lon":12.32761,"lat":64.39609,"pop":0},{"id":9536557,"name":"Bjørgan","alt":["Bjorgan"],"lon":10.92493,"lat":63.43415,"pop":0},{"id":3161385,"name":"Bjørge","alt":["Bjorgi","Bjørgi"],"lon":5.24969,"lat":60.33367,"pop":0},{"id":3161390,"name":"Bjørge","lon":10.28333,"lat":61.38333,"pop":0},{"id":3161391,"name":"Bjørge","lon":10.08333,"lat":61.23333,"pop":0},{"id":3161392,"name":"Bjørge","lon":10.66667,"lat":60.85,"pop":0},{"id":3161393,"name":"Bjørge","lon":8.65,"lat":59.48333,"pop":0},{"id":11873376,"name":"Bjørge","alt":["Bjorge"],"lon":10.21358,"lat":59.63268,"pop":0},{"id":11873375,"name":"Bjørge Nordre","alt":["Bjorge Nordre"],"lon":10.21014,"lat":59.63909,"pop":0},{"id":11873374,"name":"Bjørge Søndre","alt":["Bjorge Sondre"],"lon":10.21164,"lat":59.63777,"pop":0},{"id":3161387,"name":"Bjørgen","alt":["Bjorgen"],"lon":10.65,"lat":62.95,"pop":0},{"id":3161388,"name":"Bjørgen","alt":["Bjorgen"],"lon":9.58333,"lat":62.6,"pop":0},{"id":11870241,"name":"Bjørgeseter","alt":["Bjorgeseter"],"lon":10.14171,"lat":59.65435,"pop":0},{"id":3161386,"name":"Bjørgesæter","alt":["Bjorges","Bjorgesaeter","Bjorgeseter","Bjørges","Bjørgeseter"],"lon":10.7,"lat":60.23333,"pop":0},{"id":3161383,"name":"Bjørgja","alt":["Bjorgen","Bjorgja","Björgen"],"lon":10.41667,"lat":63.03333,"pop":0},{"id":3161380,"name":"Bjørgo","lon":7.23333,"lat":60.91667,"pop":0},{"id":3161381,"name":"Bjørgo","lon":9.47615,"lat":60.89383,"pop":0},{"id":3161377,"name":"Bjørheimsbygda","alt":["Bjoreimsbygda","Bjorheimsbygd","Bjøreimsbygda","Bjørheimsbygd"],"lon":6.03066,"lat":59.07836,"pop":0},{"id":3161375,"name":"Bjørhusdalen","alt":["Bjorhusdalen"],"lon":13.07904,"lat":64.91814,"pop":0},{"id":3161373,"name":"Bjøringen","alt":["Bjoren","Bjoringen","Björen"],"lon":8.58333,"lat":63.23333,"pop":0},{"id":3161369,"name":"Bjørk","alt":["Bjork","Bjorke","Bjørke"],"lon":7.71667,"lat":61.53333,"pop":0},{"id":3161368,"name":"Bjørkan","alt":["Bjerkan","Bjorkan"],"lon":10.1,"lat":64.03333,"pop":0},{"id":9536487,"name":"Bjørkan","alt":["Bjorkan"],"lon":8.64621,"lat":62.65905,"pop":0},{"id":3161358,"name":"Bjørke","alt":["Bjerke","Bjorke"],"lon":6.55689,"lat":62.10149,"pop":0},{"id":3161359,"name":"Bjørke","lon":11.01667,"lat":60.23333,"pop":0},{"id":11909082,"name":"Bjørke","alt":["Bjorke"],"lon":10.06634,"lat":59.58654,"pop":0},{"id":9536184,"name":"Bjørkebakken","alt":["Bjorkebakken"],"lon":17.73548,"lat":69.0347,"pop":0},{"id":3161353,"name":"Bjørkedal","alt":["Bjorkedal","Sore Birkedal","Søre Birkedal"],"lon":6.06667,"lat":62.01667,"pop":0},{"id":3161346,"name":"Bjørkelangen","alt":["Bjorkelangen"],"lon":11.56396,"lat":59.88357,"pop":2346},{"id":9883025,"name":"Bjørkelia","lon":10.16179,"lat":59.7394,"pop":0},{"id":3161337,"name":"Bjørkestrand","lon":6.33333,"lat":59.83333,"pop":0},{"id":3161335,"name":"Bjørkevoll","lon":6.73333,"lat":58.41667,"pop":0},{"id":9536943,"name":"Bjørkevollen","alt":["Bjorkevollen"],"lon":8.11732,"lat":58.21682,"pop":0},{"id":9536406,"name":"Bjørkgrenda","alt":["Bjorkgrenda"],"lon":9.68837,"lat":62.60313,"pop":0},{"id":9404463,"name":"Bjørkhaug","alt":["Bjorkhaug"],"lon":8.63912,"lat":59.88089,"pop":0},{"id":780650,"name":"Bjørkheim","alt":["Bjorkheim","Bjornheim","Björnheim"],"lon":30.0016,"lat":69.6901,"pop":0},{"id":780649,"name":"Bjørkli","alt":["Bjarkleid","Bjorkli","Bjärkleid"],"lon":20.66667,"lat":69.53333,"pop":0},{"id":3161331,"name":"Bjørkli","lon":18.86667,"lat":69.26667,"pop":0},{"id":3161332,"name":"Bjørkli","alt":["Bjorkeli","Bjorkli","Bjorklid","Björkeli","Björklid"],"lon":18.83333,"lat":69.13333,"pop":0},{"id":9536441,"name":"Bjørkmyr","alt":["Bjorkmyr","Bjorkmyra","Bjørkmyra"],"lon":10.4349,"lat":63.37893,"pop":0},{"id":9536716,"name":"Bjørkset","alt":["Bjorkset"],"lon":10.23481,"lat":62.91895,"pop":0},{"id":3161362,"name":"Bjørkåsen","alt":["Bjorkaasen","Bjorkasen","Björkaasen"],"lon":16.78993,"lat":68.33054,"pop":0},{"id":3161308,"name":"Bjørn","alt":["Bjorn","Bjorn i Helgeland","Bjørn i Helgeland"],"lon":12.5854,"lat":66.0817,"pop":0},{"id":9535694,"name":"Bjørnalia","alt":["Bjornalia","Bjornalie","Bjørnalie"],"lon":9.30361,"lat":60.64711,"pop":0},{"id":9536163,"name":"Bjørnarem","alt":["Bjornarem"],"lon":6.63056,"lat":62.69316,"pop":0},{"id":9535962,"name":"Bjørnbergsætra","alt":["Bjornbergsaetra","Bjornbergssaetra","Bjørnbergssætra"],"lon":12.66845,"lat":61.3465,"pop":0},{"id":3161289,"name":"Bjørnbærvika","alt":["Bjornbaervika","Bjornbaerviken","Björnbærviken"],"lon":14.05,"lat":66.28333,"pop":0},{"id":780646,"name":"Bjørndal","alt":["Bjorndal","Bjornelvdalen","Björnelvdalen"],"lon":29.96602,"lat":69.62008,"pop":0},{"id":3161283,"name":"Bjørndal","lon":5.11194,"lat":60.55833,"pop":0},{"id":3206796,"name":"Bjørndal","alt":["Bjorndal","Bjorndalstrae","Bjørndalstræ"],"lon":5.24472,"lat":60.35778,"pop":0},{"id":11693812,"name":"Bjørndal","alt":["Bjorndal"],"lon":10.82991,"lat":59.83781,"pop":0},{"id":3161276,"name":"Bjørndalen","alt":["Bjorndalen"],"lon":11.4,"lat":64.83333,"pop":0},{"id":3161277,"name":"Bjørndalen","lon":9.83333,"lat":59.95,"pop":0},{"id":9537293,"name":"Bjørndalen","alt":["Bjorndalen"],"lon":10.91861,"lat":59.9106,"pop":0},{"id":12078178,"name":"Bjørndalen","alt":["Bjorndalen"],"lon":10.02909,"lat":59.06977,"pop":0},{"id":12089611,"name":"Bjørnebu","alt":["Bjornebu"],"lon":10.44135,"lat":59.2386,"pop":0},{"id":9304082,"name":"Bjørnebyen","alt":["Bjornebyen"],"lon":9.40387,"lat":58.86679,"pop":0},{"id":9537847,"name":"Bjørnemyrdalen","alt":["Bjornemyr","Bjornemyrdalen","Bjørnemyr"],"lon":10.64462,"lat":59.83288,"pop":0},{"id":3161261,"name":"Bjørnerud","lon":10.28333,"lat":60.56667,"pop":0},{"id":3161262,"name":"Bjørnerud","lon":9.58333,"lat":60.03333,"pop":0},{"id":11693811,"name":"Bjørnerud","alt":["Bjornerud"],"lon":10.81672,"lat":59.84274,"pop":0},{"id":3161266,"name":"Bjørnerås","alt":["Bjorneraas","Bjorneras","Björneraas"],"lon":10.1,"lat":63.58333,"pop":0},{"id":3161253,"name":"Bjørnestad","lon":5.11667,"lat":61.23333,"pop":0},{"id":3161254,"name":"Bjørnestad","alt":["Bjornestad","Bjornstad","Bjørnstad"],"lon":6.56667,"lat":58.65,"pop":0},{"id":780643,"name":"Bjørnevatn","alt":["Bjornevand","Bjornevatn","Bjornvandet","Björnevand","Björnvandet","Kruuvakylae","Kruuvakylä"],"lon":29.98722,"lat":69.66745,"pop":2392},{"id":3161250,"name":"Bjørnevåg","alt":["Bjornevaag","Bjornevag","Björnevaag"],"lon":9.13333,"lat":63.56667,"pop":0},{"id":12078173,"name":"Bjørnevåg","alt":["Bjornevag"],"lon":10.40603,"lat":59.07531,"pop":0},{"id":3161242,"name":"Bjørnholt","alt":["Bjornhalt"],"lon":10.68832,"lat":60.05089,"pop":0},{"id":9535753,"name":"Bjørnhovd","alt":["Bjornhovd"],"lon":8.89949,"lat":60.98288,"pop":0},{"id":3161239,"name":"Bjørnli","alt":["Bjornli"],"lon":9.67102,"lat":63.13011,"pop":277},{"id":3161228,"name":"Bjørnsand","lon":13.63333,"lat":68.23333,"pop":0},{"id":3161219,"name":"Bjørnskinn","alt":["Bjornskinn"],"lon":15.63294,"lat":69.00006,"pop":0},{"id":11693810,"name":"Bjørnsletta","alt":["Bjornsletta"],"lon":10.64027,"lat":59.92697,"pop":0},{"id":780637,"name":"Bjørnstad","lon":23.5,"lat":69.91667,"pop":0},{"id":3161206,"name":"Bjørnstad","lon":9.2,"lat":63.06667,"pop":0},{"id":3161207,"name":"Bjørnstad","lon":11.35,"lat":61.05,"pop":0},{"id":3161208,"name":"Bjørnstad","lon":11.38333,"lat":60.81667,"pop":0},{"id":3161209,"name":"Bjørnstad","lon":10.81667,"lat":60.71667,"pop":0},{"id":3161210,"name":"Bjørnstad","lon":11.16667,"lat":60.46667,"pop":0},{"id":9536838,"name":"Bjørnstad","alt":["Bjornstad"],"lon":9.73182,"lat":63.47069,"pop":0},{"id":11745764,"name":"Bjørnstad","alt":["Bjornstad"],"lon":10.78804,"lat":60.02264,"pop":0},{"id":11909081,"name":"Bjørnstadfeltet","alt":["Bjornstadfeltet"],"lon":10.26114,"lat":59.57732,"pop":0},{"id":3161200,"name":"Bjørnsund","alt":["Bjoernsund","Bjornsund"],"lon":6.82279,"lat":62.89083,"pop":0},{"id":9404298,"name":"Bjørntvedt","alt":["Bjorntvedt"],"lon":9.66118,"lat":59.13234,"pop":0},{"id":3161195,"name":"Bjørnvassdalen","alt":["Bjornvasdalen","Bjornvassdalen","Björnvasdalen"],"lon":14.15,"lat":66.4,"pop":0},{"id":3161196,"name":"Bjørnvågen","alt":["Bjornvaag","Bjornvag","Bjornvagen","Björnvaag","Bjørnvåg"],"lon":15.41667,"lat":68.12389,"pop":0},{"id":3161233,"name":"Bjørnøy","lon":18.16667,"lat":69.76667,"pop":0},{"id":12078172,"name":"Bjørnøya","alt":["Bjornoya"],"lon":9.93347,"lat":59.11122,"pop":0},{"id":3161306,"name":"Bjørnåa","alt":["Bjornaa","Bjornaaen","Björnaaen"],"lon":13.25,"lat":65.8,"pop":0},{"id":3161296,"name":"Bjørnåsen","alt":["Bjornaasen","Bjornasen","Björnaasen"],"lon":11,"lat":61.13333,"pop":0},{"id":9303985,"name":"Bjørset","alt":["Bjorset"],"lon":7.12808,"lat":62.73587,"pop":0},{"id":3161173,"name":"Bjørsviki","lon":5.49173,"lat":60.63357,"pop":0},{"id":3161171,"name":"Bjørtuftgrende","lon":8.73219,"lat":59.9199,"pop":0},{"id":3161165,"name":"Bjørvik","alt":["Bjorvik","Bjorvika","Björvika"],"lon":5.58333,"lat":61.36667,"pop":0},{"id":11693809,"name":"Bjørvika","alt":["Bjorvika"],"lon":10.75097,"lat":59.90758,"pop":0},{"id":9537908,"name":"Bjørøyhamn","alt":["Bjoroyhamn","Bjoroyhavn","Bjorøyhavn"],"lon":5.18576,"lat":60.32255,"pop":0},{"id":9537080,"name":"Bjåen","alt":["Bjaen"],"lon":7.43989,"lat":59.63992,"pop":0},{"id":3161503,"name":"Bjåland","lon":8.4,"lat":59.48333,"pop":0},{"id":9537680,"name":"Bjålandsgrendi","alt":["Bjalandsgrendi"],"lon":8.39533,"lat":59.48631,"pop":0},{"id":9404283,"name":"Bjår","alt":["Bjar"],"lon":8.79708,"lat":59.75212,"pop":0},{"id":6545370,"name":"Blaker","lon":11.30198,"lat":60.00349,"pop":0},{"id":3161061,"name":"Blakset","alt":["Blakkset","Blaksaeter","Blakseter","Blaksæter"],"lon":6.5,"lat":61.86667,"pop":0},{"id":3161059,"name":"Blakstad","alt":["Blakkstad"],"lon":10.4645,"lat":59.8191,"pop":1898},{"id":7626350,"name":"Blakstad","lon":8.64648,"lat":58.5046,"pop":0},{"id":3161057,"name":"Blakstveit","lon":10.06667,"lat":60.46667,"pop":0},{"id":3161045,"name":"Blankvassbråtan","lon":10.67111,"lat":60.02582,"pop":0},{"id":3161009,"name":"Bleie","alt":["Bleien"],"lon":6.56667,"lat":60.25,"pop":0},{"id":3161008,"name":"Bleik","lon":15.95544,"lat":69.27262,"pop":456},{"id":3161007,"name":"Bleiken","lon":10.5,"lat":60.46667,"pop":0},{"id":3161001,"name":"Bleikli","lon":5.4,"lat":60.53333,"pop":0},{"id":3161000,"name":"Bleiknes","lon":15.3165,"lat":66.90861,"pop":0},{"id":3160996,"name":"Bleikvasslia","alt":["Bleikvassli"],"lon":13.80721,"lat":65.90857,"pop":0},{"id":3160993,"name":"Bleivik","lon":5.25,"lat":59.48333,"pop":0},{"id":3160991,"name":"Blekastad","lon":9.56667,"lat":61.76667,"pop":0},{"id":9404295,"name":"Blekebakken","lon":9.67996,"lat":59.05471,"pop":0},{"id":3160980,"name":"Bleskestad","lon":6.93333,"lat":59.65,"pop":0},{"id":3160978,"name":"Blesom","lon":9.11667,"lat":61.88333,"pop":0},{"id":3160974,"name":"Blikberget","alt":["Blikberg","Blikkberget"],"lon":11.58874,"lat":61.1169,"pop":0},{"id":3160970,"name":"Blikshamn","lon":5.31667,"lat":59.2,"pop":0},{"id":3160001,"name":"Bliksvær","alt":["Bliksvaer","Brikksvaer","Briksvaer","Briksvær"],"lon":14.00357,"lat":67.27719,"pop":0},{"id":3160972,"name":"Bliksås","alt":["Bliksaas","Bliksas"],"lon":9.98333,"lat":63.51667,"pop":0},{"id":3160966,"name":"Blindern","alt":["Blinderen","Blindernveien"],"lon":10.71819,"lat":59.93743,"pop":0},{"id":3160967,"name":"Blindheim","lon":5.38333,"lat":60.46667,"pop":0},{"id":9536063,"name":"Blindheim","lon":6.57786,"lat":62.37586,"pop":0},{"id":9404402,"name":"Blindsand","lon":10.38258,"lat":59.53856,"pop":0},{"id":3160960,"name":"Blindvågen","alt":["Blindvaagen","Blindvag","Blindvagen","Blindvåg"],"lon":10.07247,"lat":64.03947,"pop":0},{"id":3160954,"name":"Blokken","lon":15.38815,"lat":68.59978,"pop":0},{"id":12089627,"name":"Bloksberg","lon":10.47142,"lat":59.23497,"pop":0},{"id":3160951,"name":"Blom","lon":4.89167,"lat":60.53556,"pop":0},{"id":3222648,"name":"Blomli","lon":18.02972,"lat":69.12389,"pop":0},{"id":11746980,"name":"Blommenholm","lon":10.55099,"lat":59.89901,"pop":0},{"id":11746607,"name":"Blomsterdalen","lon":5.25026,"lat":60.28247,"pop":0},{"id":3160942,"name":"Blomstølen","lon":9.43333,"lat":60.76667,"pop":0},{"id":3241072,"name":"Blomvåg","lon":4.87587,"lat":60.52984,"pop":0},{"id":9404338,"name":"Blusuvoll","lon":10.43118,"lat":63.42049,"pop":0},{"id":3160940,"name":"Blylaget","alt":["Bloylaget","Bløylaget"],"lon":10.70667,"lat":59.77722,"pop":0},{"id":3160936,"name":"Blyset","lon":13.4,"lat":66.2,"pop":0},{"id":11747886,"name":"Blystadlia","lon":11.04014,"lat":59.93044,"pop":0},{"id":3161141,"name":"Blænes","lon":5.26667,"lat":60,"pop":0},{"id":3161137,"name":"Blæstad","lon":11.96667,"lat":61.38333,"pop":0},{"id":3161138,"name":"Blæstad","lon":11.15,"lat":60.81667,"pop":0},{"id":9535857,"name":"Blæstern","alt":["Blaestern"],"lon":9.9917,"lat":61.11973,"pop":0},{"id":3161135,"name":"Blæstra","alt":["Blaesterud","Blaestra","Blæsterud"],"lon":9.08333,"lat":62.06667,"pop":0},{"id":9404203,"name":"Blødekjær","alt":["Blodekjaer"],"lon":8.7624,"lat":58.46409,"pop":0},{"id":9536190,"name":"Bløfeta","alt":["Blofeta"],"lon":6.63866,"lat":62.68357,"pop":0},{"id":9536513,"name":"Blåberget","alt":["Blaberget"],"lon":22.92932,"lat":70.04211,"pop":0},{"id":11872212,"name":"Blåekra","alt":["Blaekra"],"lon":9.94218,"lat":59.02787,"pop":0},{"id":9536261,"name":"Blåfjellet","alt":["Blafjellet"],"lon":10.80239,"lat":59.65415,"pop":0},{"id":3161093,"name":"Blåflat","lon":7.58333,"lat":61.05,"pop":0},{"id":3161056,"name":"Blålia","alt":["Blaali","Blali","Blalia","Blåli"],"lon":5.12889,"lat":61.91917,"pop":0},{"id":11844706,"name":"Blåskjell","alt":["Blaskjell"],"lon":9.89022,"lat":58.9699,"pop":0},{"id":11745760,"name":"Blåsås","alt":["Blasas"],"lon":10.75436,"lat":59.99867,"pop":0},{"id":780622,"name":"Boavva","alt":["Bogen"],"lon":21.56045,"lat":70.28622,"pop":0},{"id":6545374,"name":"Bodding","lon":11.42046,"lat":60.08477,"pop":0},{"id":3160881,"name":"Bodø","alt":["BOO","Badaddjo","Bode","Bodo","Bodo vald","Bodoe","Bodö","Bodø vald","Bodė","Bud'o","Bude","Budejju","Budjo","Budzjo","Budė","Bådåddjo","Būdē","Kommun Bodo","Kommun Bodø","bo de","boda","bodo","bodoe","bwdw","bwdw  nrwzh","Боде","Бодо","Буде","Будзё","Будьо","Будё","بودو","بودو، نروژ","بوڈو","বোডা","ボードー","博德","보되"],"lon":14.40501,"lat":67.28,"pop":34073},{"id":3160880,"name":"Bodøgård","alt":["Bodogaard","Bodogard","Bodögaard"],"lon":14.43333,"lat":67.26667,"pop":0},{"id":3160869,"name":"Boen","lon":8.13333,"lat":58.23333,"pop":0},{"id":777184,"name":"Boftsa","alt":["Bokca","Bokcá","Tjerne","Tjernet","Tjornet","Tjørnet"],"lon":28.175,"lat":70.37693,"pop":0},{"id":9536457,"name":"Bogehamn","lon":5.08393,"lat":60.62209,"pop":0},{"id":3160844,"name":"Bogen","alt":["Begen"],"lon":15.36667,"lat":68.8,"pop":0},{"id":3160845,"name":"Bogen","alt":["Bogen i Senja"],"lon":15.88572,"lat":68.66146,"pop":0},{"id":3160846,"name":"Bogen","alt":["Bogen i Ofoten","Randa","Ránda"],"lon":16.9928,"lat":68.52647,"pop":395},{"id":3160847,"name":"Bogen","lon":15.19246,"lat":67.89867,"pop":0},{"id":3160848,"name":"Bogen","lon":7.56667,"lat":63.05,"pop":0},{"id":3160849,"name":"Bogen","lon":10.43778,"lat":59.61139,"pop":0},{"id":3226829,"name":"Bogen","lon":18.20872,"lat":69.62009,"pop":0},{"id":8015076,"name":"Bogen","lon":11.95124,"lat":65.07457,"pop":0},{"id":12078165,"name":"Bogen","lon":10.48143,"lat":59.26148,"pop":0},{"id":12078166,"name":"Bogen","lon":10.3282,"lat":59.18207,"pop":0},{"id":11693807,"name":"Bogerud","lon":10.84218,"lat":59.87604,"pop":0},{"id":9536506,"name":"Bognelv","lon":22.30614,"lat":70.02496,"pop":0},{"id":7626358,"name":"Bokn","lon":5.43524,"lat":59.23062,"pop":0},{"id":3160790,"name":"Bolga","alt":["Bolga i Helgeland"],"lon":13.23419,"lat":66.80508,"pop":0},{"id":3160791,"name":"Bolga","alt":["Bolgen"],"lon":7.76667,"lat":63.08333,"pop":0},{"id":3160783,"name":"Bolkesjø","lon":9.27693,"lat":59.72475,"pop":0},{"id":3160779,"name":"Bolle","lon":13.59056,"lat":68.16346,"pop":0},{"id":3160778,"name":"Bollermoen","lon":13.85,"lat":66.03333,"pop":0},{"id":11873716,"name":"Bollerud","lon":10.03738,"lat":59.60312,"pop":0},{"id":3160757,"name":"Bolstad","lon":6.2,"lat":61.18333,"pop":0},{"id":3160755,"name":"Bolstadøyri","alt":["Bolstadoyri"],"lon":5.95818,"lat":60.63887,"pop":0},{"id":3160753,"name":"Boltåsen","alt":["Boltaasen","Boltasen"],"lon":16.7,"lat":68.53333,"pop":0},{"id":9404471,"name":"Bomannsvik","alt":["Bomansvik"],"lon":10.70531,"lat":59.79128,"pop":0},{"id":780746,"name":"Bonakas","alt":["Banakas","Banjakas","Boinakas","Bonjakas","Bonjákas","Bånjakas","Rasjok"],"lon":28.23316,"lat":70.42687,"pop":0},{"id":3160735,"name":"Bondal","lon":8.60539,"lat":59.8156,"pop":0},{"id":3160732,"name":"Bondelia","alt":["Bondeli"],"lon":10.7,"lat":60.76667,"pop":0},{"id":9304016,"name":"Bondesvea","lon":11.05677,"lat":60.80271,"pop":0},{"id":3160730,"name":"Bondhus","lon":6.28333,"lat":60.11667,"pop":0},{"id":8558576,"name":"Bondibråten","alt":["Bondibraten"],"lon":10.44741,"lat":59.8327,"pop":0},{"id":3222382,"name":"Bondjord","lon":18.04864,"lat":69.31722,"pop":0},{"id":3160726,"name":"Bondøy","alt":["Bondoy"],"lon":10.73333,"lat":64.81667,"pop":0},{"id":3160713,"name":"Bones","lon":18.24338,"lat":68.64547,"pop":0},{"id":3160724,"name":"Bones","lon":10.5,"lat":62.98333,"pop":0},{"id":11693805,"name":"Bonna","lon":10.65877,"lat":60.07727,"pop":0},{"id":3160719,"name":"Bonå","alt":["Bona","Bonasjoen","Bonna","Bonnaa","Bonnasjoen","Bonnå","Bonåsjøen"],"lon":15.72746,"lat":67.60418,"pop":0},{"id":3160704,"name":"Bordal","lon":10.16667,"lat":62.96667,"pop":0},{"id":9536473,"name":"Bordvik","lon":7.01634,"lat":58.07693,"pop":0},{"id":3160692,"name":"Bore","lon":5.56667,"lat":58.78333,"pop":0},{"id":3160681,"name":"Borgan","alt":["Borgann","Borgund","Borgund i Namdalen"],"lon":10.9,"lat":64.96667,"pop":0},{"id":3160675,"name":"Borge","lon":10.26667,"lat":59.26667,"pop":0},{"id":3160676,"name":"Borge","lon":11.05,"lat":59.23333,"pop":0},{"id":9537919,"name":"Borgegrendi","lon":9.00464,"lat":60.26908,"pop":0},{"id":12078158,"name":"Borgejordet","lon":10.0427,"lat":59.06001,"pop":0},{"id":3160664,"name":"Borgen","lon":11.15767,"lat":59.26617,"pop":0},{"id":9536292,"name":"Borgen","lon":11.05642,"lat":59.94331,"pop":0},{"id":11693804,"name":"Borgen","lon":10.68191,"lat":59.93171,"pop":0},{"id":3160662,"name":"Borgestad","lon":9.65006,"lat":59.16632,"pop":0},{"id":3160660,"name":"Borgfjord","lon":13.8,"lat":68.26667,"pop":0},{"id":9537285,"name":"Borggrend","lon":7.91845,"lat":59.17229,"pop":0},{"id":7626347,"name":"Borgheim","lon":10.40745,"lat":59.22629,"pop":0},{"id":3160654,"name":"Borgo","lon":5.46667,"lat":60.51667,"pop":0},{"id":3160653,"name":"Borgos","lon":11.83333,"lat":62.65,"pop":0},{"id":11746432,"name":"Borgund","alt":["Borgunn","Боргунн"],"lon":7.81129,"lat":61.04679,"pop":100},{"id":3160644,"name":"Borgvær","lon":13.81472,"lat":68.32611,"pop":0},{"id":9535805,"name":"Borgåsen","alt":["Borgasen"],"lon":11.80438,"lat":60.8013,"pop":0},{"id":3160643,"name":"Borhaug","lon":6.6,"lat":58.1,"pop":0},{"id":3160630,"name":"Borkenes","lon":16.17115,"lat":68.77261,"pop":1508},{"id":3160622,"name":"Borlo","alt":["Borlaug"],"lon":7.95,"lat":61.06667,"pop":0},{"id":9403960,"name":"Borre","lon":10.45646,"lat":59.38189,"pop":0},{"id":11745738,"name":"Borrebekken","lon":10.82343,"lat":59.94189,"pop":0},{"id":3160607,"name":"Borregård","alt":["Borregaard","Borregard"],"lon":11.11667,"lat":59.26667,"pop":0},{"id":3160591,"name":"Borsholmen","alt":["Borsholm"],"lon":5.08333,"lat":61.21667,"pop":0},{"id":3160583,"name":"Borstuvollen","alt":["Borstu-vold"],"lon":11.5,"lat":62.81667,"pop":0},{"id":3160575,"name":"Bortheim","lon":5.36667,"lat":61.35,"pop":0},{"id":3160550,"name":"Bossbøen","alt":["Bosboen","Bosbøen","Bossboen"],"lon":8.25,"lat":59.76667,"pop":0},{"id":780604,"name":"Bossekop","alt":["Bosekop"],"lon":23.25917,"lat":69.97194,"pop":0},{"id":11873782,"name":"Bosskleiv","lon":10.25012,"lat":59.60043,"pop":0},{"id":3160977,"name":"Bossvika","alt":["Bossvik"],"lon":9.10463,"lat":58.71847,"pop":0},{"id":3160544,"name":"Bostad","lon":10.65,"lat":63.41667,"pop":0},{"id":3160540,"name":"Bostrak","alt":["Busterak"],"lon":8.88333,"lat":59.11667,"pop":0},{"id":3160537,"name":"Bota","lon":8.98677,"lat":58.57431,"pop":0},{"id":780600,"name":"Botn","lon":22.58361,"lat":70.20306,"pop":0},{"id":3160518,"name":"Botn","alt":["Grunnfjordbotn"],"lon":19.55,"lat":69.98333,"pop":0},{"id":3160520,"name":"Botn","lon":15.15,"lat":67.76667,"pop":0},{"id":3160522,"name":"Botn","lon":12.60684,"lat":65.98483,"pop":0},{"id":3160523,"name":"Botn","lon":5.36667,"lat":61.03333,"pop":0},{"id":3160524,"name":"Botn","lon":7.4,"lat":59.76667,"pop":0},{"id":3160526,"name":"Botn","lon":17.10787,"lat":68.48277,"pop":0},{"id":9535996,"name":"Botn","lon":7.82981,"lat":61.96719,"pop":0},{"id":9537510,"name":"Botn","alt":["Veidmannsbotn"],"lon":17.07426,"lat":69.28041,"pop":0},{"id":9537071,"name":"Botnangardan","lon":10.20789,"lat":62.64068,"pop":0},{"id":3160497,"name":"Botnen","lon":6.21667,"lat":60.46667,"pop":0},{"id":9537125,"name":"Botnen","lon":7.08527,"lat":59.31269,"pop":0},{"id":3160491,"name":"Botngård","alt":["Botngaard","Botngard"],"lon":9.80863,"lat":63.76484,"pop":1144},{"id":3160490,"name":"Botnhamn","lon":17.90299,"lat":69.50743,"pop":0},{"id":9404325,"name":"Botten","lon":9.56247,"lat":58.97136,"pop":0},{"id":3160478,"name":"Bottheim","lon":9.01667,"lat":62.1,"pop":0},{"id":3258687,"name":"Bragernes","lon":10.20695,"lat":59.74727,"pop":0},{"id":9535830,"name":"Brakastølen","alt":["Brakastolen"],"lon":8.93425,"lat":61.01727,"pop":0},{"id":3160437,"name":"Brakstad","lon":8.10528,"lat":62.85889,"pop":0},{"id":3160438,"name":"Brakstad","lon":5.12208,"lat":60.54381,"pop":0},{"id":3137621,"name":"Brandal","alt":["Sorbrandal","Sørbrandal"],"lon":5.56667,"lat":62.16667,"pop":0},{"id":3160435,"name":"Brandal","alt":["Brandal pa Sunnmore","Brandal på Sunnmøre","Branddal"],"lon":6.00828,"lat":62.40077,"pop":314},{"id":9536809,"name":"Brandan","lon":10.00156,"lat":63.11304,"pop":0},{"id":3160434,"name":"Brandanger","lon":5.03333,"lat":60.93333,"pop":0},{"id":3336589,"name":"Brandbu","lon":10.50428,"lat":60.42214,"pop":0},{"id":9536895,"name":"Brandsnes","lon":12.56157,"lat":66.20853,"pop":0},{"id":3160406,"name":"Brandsvika","alt":["Brandsviken"],"lon":11.85,"lat":65.7,"pop":0},{"id":3160412,"name":"Brandsøy","alt":["Brandso","Brandsoy","Brandsö"],"lon":5.13628,"lat":61.60272,"pop":459},{"id":3160404,"name":"Brandval","lon":12.01838,"lat":60.31592,"pop":0},{"id":9536180,"name":"Brandvik","lon":9.6873,"lat":63.76393,"pop":0},{"id":3160399,"name":"Brandvoll","alt":["Brandvold"],"lon":18.18333,"lat":68.83333,"pop":0},{"id":3160400,"name":"Brandvålen","lon":10.6251,"lat":62.16623,"pop":0},{"id":3160392,"name":"Braskereidfoss","lon":11.80197,"lat":60.7247,"pop":255},{"id":11872119,"name":"Brastein","lon":9.94109,"lat":59.02134,"pop":0},{"id":3160332,"name":"Bratland","alt":["Brattland"],"lon":13.45419,"lat":64.48961,"pop":0},{"id":9304392,"name":"Bratsberg","lon":9.62537,"lat":59.20273,"pop":0},{"id":3160366,"name":"Brattabø","lon":6.38333,"lat":60.28333,"pop":0},{"id":3160361,"name":"Brattbakken","alt":["Bratbakken"],"lon":11.88333,"lat":63.55,"pop":0},{"id":12089676,"name":"Brattbakken","lon":10.33219,"lat":59.22754,"pop":0},{"id":3226906,"name":"Brattekleiv","alt":["Bratteklev"],"lon":8.79202,"lat":58.45018,"pop":0},{"id":3160355,"name":"Bratten","lon":5.3,"lat":60.05,"pop":0},{"id":9404354,"name":"Bratten","lon":9.73929,"lat":59.00869,"pop":0},{"id":3160352,"name":"Bratterud","lon":9.53333,"lat":60.81667,"pop":0},{"id":3160351,"name":"Bratterudsætri","lon":9.41667,"lat":60.75,"pop":0},{"id":3160350,"name":"Brattestø","lon":5.55,"lat":59.45,"pop":0},{"id":9537548,"name":"Brattfjell","lon":19.69203,"lat":69.72491,"pop":0},{"id":3160340,"name":"Brattholmen","lon":5.15955,"lat":60.35009,"pop":0},{"id":3160338,"name":"Brattjær","alt":["Bratjaer","Bratjær","Brattjaer"],"lon":10.43333,"lat":64.28333,"pop":0},{"id":3160331,"name":"Brattland","alt":["Bratland"],"lon":13.16667,"lat":66.4,"pop":0},{"id":3160333,"name":"Brattland","alt":["Bratlend","Brattlend"],"lon":5.61667,"lat":58.61667,"pop":0},{"id":780587,"name":"Brattli","alt":["Bratli"],"lon":30.07951,"lat":69.56461,"pop":0},{"id":3160327,"name":"Brattli","alt":["Bratli"],"lon":9.75,"lat":63.2,"pop":0},{"id":3222647,"name":"Brattli","lon":18.02389,"lat":69.12111,"pop":0},{"id":9536280,"name":"Brattli","lon":11.14248,"lat":59.83948,"pop":0},{"id":11693803,"name":"Brattli","lon":10.84642,"lat":59.84533,"pop":0},{"id":3160323,"name":"Brattlia","alt":["Bratlien"],"lon":13.26667,"lat":66.01667,"pop":0},{"id":3160324,"name":"Brattlia","alt":["Bratlien"],"lon":10.96564,"lat":60.42485,"pop":0},{"id":11693802,"name":"Brattlikollen","lon":10.80057,"lat":59.88685,"pop":0},{"id":3160320,"name":"Brattlund","alt":["Bratlund"],"lon":11.13333,"lat":61.4,"pop":0},{"id":9537225,"name":"Brattrudgrenda","lon":9.5362,"lat":60.81275,"pop":0},{"id":3160315,"name":"Brattset","alt":["Bratset"],"lon":9.98333,"lat":62.8,"pop":0},{"id":9535761,"name":"Brattstølen","alt":["Brattstolen"],"lon":9.18362,"lat":60.86853,"pop":0},{"id":3160311,"name":"Brattvær","alt":["Brattvaer","Bratvaer","Bratvær"],"lon":7.8,"lat":63.45,"pop":0},{"id":3160310,"name":"Brattvåg","alt":["Brattvag","Bratvaag"],"lon":6.44426,"lat":62.59991,"pop":2146},{"id":3160365,"name":"Brattåker","alt":["Brattaaker","Brattaker"],"lon":8.23333,"lat":60.63333,"pop":0},{"id":11872556,"name":"Brattåsen","alt":["Brattasen"],"lon":10.10695,"lat":59.03102,"pop":0},{"id":3160308,"name":"Braut","alt":["Braud"],"lon":5.62186,"lat":58.76018,"pop":0},{"id":779504,"name":"Breannjá","alt":["Braenne","Breannja","Brenna","Brenne","Brænne","Indre Brenna","Indre Brenne","Indre-Brenna","Praennae","Prännä","Индре-Бренна"],"lon":25.73188,"lat":70.50621,"pop":0},{"id":11781857,"name":"Bredtvet","lon":10.85934,"lat":59.94681,"pop":0},{"id":3160298,"name":"Breen","lon":11.11667,"lat":62.53333,"pop":0},{"id":3160293,"name":"Breidablik","lon":9.58333,"lat":60.81667,"pop":0},{"id":9304073,"name":"Breidablikk","lon":10.226,"lat":59.14479,"pop":0},{"id":9304129,"name":"Breidablikk","lon":23.68315,"lat":70.63426,"pop":0},{"id":9304188,"name":"Breidablikk","lon":9.66231,"lat":59.1573,"pop":0},{"id":12078153,"name":"Breidablikk","lon":10.45501,"lat":59.21792,"pop":0},{"id":12078152,"name":"Breidal Nedre","lon":9.97767,"lat":59.13578,"pop":0},{"id":3160281,"name":"Breide","alt":["Breie"],"lon":8.45,"lat":60.6,"pop":0},{"id":9404199,"name":"Breide","lon":12.25388,"lat":64.2032,"pop":0},{"id":3160265,"name":"Breidland","alt":["Breiland"],"lon":13,"lat":66.06667,"pop":0},{"id":3160266,"name":"Breidland","lon":6.31667,"lat":59.23333,"pop":0},{"id":3160262,"name":"Breidli","lon":6.91667,"lat":61.05,"pop":0},{"id":3160256,"name":"Breidmo","alt":["Breimo"],"lon":13.38333,"lat":66.2,"pop":0},{"id":3160255,"name":"Breidmoen","lon":6.95,"lat":58.38333,"pop":0},{"id":3160246,"name":"Breidset","lon":9.03333,"lat":59.88333,"pop":0},{"id":9535756,"name":"Breidsetstølan","alt":["Breidsetstolan"],"lon":9.12443,"lat":60.93292,"pop":0},{"id":3160227,"name":"Breidstrand","alt":["Breistrand"],"lon":14.92412,"lat":68.87434,"pop":0},{"id":3160229,"name":"Breidstrand","alt":["Breistrand"],"lon":12.45,"lat":66.08333,"pop":0},{"id":3160171,"name":"Breidvik","alt":["Breivik"],"lon":15.3,"lat":68.75,"pop":0},{"id":3160175,"name":"Breidvik","alt":["Breivik"],"lon":15.15,"lat":67.71667,"pop":0},{"id":3160177,"name":"Breidvik","alt":["Breivik"],"lon":13.53333,"lat":66.66667,"pop":0},{"id":3160178,"name":"Breidvik","alt":["Breivik"],"lon":12.7,"lat":66.15,"pop":0},{"id":3160179,"name":"Breidvik","alt":["Breivik"],"lon":12.26667,"lat":65.06667,"pop":0},{"id":3160180,"name":"Breidvik","alt":["Bredvik"],"lon":8.81667,"lat":63.78333,"pop":0},{"id":3160181,"name":"Breidvik","alt":["Bredvik","Breivik"],"lon":6.91667,"lat":62.78333,"pop":0},{"id":3160182,"name":"Breidvik","alt":["Breivik"],"lon":7.75,"lat":62.58333,"pop":0},{"id":3160183,"name":"Breidvik","alt":["Bredvik","Brejvik"],"lon":6.35568,"lat":62.44938,"pop":0},{"id":3160184,"name":"Breidvik","alt":["Brevik"],"lon":5.6,"lat":62.2,"pop":0},{"id":3160185,"name":"Breidvik","lon":5.25,"lat":61.06667,"pop":0},{"id":3160186,"name":"Breidvik","lon":4.83333,"lat":60.56667,"pop":0},{"id":3160187,"name":"Breidvik","lon":5.07768,"lat":60.46509,"pop":0},{"id":3160189,"name":"Breidvik","alt":["Bredvik","Breivik"],"lon":8.07844,"lat":59.11614,"pop":0},{"id":3160190,"name":"Breidvik","alt":["Breivikstranda","Brevikstranda"],"lon":9.65,"lat":58.96667,"pop":0},{"id":3241465,"name":"Breidvik","lon":5.18778,"lat":60.495,"pop":0},{"id":9537909,"name":"Breidvik","alt":["Breivika"],"lon":5.18244,"lat":60.31558,"pop":0},{"id":3160162,"name":"Breidvika","alt":["Bredvik","Breivik","Brejvik","Tredvik"],"lon":8.29444,"lat":62.91972,"pop":0},{"id":3160170,"name":"Breidvika","alt":["Breidvik","Breivik"],"lon":16.09522,"lat":69.20667,"pop":0},{"id":3160173,"name":"Breidvika","alt":["Breidvik","Breivik"],"lon":14.72946,"lat":68.57524,"pop":0},{"id":3160174,"name":"Breidvika","alt":["Breidvik","Breivik"],"lon":16.46139,"lat":68.44222,"pop":0},{"id":3160188,"name":"Breidvika","alt":["Breidvik"],"lon":5.18729,"lat":60.37475,"pop":0},{"id":9304363,"name":"Breidvika","lon":18.97308,"lat":69.67387,"pop":0},{"id":3160150,"name":"Breiskallen","lon":10.62329,"lat":60.75331,"pop":0},{"id":3160233,"name":"Breistein","alt":["Bredsten","Breidstein"],"lon":5.4038,"lat":60.48624,"pop":0},{"id":3160228,"name":"Breistrand","alt":["Breidstrand"],"lon":16.63285,"lat":68.53954,"pop":0},{"id":780578,"name":"Breivik","alt":["Breidvik","Breivik i Soroy","Breivik i Sørøy"],"lon":22.10887,"lat":70.59724,"pop":0},{"id":3160176,"name":"Breivik","alt":["Breidvik","Breivik i Salten"],"lon":15.15876,"lat":67.20752,"pop":0},{"id":3224907,"name":"Breivik","lon":10.2,"lat":63.95,"pop":0},{"id":3160172,"name":"Breivika","alt":["Breidvik","Breidvika","Breivik"],"lon":16.55586,"lat":68.7467,"pop":0},{"id":3214175,"name":"Breivika","lon":18.96667,"lat":69.66667,"pop":0},{"id":9536201,"name":"Breivika","lon":17.18476,"lat":68.81096,"pop":0},{"id":9536792,"name":"Breivika","lon":8.66086,"lat":63.79106,"pop":0},{"id":9536839,"name":"Breivika","lon":9.72728,"lat":63.6235,"pop":0},{"id":7626406,"name":"Breivikbotn","alt":["Breidvikbotn"],"lon":22.28712,"lat":70.58877,"pop":0},{"id":3160169,"name":"Breivikeidet","alt":["Bredvik","Breidvik","Breidvikeidet","Breivik"],"lon":19.56755,"lat":69.65613,"pop":0},{"id":9403942,"name":"Breiviken","lon":5.30499,"lat":60.41981,"pop":0},{"id":11999052,"name":"Breivold","lon":10.2207,"lat":59.57341,"pop":0},{"id":3160158,"name":"Breivoll","alt":["Breidvoll"],"lon":17.14852,"lat":68.75992,"pop":0},{"id":9535699,"name":"Brekebygda","lon":9.94479,"lat":60.55244,"pop":0},{"id":3160145,"name":"Brekk","alt":["Brek"],"lon":12.25,"lat":65.33333,"pop":0},{"id":3160115,"name":"Brekka","alt":["Brekke"],"lon":10.7397,"lat":62.25341,"pop":0},{"id":3160133,"name":"Brekka","lon":9.4,"lat":61.83333,"pop":0},{"id":3160134,"name":"Brekka","lon":6.55,"lat":61.06667,"pop":0},{"id":3160135,"name":"Brekka","lon":5.93333,"lat":60.56667,"pop":0},{"id":3160136,"name":"Brekka","alt":["Brekke","Brekken"],"lon":8.80554,"lat":58.54832,"pop":0},{"id":9404155,"name":"Brekka","lon":10.10885,"lat":59.09646,"pop":0},{"id":9536464,"name":"Brekka","lon":13.54901,"lat":68.10773,"pop":0},{"id":12078151,"name":"Brekka","lon":10.40565,"lat":59.08045,"pop":0},{"id":12089683,"name":"Brekka","lon":9.88653,"lat":59.31703,"pop":0},{"id":3160132,"name":"Brekkan","lon":11,"lat":63.05,"pop":0},{"id":3160116,"name":"Brekke","lon":5.46153,"lat":61.02001,"pop":0},{"id":3160117,"name":"Brekke","lon":11.23333,"lat":59.43333,"pop":0},{"id":3160118,"name":"Brekke","lon":5.53333,"lat":59.41667,"pop":0},{"id":3160119,"name":"Brekke","alt":["Brekken"],"lon":9.65,"lat":58.98333,"pop":0},{"id":9404185,"name":"Brekke","lon":15.4271,"lat":67.26151,"pop":0},{"id":9404473,"name":"Brekke","lon":10.76661,"lat":59.96721,"pop":0},{"id":11846134,"name":"Brekke","lon":9.99516,"lat":58.99053,"pop":0},{"id":11999047,"name":"Brekke","lon":10.25969,"lat":59.56878,"pop":0},{"id":11999048,"name":"Brekke","lon":10.08588,"lat":59.54196,"pop":0},{"id":11999049,"name":"Brekke","lon":10.16638,"lat":59.52397,"pop":0},{"id":12089685,"name":"Brekke Øvre","alt":["Brekke Ovre"],"lon":10.37451,"lat":59.39879,"pop":0},{"id":9404009,"name":"Brekkebygd","alt":["Brekken"],"lon":11.86516,"lat":62.64838,"pop":0},{"id":3160113,"name":"Brekkebygda","lon":9.76021,"lat":60.2952,"pop":0},{"id":12078148,"name":"Brekkeseter","lon":9.9435,"lat":59.0606,"pop":0},{"id":9536330,"name":"Brekkestranda","lon":10.77978,"lat":59.96977,"pop":0},{"id":3160106,"name":"Brekkestø","lon":8.34889,"lat":58.19694,"pop":0},{"id":12089688,"name":"Brekketoppen","lon":10.48636,"lat":59.28956,"pop":0},{"id":11872555,"name":"Brekkeåsen","alt":["Brekkeasen"],"lon":10.07697,"lat":59.03442,"pop":0},{"id":12078149,"name":"Brekkeåsen","alt":["Brekkeasen"],"lon":10.28031,"lat":59.41303,"pop":0},{"id":3160103,"name":"Brekkhus","lon":6.15,"lat":60.73333,"pop":0},{"id":3160099,"name":"Brekkom","alt":["Brekkum"],"lon":10.22493,"lat":61.4701,"pop":0},{"id":9404228,"name":"Brekkvasselv","lon":13.01794,"lat":64.84726,"pop":0},{"id":3160100,"name":"Brekstad","alt":["Brekkstad","Brokstad","Брекстад"],"lon":9.66541,"lat":63.68697,"pop":1835},{"id":3160094,"name":"Breland","alt":["Breiland"],"lon":7.4,"lat":58.73333,"pop":0},{"id":3160301,"name":"Breland","lon":7.70623,"lat":58.20191,"pop":0},{"id":3160086,"name":"Brembu","alt":["Bronbu","Brönbu"],"lon":12.32689,"lat":64.622,"pop":0},{"id":3160079,"name":"Bremnes","lon":16.19527,"lat":68.86437,"pop":0},{"id":3160080,"name":"Bremnes","alt":["Bremsnes"],"lon":15.38369,"lat":68.8384,"pop":0},{"id":3160081,"name":"Bremneset","alt":["Bremnes"],"lon":8.64222,"lat":63.74034,"pop":0},{"id":3160074,"name":"Bremsnes","alt":["Bremsnes pa Nordmore","Bremsnes på Nordmøre"],"lon":7.66434,"lat":63.08854,"pop":415},{"id":3160066,"name":"Brenmo","lon":12,"lat":63.66667,"pop":0},{"id":3160063,"name":"Brenn","lon":10.23333,"lat":61.85,"pop":0},{"id":3160052,"name":"Brenna","lon":14.33284,"lat":68.32769,"pop":0},{"id":3160053,"name":"Brenna","lon":10.38333,"lat":61.76667,"pop":0},{"id":9404217,"name":"Brenna","lon":10.02082,"lat":64.04804,"pop":0},{"id":11781854,"name":"Brenna","lon":10.84236,"lat":59.84708,"pop":0},{"id":11873544,"name":"Brenna","lon":10.40371,"lat":59.61718,"pop":0},{"id":3160051,"name":"Brennan","lon":9.86667,"lat":63.26667,"pop":0},{"id":9537291,"name":"Brennbakkroa","lon":10.57503,"lat":60.7966,"pop":0},{"id":780573,"name":"Brennelv","alt":["Brennel'v","Brennelv  nedre","Palo","Бреннельв"],"lon":25.03046,"lat":70.05424,"pop":0},{"id":9537594,"name":"Brennelv,øvre","alt":["Brennelv ovre","Brennelv øvre","Ovre Brennelv","Yli-Palo","Øvre Brennelv"],"lon":25.06757,"lat":70.05069,"pop":0},{"id":9404103,"name":"Brenneriroa","lon":11.3033,"lat":60.82753,"pop":0},{"id":11781853,"name":"Brenners","lon":10.78561,"lat":59.99881,"pop":0},{"id":780566,"name":"Brenngam","alt":["Braendgam","Brengam","Brenngammen","Brenogam","Brændgam","Бреннгам"],"lon":27.2698,"lat":70.89519,"pop":0},{"id":6615211,"name":"Brennlia","lon":11.30412,"lat":60.33132,"pop":0},{"id":9535933,"name":"Brennlia","lon":10.40147,"lat":61.35638,"pop":0},{"id":9535942,"name":"Brennlia","lon":10.63607,"lat":61.30544,"pop":0},{"id":3160026,"name":"Brennsdal","lon":5.4,"lat":61.08333,"pop":0},{"id":3160024,"name":"Brennsundgårdan","alt":["Braemdsund","Brennsund"],"lon":14.78034,"lat":67.66564,"pop":0},{"id":9536581,"name":"Brennsvik","lon":24.14175,"lat":70.56678,"pop":0},{"id":3160023,"name":"Brennvik","lon":15.65778,"lat":68.13778,"pop":0},{"id":9404209,"name":"Brennvika","lon":8.97873,"lat":58.55046,"pop":0},{"id":9536080,"name":"Brennvollan","lon":11.16873,"lat":62.4259,"pop":0},{"id":3160050,"name":"Brennåsen","alt":["Brennaasen"],"lon":7.85736,"lat":58.13881,"pop":0},{"id":12089694,"name":"Brenthaug","lon":9.9594,"lat":59.39899,"pop":0},{"id":9537389,"name":"Breskebyen","lon":10.32576,"lat":60.16106,"pop":0},{"id":9535938,"name":"Brettdalen","lon":10.56188,"lat":61.33527,"pop":0},{"id":3160015,"name":"Brettesnes","alt":["Brettnes"],"lon":14.847,"lat":68.23593,"pop":0},{"id":3160011,"name":"Brettninga","alt":["Bretningen"],"lon":10.28333,"lat":61.75,"pop":0},{"id":3160006,"name":"Brevik","alt":["Breidvik","Бревик"],"lon":10.71189,"lat":59.75241,"pop":0},{"id":3160007,"name":"Brevik","lon":9.69672,"lat":59.05914,"pop":0},{"id":3225411,"name":"Brevik","lon":8.86667,"lat":63.61667,"pop":0},{"id":2609819,"name":"Brevikstranda","alt":["Breidvik","Breivikstranda","Brevikstranden","Ostre Brevik","Östre Brevik"],"lon":9.65892,"lat":58.97576,"pop":0},{"id":8299782,"name":"Briksdalsbre","lon":6.82081,"lat":61.66372,"pop":0},{"id":3159998,"name":"Brimnes","lon":4.9,"lat":60.86667,"pop":0},{"id":9537727,"name":"Brimnes","lon":6.90889,"lat":60.47137,"pop":0},{"id":9535877,"name":"Bringbusætra","alt":["Bringbusaetra"],"lon":11.05715,"lat":61.10456,"pop":0},{"id":9537914,"name":"Bringsjord","lon":7.07833,"lat":58.15772,"pop":0},{"id":3159988,"name":"Bringsli","alt":["Bringnesli"],"lon":15.23591,"lat":67.35066,"pop":0},{"id":3159983,"name":"Brinsdal","lon":7.55,"lat":58.11667,"pop":0},{"id":12078144,"name":"Briskebakken","lon":10.26144,"lat":59.08438,"pop":0},{"id":9304310,"name":"Briskebyen","lon":11.09137,"lat":60.79349,"pop":0},{"id":9537122,"name":"Briskebyen","lon":9.63872,"lat":60.9035,"pop":0},{"id":9304049,"name":"Brobekk","lon":10.82134,"lat":59.94338,"pop":0},{"id":11999039,"name":"Broberg","lon":10.18396,"lat":59.50352,"pop":0},{"id":3159975,"name":"Broem","alt":["Broum"],"lon":11.3,"lat":64.5,"pop":0},{"id":3159971,"name":"Brokke","lon":7.5,"lat":59.11667,"pop":0},{"id":3159970,"name":"Brokland","lon":9.08333,"lat":58.81667,"pop":0},{"id":3159969,"name":"Brokløys","alt":["Broklois","Brokloys","Broklöis"],"lon":15.46667,"lat":68.63333,"pop":0},{"id":3159965,"name":"Brokskar","lon":18.53659,"lat":69.51949,"pop":0},{"id":3159963,"name":"Bromma","lon":9.19136,"lat":60.48744,"pop":0},{"id":3159960,"name":"Bronka","alt":["Bronken"],"lon":11.7,"lat":60.75,"pop":0},{"id":3159949,"name":"Brorstad","lon":18.58333,"lat":69.16667,"pop":0},{"id":3159948,"name":"Brosdal","lon":8.7,"lat":59.2,"pop":0},{"id":3159938,"name":"Brosvik","lon":5.13333,"lat":61.06667,"pop":0},{"id":9536925,"name":"Brotshaug","lon":5.00379,"lat":60.59788,"pop":0},{"id":12089702,"name":"Brotthenget","lon":10.2515,"lat":59.36603,"pop":0},{"id":3159928,"name":"Brottøya","alt":["Brotoen","Brottoy","Brottoya","Brottøy","Brotöen"],"lon":15.15,"lat":68.48333,"pop":0},{"id":3159921,"name":"Bru","lon":5.66385,"lat":59.0379,"pop":0},{"id":9536251,"name":"Bru","lon":10.91127,"lat":59.77909,"pop":0},{"id":9537913,"name":"Bru","lon":6.01189,"lat":60.26484,"pop":0},{"id":3159919,"name":"Brua","alt":["Broen"],"lon":10.81667,"lat":62.11667,"pop":0},{"id":9403927,"name":"Brua","lon":10.43544,"lat":59.22858,"pop":0},{"id":9535776,"name":"Brua","lon":10.22234,"lat":60.80561,"pop":0},{"id":12078141,"name":"Brua","lon":10.06621,"lat":59.09151,"pop":0},