[{"id":4036284,"name":"Alofi","alt":["Alofis","Alofo","Pasjolak Alofi","a luo fei","alaphi","allopi","alophi","alopi","alwfy","arofi","xalofi","Αλόφι","Алофи","Алофі","Пасёлак Алофі","الوفی","अलोफी","അലാഫി","อาโลฟี","ალოფი","アロフィ","阿洛菲","알로피"],"lon":-169.91957,"lat":-19.05294,"pop":624},{"id":4036282,"name":"Ana","lon":-169.80499,"lat":-19.06792,"pop":0},{"id":4036279,"name":"Avatele","alt":["Matavaihala","Oneonepata"],"lon":-169.91667,"lat":-19.1,"pop":150},{"id":10630015,"name":"Avatele","lon":-169.91138,"lat":-19.12449,"pop":0},{"id":4036277,"name":"Fagalilika","lon":-169.91065,"lat":-19.06792,"pop":0},{"id":11185976,"name":"Falehavaiki","lon":-169.86897,"lat":-19.10365,"pop":0},{"id":4036274,"name":"Fatiau","lon":-169.9,"lat":-19.11667,"pop":60},{"id":11870068,"name":"Fualahi","lon":-169.92823,"lat":-19.07506,"pop":0},{"id":4036273,"name":"Fuata","lon":-169.89404,"lat":-19.0609,"pop":0},{"id":11870062,"name":"Fukau","lon":-169.82169,"lat":-18.97057,"pop":0},{"id":4036271,"name":"Fulalatea","lon":-169.89532,"lat":-19.10381,"pop":0},{"id":4036268,"name":"Hakupu","lon":-169.84623,"lat":-19.12753,"pop":221},{"id":4036267,"name":"Hikutivake","lon":-169.88339,"lat":-18.96478,"pop":63},{"id":11185979,"name":"Huihui","lon":-169.9315,"lat":-19.07242,"pop":0},{"id":4036261,"name":"Lakepa","lon":-169.80459,"lat":-19.0093,"pop":88},{"id":11185965,"name":"Lalotuake","lon":-169.91335,"lat":-19.01206,"pop":0},{"id":4036256,"name":"Liha","lon":-169.8,"lat":-18.95,"pop":0},{"id":10630012,"name":"Liku","lon":-169.78971,"lat":-19.05388,"pop":0},{"id":4036255,"name":"Liku Village","alt":["Liku"],"lon":-169.78857,"lat":-19.05417,"pop":71},{"id":4036253,"name":"Makaapiapi","lon":-169.90253,"lat":-19.1176,"pop":0},{"id":11185972,"name":"Makanga","lon":-169.81301,"lat":-18.99514,"pop":0},{"id":4036247,"name":"Makefu Village","alt":["Makefu"],"lon":-169.91383,"lat":-19.0018,"pop":87},{"id":11185966,"name":"Makefu Village","lon":-169.91429,"lat":-19.00216,"pop":0},{"id":4036246,"name":"Mamakula","alt":["Namukulu"],"lon":-169.9,"lat":-18.95,"pop":14},{"id":4036245,"name":"Mataafi","lon":-169.84765,"lat":-19.11439,"pop":0},{"id":4036242,"name":"Matalave","lon":-169.9,"lat":-18.95,"pop":0},{"id":4036240,"name":"Matavao","lon":-169.87996,"lat":-19.06918,"pop":0},{"id":4036238,"name":"Motu","lon":-169.80143,"lat":-19.02962,"pop":0},{"id":11185964,"name":"Motutapu","lon":-169.88683,"lat":-19.02967,"pop":0},{"id":4036234,"name":"Mutalau","alt":["Mutalau Village"],"lon":-169.82826,"lat":-18.96226,"pop":133},{"id":10630010,"name":"Mutalau","lon":-169.82954,"lat":-18.96206,"pop":0},{"id":11185969,"name":"Namukulu Village","lon":-169.89803,"lat":-18.98361,"pop":0},{"id":4036230,"name":"Nukufetau","lon":-169.84923,"lat":-19.07891,"pop":0},{"id":11185971,"name":"Patuoko","lon":-169.81293,"lat":-18.9714,"pop":0},{"id":4036228,"name":"Pikiona","lon":-169.82404,"lat":-19.0663,"pop":0},{"id":11869957,"name":"Stone Villa","lon":-169.92031,"lat":-19.05551,"pop":0},{"id":11185968,"name":"Tahileleki","lon":-169.89103,"lat":-18.98747,"pop":0},{"id":11185974,"name":"Takaoga","lon":-169.81009,"lat":-19.01555,"pop":0},{"id":11869953,"name":"Talamaitoga","lon":-169.89593,"lat":-19.12649,"pop":0},{"id":11869949,"name":"Taloa Heights","lon":-169.9229,"lat":-19.05972,"pop":0},{"id":11185978,"name":"Tamakautoga","lon":-169.91876,"lat":-19.09923,"pop":0},{"id":4036222,"name":"Taoli","lon":-169.88333,"lat":-19.1,"pop":0},{"id":11185981,"name":"Toa","lon":-169.89957,"lat":-19.04403,"pop":0},{"id":4036214,"name":"Toi","lon":-169.85327,"lat":-18.97399,"pop":0},{"id":4036212,"name":"Tuapa Village","alt":["Tuapa"],"lon":-169.90422,"lat":-18.99149,"pop":129},{"id":11185967,"name":"Tuapa Village","lon":-169.90391,"lat":-18.99266,"pop":0},{"id":4036207,"name":"Vahavaha","lon":-169.81499,"lat":-19.10057,"pop":0},{"id":11185977,"name":"Vaiea","lon":-169.88382,"lat":-19.12936,"pop":0},{"id":4036203,"name":"Vili","lon":-169.78799,"lat":-19.06703,"pop":0}]