[{"id":289475,"name":"‘Abāt","alt":["`Abat","عبات"],"lon":59.32687,"lat":22.54952,"pop":0},{"id":289474,"name":"‘Abāyah","alt":["`Abayah","عباية"],"lon":58.81588,"lat":23.17013,"pop":0},{"id":412186,"name":"‘Abbāsah","alt":["`Abasah","`Abbasah","عباسة","‘Abāsah"],"lon":57.12738,"lat":23.96449,"pop":0},{"id":289479,"name":"‘Abūl","alt":["A`bal","A‘bal","`Abul","عبول"],"lon":56.04739,"lat":24.43216,"pop":0},{"id":11835538,"name":"‘Adābah","alt":["`Adabah","عدابة"],"lon":57.13117,"lat":21.86306,"pop":0},{"id":11845355,"name":"‘Adābah","alt":["`Adabah","عدابة"],"lon":57.65761,"lat":22.05425,"pop":0},{"id":11806995,"name":"‘Adan","alt":["`Adan","`Idan","عدن","‘Idan"],"lon":58.42829,"lat":23.48319,"pop":0},{"id":412610,"name":"‘Adas","alt":["`Adas","`Addas","عدس","‘Addas"],"lon":56.36594,"lat":25.85707,"pop":0},{"id":11913751,"name":"‘Adawnab","alt":["`Adawnab","عدونب"],"lon":53.86422,"lat":16.9631,"pop":0},{"id":412280,"name":"‘Addah","alt":["`Addah","عدة"],"lon":59.26782,"lat":22.59956,"pop":0},{"id":11909659,"name":"‘Ajbūn","alt":["`Ajbun","عجبون"],"lon":54.64031,"lat":17.20258,"pop":0},{"id":289397,"name":"‘Ajīb","alt":["`Ajib","عجيب"],"lon":56.28972,"lat":24.77778,"pop":0},{"id":11800123,"name":"‘Ajilt","alt":["`Ajalt","`Ajilt","عجلت","‘Ajalt"],"lon":56.8187,"lat":23.62177,"pop":0},{"id":411244,"name":"‘Ajmā’","alt":["Ajma`","Ajma‘","`Ajma'","عجماء"],"lon":58.61405,"lat":23.06939,"pop":0},{"id":415333,"name":"‘Ajrīzī","alt":["Ajreezi","Ajrizi","Ajrīzi","`Ajriz","`Ajrizi","عجريزي","‘Ajrīz"],"lon":54.38958,"lat":17.13968,"pop":0},{"id":415340,"name":"‘Akrūt","alt":["Akroont","Akrunt","Akrūnt","`A Krawt","`Akrut","عكروت","‘A Krawt"],"lon":54.30741,"lat":17.12819,"pop":0},{"id":8558811,"name":"‘Akrūt","alt":["Akroot","`Akrut","عكروت"],"lon":54.15976,"lat":17.18283,"pop":0},{"id":8559020,"name":"‘Alā","alt":["Ala","`Ala","علا"],"lon":54.06091,"lat":17.23912,"pop":0},{"id":11948909,"name":"‘Alā Ţabad","alt":["`Ala Tabad","علا طبد"],"lon":54.24712,"lat":17.2757,"pop":0},{"id":415349,"name":"‘Alām","alt":["Allam","`Alam","علام"],"lon":54.30408,"lat":17.15545,"pop":0},{"id":289348,"name":"‘Alāyah","alt":["`Alayah"],"lon":57.82567,"lat":23.37743,"pop":0},{"id":390381,"name":"‘Alī Khamīs","alt":["`Ali Khamis"],"lon":56.3875,"lat":26.03278,"pop":0},{"id":12036430,"name":"‘Alkā","alt":["`Alka","علكا"],"lon":58.40351,"lat":23.15236,"pop":0},{"id":11846638,"name":"‘Amaq","alt":["`Amaq","عمق"],"lon":59.08523,"lat":22.60543,"pop":0},{"id":289076,"name":"‘Amlā’","alt":["Amlah","Amlaḩ","`Amla'","عملاء"],"lon":56.8907,"lat":23.13256,"pop":0},{"id":8561094,"name":"‘Amnīm","alt":["Amneem","`Amnim","عمنيم"],"lon":54.04626,"lat":17.23365,"pop":0},{"id":11909658,"name":"‘Āmnūt","alt":["`Amnut","عامنوت"],"lon":54.62339,"lat":17.10962,"pop":0},{"id":11960560,"name":"‘Amqāt","alt":["`Amqat","عمقات"],"lon":55.18697,"lat":17.18957,"pop":0},{"id":11845865,"name":"‘Anbar","alt":["`Anbar","عنبر"],"lon":58.5334,"lat":22.53853,"pop":0},{"id":11950470,"name":"‘Anbīr","alt":["`Anbir","عنبير"],"lon":53.95823,"lat":17.00652,"pop":0},{"id":11913792,"name":"‘Anthaq","alt":["`Anthaq","عنثق"],"lon":54.26783,"lat":17.17095,"pop":0},{"id":390033,"name":"‘Aqabāt","alt":["`Aqabat","`Aqbat","عقبات","‘Aqabat","‘Aqbāt"],"lon":56.24144,"lat":25.81159,"pop":0},{"id":11773472,"name":"‘Aqabat ad Dukhūr","alt":["`Aqabat ad Dukhur","`Aqbat ad Dukhur","عقبة الدّخور","‘Aqbat ad Dukhūr"],"lon":56.34883,"lat":25.93375,"pop":0},{"id":412603,"name":"‘Aqabat al ‘Āsū","alt":["`Aqabat `Asu","`Aqabat al `Asu","`Aqbat al `Asu","عقبة العاسو","‘Aqabat ‘Āsū","‘Aqbat al ‘Āsū"],"lon":56.22391,"lat":25.79593,"pop":0},{"id":11806610,"name":"‘Aqabat al Bārizah","alt":["`Aqabat al Barizah","`Aqbat al Barzah","عقبة البارزة","‘Aqbat al Bārzah"],"lon":57.40178,"lat":23.13095,"pop":0},{"id":11763515,"name":"‘Aqabat al Bawh","alt":["`Aqabat al Bawh","`Aqbat al Bawh","عقبة البوه","‘Aqbat al Bawh"],"lon":56.21058,"lat":25.77544,"pop":0},{"id":412119,"name":"‘Aqabat al Buyūt","alt":["Aqbut al Bayut","Aqbut al Bayūt","`Aqabat al Buyut","`Aqbat al Biyut","عقبة البيوت","‘Aqbat al Biyūt"],"lon":57.52512,"lat":23.11789,"pop":0},{"id":288713,"name":"‘Aqabat al Ḩamrā’","alt":["Bilad `Aqabat al Hamra'","Bilad `Aqabat al Hamrah","Bilād ‘Aqabat al Ḩamrah","Bilād ‘Aqabat al Ḩamrā’","`Aqabat al Hamra'","`Aqbat al Hamra'","عقبة الحمراء","‘Aqbat al Ḥamrā’"],"lon":57.33917,"lat":23.15833,"pop":0},{"id":11763465,"name":"‘Aqabat al Kalb","alt":["`Aqabat al Kalb","`Aqbat al Kalib","عقبة الكلب","‘Aqbat al Kalib"],"lon":56.24768,"lat":25.99883,"pop":0},{"id":11764947,"name":"‘Aqabat al Mīsār","alt":["`Aqabat al Misar","`Aqbat al Misar","عقبة الميسار","‘Aqbat al Mīsār"],"lon":56.19408,"lat":25.65305,"pop":0},{"id":11763479,"name":"‘Aqabat al Wahab","alt":["`Aqabat al Wahab","`Aqbat al Wahab","عقبة الوهب","‘Aqbat al Wahab"],"lon":56.2477,"lat":25.94712,"pop":0},{"id":11763516,"name":"‘Aqabat aş Şukhkhām","alt":["`Aqabat as Sukhkham","`Aqbat as Sukhkham","عقبة الصّخام","‘Aqbat aṣ Ṣukhkhām"],"lon":56.19161,"lat":25.77726,"pop":0},{"id":8558751,"name":"‘Aqabat Asīr","alt":["Aqbat Asir","`Aqabat Asir","عقبة أسير"],"lon":54.09478,"lat":17.12506,"pop":0},{"id":11806748,"name":"‘Aqabat Izaḩ","alt":["`Aqabat Izah","`Aqbat Izah","عقبة إزح","‘Aqbat Izaḥ"],"lon":57.6939,"lat":23.09238,"pop":0},{"id":388697,"name":"‘Aqabat Ruwaybah","alt":["Al `Aqabah","Al `Uqaybah","Al ‘Aqabah","Al ‘Uqaybah","`Aqabat Ruwaybah","`Aqbat Ruwaybah","عقبة رويبة","‘Aqbat Ruwaybah"],"lon":56.22848,"lat":26.12802,"pop":0},{"id":8694792,"name":"‘Aqabāt Tadbūr","alt":["`Aqabat Tadbur","`Aqbat Tadbur","‘Aqbāt Tadbūr"],"lon":53.97183,"lat":17.0906,"pop":0},{"id":8559016,"name":"‘Aqabat Sha‘nūt","alt":["Aqbat Shaanawt","`Aqabat Sha`nut","عقبة شعنوت"],"lon":54.04011,"lat":17.06159,"pop":0},{"id":11917334,"name":"‘Aqal","alt":["`Aqal","عقل"],"lon":54.00793,"lat":17.19086,"pop":0},{"id":11829815,"name":"‘Aqawī","alt":["`Aqawi","`Aqwi","عقوي","‘Aqwī"],"lon":58.6289,"lat":23.34797,"pop":0},{"id":11806816,"name":"‘Aqbā’","alt":["`Aqba'","عقباء"],"lon":57.79636,"lat":23.20234,"pop":0},{"id":12075442,"name":"‘Aqbat al Mashbak","alt":["`Aqbat al Mashbak","عقبة المشبك"],"lon":57.07776,"lat":23.31453,"pop":0},{"id":12075439,"name":"‘Aqbat as Suqbah","alt":["`Aqbat as Suqbah","عقبة السقبة"],"lon":57.09524,"lat":23.28729,"pop":0},{"id":411242,"name":"‘Aqdā’","alt":["Uqdah","`Aqda'","عقداء"],"lon":58.56776,"lat":23.08384,"pop":0},{"id":11959626,"name":"‘Aqrīt","alt":["`Aqrit","عقريت"],"lon":54.63432,"lat":17.09706,"pop":0},{"id":11785423,"name":"‘Āqūl ath Thawr","alt":["`Aqul ath Thawr","عاقول الثور"],"lon":56.45477,"lat":23.84959,"pop":0},{"id":12075378,"name":"‘Āqūl Ḩurayth","alt":["`Aqul Hurayth","عاقول حريث"],"lon":57.02675,"lat":23.30929,"pop":0},{"id":288604,"name":"‘Arām","alt":["Aram","Buyut Aram","Buyūt Aram","`Aram","عرام"],"lon":54.39604,"lat":17.09617,"pop":0},{"id":8695382,"name":"‘Arawqam","alt":["`Arawqam","`Aruqum","عروقم","‘Arūqum"],"lon":53.85998,"lat":17.05048,"pop":0},{"id":7794088,"name":"‘Arfat","alt":["`Arfat","`Arfit","`Arift","عرفت","عرفيت","‘Arfīt","‘Arift"],"lon":53.51825,"lat":16.81148,"pop":0},{"id":11948886,"name":"‘Arift","alt":["`Arift","عرفت"],"lon":53.97777,"lat":17.12902,"pop":0},{"id":11909660,"name":"‘Arīn","alt":["`Arin","عرين"],"lon":54.5782,"lat":17.0922,"pop":0},{"id":11948903,"name":"‘Arīt","alt":["`Arit","عريت"],"lon":54.18706,"lat":17.25068,"pop":0},{"id":289019,"name":"‘Arjā’","alt":["Arja","`Arja'"],"lon":56.56667,"lat":24.45,"pop":0},{"id":11909603,"name":"‘Arm","alt":["`Arm","عرم"],"lon":54.24558,"lat":17.16356,"pop":0},{"id":390556,"name":"‘Arqabāt","alt":["`Arqabat","`Urqabat","عرقبات","‘Urqabāt"],"lon":56.18215,"lat":26.11967,"pop":0},{"id":289017,"name":"‘Arqī","alt":["`Arqi","عرقي"],"lon":58.70825,"lat":23.23399,"pop":0},{"id":11959586,"name":"‘Arūn","alt":["`Arun","عرون"],"lon":54.38791,"lat":17.25823,"pop":0},{"id":11835150,"name":"‘Arsh","alt":["`Arsh","عرش"],"lon":58.10096,"lat":22.96659,"pop":0},{"id":11556155,"name":"‘Arshūt","alt":["`Arshut","عرشوت"],"lon":53.12524,"lat":16.69024,"pop":0},{"id":11732195,"name":"‘Aşayy","alt":["`Asayy","`Isay","عصي","‘Iṣay"],"lon":56.34232,"lat":24.69702,"pop":0},{"id":11774051,"name":"‘Aşyūn","alt":["`Asyun","عصيون","‘Aṣyūn"],"lon":53.54559,"lat":16.80891,"pop":0},{"id":11950474,"name":"‘Aţrīt","alt":["`Atrit","عطريت"],"lon":53.95693,"lat":17.02922,"pop":0},{"id":11832258,"name":"‘Awābī Qarī","alt":["`Awabi Qari","عوابي قري"],"lon":57.91508,"lat":22.94409,"pop":0},{"id":11782125,"name":"‘Awd al Bunnīyah","alt":["`Awd al Binayyah","`Awd al Bunniyah","عود البنيّة","‘Awd al Binayyah"],"lon":55.76241,"lat":24.25233,"pop":0},{"id":11782123,"name":"‘Awd Bin Khanfūr","alt":["`Awd Bin Khanfur","عود بن خنفور"],"lon":55.76259,"lat":24.25775,"pop":0},{"id":288932,"name":"‘Awf","alt":["`Awf","عوف"],"lon":58.4943,"lat":22.99226,"pop":0},{"id":288930,"name":"‘Awqad","alt":["Akkad","Aqad","Auqad","Awqad","Okkad","`Awqad","`Awqad Bayt Fadil","عوقد","‘Awqad Bayt Fāḑil"],"lon":54.02903,"lat":17.01731,"pop":0},{"id":11909602,"name":"‘Awqad ash Shamālīyah","alt":["`Awqad ash Shamaliyah","عوقد الشمالية"],"lon":54.01399,"lat":17.00765,"pop":0},{"id":288929,"name":"‘Awqad Bayt Marhūn","alt":["`Awqad Bayt Marhun"],"lon":54.0408,"lat":17.0032,"pop":0},{"id":11969257,"name":"‘Awrāb","alt":["`Awrab","عوراب"],"lon":59.40441,"lat":21.56356,"pop":0},{"id":11909598,"name":"‘Aws","alt":["`Aws","عوس"],"lon":53.95337,"lat":17.12112,"pop":0},{"id":11960035,"name":"‘Awtak","alt":["`Awtak","عوتك"],"lon":54.23618,"lat":17.1816,"pop":0},{"id":289409,"name":"‘Aybūt","alt":["Ahboot 1","Ahbut Raqm 1","Ahbut Raqm Wahid","Ahbūt Raqm 1","Ahbūt Raqm Wāḩid","`Aybut","`Aybut-1","ʿybwt","عيبوت","‘Aybūt-1"],"lon":53.29771,"lat":17.39614,"pop":0},{"id":7786400,"name":"‘Aybūt","alt":["`Aybut","عيبوت"],"lon":53.28831,"lat":17.40086,"pop":0},{"id":8700607,"name":"‘Aybūt Ithnān","alt":["`Aybut Ithnan","`Aybut-2","عيبوت 2","‘Aybūt-2"],"lon":53.33388,"lat":17.2891,"pop":0},{"id":8700606,"name":"‘Aybūt-3","lon":53.31349,"lat":17.327,"pop":0},{"id":7792311,"name":"‘Aydam","alt":["`Aydam","`Aydum","عيدم","عيدوم","‘Aydūm"],"lon":53.35934,"lat":16.98893,"pop":0},{"id":289413,"name":"‘Ayjīt","alt":["Aged","`Ayjayt","`Ayjit","عيجيت","‘Ayjayt"],"lon":58.82268,"lat":20.5695,"pop":0},{"id":411997,"name":"‘Ayn","alt":["`Ayn"],"lon":58.27944,"lat":23.0329,"pop":0},{"id":8558783,"name":"‘Ayn","alt":["`Ayn","عين"],"lon":54.14479,"lat":17.231,"pop":0},{"id":8558728,"name":"‘Ayn ‘Adam","alt":["`Ayn `Adam","`Ayn `Adim","عين عدم","‘Ayn ‘Adim"],"lon":54.32056,"lat":17.12858,"pop":0},{"id":288921,"name":"‘Ayn ‘Umq","alt":["`Ayn `Amq","`Ayn `Umq","عين عمق","‘Ayn ‘Amq"],"lon":57.33638,"lat":23.25554,"pop":0},{"id":12062781,"name":"‘Ayn al Fajj","alt":["`Ayn al Faj","`Ayn al Fajj","عين الفج","‘Ayn al Faj"],"lon":58.84726,"lat":23.15901,"pop":0},{"id":11783896,"name":"‘Ayn al Ḩulwah","alt":["`Ayn al Hilwah","`Ayn al Hulwah","عين الحلوة","‘Ayn al Ḥilwah"],"lon":55.7674,"lat":23.83079,"pop":0},{"id":11982038,"name":"‘Ayn al Mashārifah","alt":["`Ayn al Masharfah","`Ayn al Masharifah","عين المشارفة","‘Ayn al Mashārfah"],"lon":59.55191,"lat":22.35588,"pop":0},{"id":11846658,"name":"‘Ayn al Qashin","alt":["`Ayn al Qashin","عين القشن"],"lon":59.30331,"lat":22.68989,"pop":0},{"id":11806638,"name":"‘Ayn ath Thawwārah","alt":["`Ayn ath Thawwarah","عين الثّوارة"],"lon":57.82893,"lat":23.37572,"pop":0},{"id":412285,"name":"‘Ayn ash Shadnīyah","alt":["`Ayn ash Shadniyah"],"lon":59.12946,"lat":22.5454,"pop":0},{"id":8559007,"name":"‘Ayn Ḑayt Aḩārāt","alt":["Dayt Aharat","Dhait A'harat","Dhait A’harat","`Ayn Dayt Aharat","dyt aharat","ضيت أحارات","عين ضيت أحارات","Ḑayt Aḩārāt"],"lon":54.05678,"lat":17.20396,"pop":0},{"id":11806458,"name":"‘Ayn Ḩuwayt","alt":["`Ayn Hiwayt","`Ayn Huwayt","عين حويت","‘Ayn Ḥiwayt"],"lon":57.43263,"lat":23.25253,"pop":0},{"id":11806724,"name":"‘Ayn Karfas","alt":["`Ayn Karfas","عين كرفس"],"lon":57.63064,"lat":23.18983,"pop":0},{"id":11835211,"name":"‘Ayn Wushaylah","alt":["`Ayn Wishayah","`Ayn Wushaylah","عين وشيلة","‘Ayn Wishayah"],"lon":58.1324,"lat":22.83644,"pop":0},{"id":411252,"name":"‘Aynayn","alt":["`Aynayn"],"lon":58.88898,"lat":23.26071,"pop":0},{"id":11806441,"name":"‘Aynī","alt":["`Ayni","`Ini","عيني","‘Īnī"],"lon":57.41456,"lat":23.39025,"pop":0},{"id":288917,"name":"‘Aynīyah","alt":["`Ayniyah"],"lon":57.42438,"lat":23.38751,"pop":0},{"id":11827912,"name":"‘Aynt","alt":["`Aynt","`Int","عينت","‘Īnt"],"lon":58.5493,"lat":23.63122,"pop":0},{"id":11959977,"name":"‘Ayrād Ushaykhir","alt":["`Ayrad Ushaykhir","عيراد اشيخر"],"lon":54.65573,"lat":17.13295,"pop":0},{"id":8558727,"name":"‘Ayrīt","alt":["`Airit","`Ayrit","عيريت","‘Airīt"],"lon":54.33359,"lat":17.11579,"pop":0},{"id":11744044,"name":"‘Ayyāsh","alt":["`Ayyash","عياش"],"lon":56.45689,"lat":23.10821,"pop":0},{"id":11909513,"name":"‘Adhbūtī","alt":["`Adhbuti","عذبوتي"],"lon":54.7344,"lat":17.13908,"pop":0},{"id":11780975,"name":"‘Ashar","alt":["`Ashar","عشر"],"lon":56.35419,"lat":24.755,"pop":0},{"id":388692,"name":"‘Ashub","alt":["`Ashub"],"lon":56.23139,"lat":26.1675,"pop":0},{"id":287830,"name":"‘Ibrī","alt":["Ibri","`Ibri","walayt ʿbry","والاية عبري"],"lon":56.51572,"lat":23.22573,"pop":163473},{"id":12062780,"name":"‘Ifā’","alt":["`Ifa'","عفاء"],"lon":58.89218,"lat":23.24106,"pop":0},{"id":11845356,"name":"‘Ifār","alt":["`Ifar","عفار"],"lon":57.62788,"lat":22.10449,"pop":0},{"id":11835151,"name":"‘Ijālah","alt":["`Ijalah","عجالة"],"lon":58.10141,"lat":22.99658,"pop":0},{"id":412144,"name":"‘Ilāyat al Jarīr","alt":["Al Gharir `Alayah","Al Gharīr ‘Alāyah","`Ilayat al Jarir","علاية الجرير"],"lon":57.5564,"lat":23.09788,"pop":0},{"id":442252,"name":"‘Ilāyat al Musfāh","alt":["`Alayat Misfah","`Ilayat al Misfah","`Ilayat al Musfah","علاية المسفاة","‘Alayat Misfah","‘Ilāyat al Misfāh"],"lon":58.29487,"lat":22.97091,"pop":0},{"id":11830983,"name":"‘Ilāyat Bahlā’","alt":["`Ilayat Bahla'","علاية بهلاء"],"lon":57.29841,"lat":22.9808,"pop":0},{"id":411818,"name":"‘Ilāyat Ḑank","alt":["`Alayat Dank","`Ilayat Dank","علاية ضنك","‘Alāyat Ḑank","‘Ilāyat Ḍank"],"lon":56.28398,"lat":23.54893,"pop":0},{"id":288377,"name":"‘Ilāyat Fidā","alt":["Al Fida","Fida'","Fidā’","`Ilayat Fida","علاية فدا"],"lon":56.48596,"lat":23.50444,"pop":0},{"id":11845891,"name":"‘Ilāyat Ibrā’","alt":["`Ilayat Ibra'","علاية إبراء"],"lon":58.5328,"lat":22.70491,"pop":0},{"id":289347,"name":"‘Ilāyat Samā’il","alt":["Sama'il","Samā’il","Sumail","Sumayel","Sumāil","`Alayat Sama'il","`Ilayat Sama'il","علاية سمائل","‘Alāyat Samā’il"],"lon":57.95358,"lat":23.29353,"pop":0},{"id":11835199,"name":"‘Ilayyah","alt":["Al `Iliyyah","Al ‘Iliyyah","`Ilayyah","عليّة"],"lon":58.11559,"lat":22.87111,"pop":0},{"id":12036431,"name":"‘Imayqah","alt":["`Imayqah","عميقة"],"lon":58.48319,"lat":23.15617,"pop":0},{"id":11846662,"name":"‘Int","alt":["`Int","عنت"],"lon":59.34144,"lat":22.55967,"pop":0},{"id":11806409,"name":"‘Iqd an Nuzūḩ al ‘Ālī","alt":["`Iqd an Nizuh al `Ali","`Iqd an Nuzuh al `Ali","عقد النزوح العالي","‘Iqd an Nizūḥ al ‘Ālī","‘Iqd an Nuzūḥ al ‘Ālī"],"lon":57.29837,"lat":23.47595,"pop":0},{"id":11970742,"name":"‘Irayfāt","alt":["`Irayfat","عريفات"],"lon":59.30722,"lat":21.63712,"pop":0},{"id":11982022,"name":"‘Iraysh","alt":["`Iraysh","عريش"],"lon":58.84211,"lat":22.39757,"pop":0},{"id":286038,"name":"‘Irf","alt":["`Irf","`Urf","عرف","‘Urf"],"lon":58.73393,"lat":20.24858,"pop":0},{"id":287813,"name":"‘Izz","alt":["Muqaitla","`Iz","`Izz","عز","‘Iz"],"lon":57.56352,"lat":22.71812,"pop":0},{"id":289223,"name":"‘Izz","alt":["Al `Izz","Al ‘Izz","`Iz","`Izz","عز","‘Iz"],"lon":58.68637,"lat":22.55116,"pop":0},{"id":11982263,"name":"‘Ūd aş Şafaj","alt":["`Ud as Safaj","عود الصفج"],"lon":59.29203,"lat":21.86769,"pop":0},{"id":11960622,"name":"‘Ūd ath Thamām","alt":["`Ud ath Thamam","عود الثمام","‘Ud ath Thamām"],"lon":57.20951,"lat":19.71237,"pop":0},{"id":11969185,"name":"‘Ūd az Zarq","alt":["`Ud az Zarq","عود الزرق"],"lon":58.65246,"lat":21.3615,"pop":0},{"id":11948837,"name":"‘Ufayritā","alt":["`Ufayrita","عفيرتا"],"lon":54.92807,"lat":17.11894,"pop":0},{"id":286083,"name":"‘Ulūb","alt":["`Alob","`Ulub","‘Alob"],"lon":54.06,"lat":17.08833,"pop":0},{"id":11799964,"name":"‘Ūmah","alt":["`Umah","عومة"],"lon":56.81454,"lat":23.97159,"pop":0},{"id":289073,"name":"‘Umq","alt":["`Amq","`Umq","عمق","‘Amq"],"lon":56.67276,"lat":24.44053,"pop":0},{"id":289074,"name":"‘Umq","alt":["`Amq","`Umq","عمق","‘Amq"],"lon":57.33182,"lat":23.28653,"pop":0},{"id":409787,"name":"‘Umq","alt":["Qaryat `Umq","Qaryat ‘Umq","`Umq","عمق"],"lon":58.81567,"lat":20.42281,"pop":0},{"id":412263,"name":"‘Umq ar Rabākh","alt":["`Amq ar Rabakh","`Umq","`Umq ar Rabakh","عمق الرباخ","‘Amq ar Rabākh","‘Umq"],"lon":59.08643,"lat":22.89682,"pop":0},{"id":11766284,"name":"‘Unayq","alt":["`Inayq","`Unayq","عنيق","‘Inayq"],"lon":55.93862,"lat":24.58451,"pop":0},{"id":11785407,"name":"‘Uqayb","alt":["`Iqayyib","`Uqayb","عقيب","‘Iqayyib"],"lon":56.2829,"lat":23.93593,"pop":0},{"id":289188,"name":"‘Uqayr al ‘Abriyīn","alt":["Al Khayr","Al `Aqir","Al `Uqayr","Al ‘Aqīr","Al ‘Uqayr","`Iqayr al `Abriyyin","`Uqayr al `Abriyin","عقير العبريين","‘Iqayr al ‘Abriyyin"],"lon":56.62352,"lat":23.77953,"pop":0},{"id":289365,"name":"‘Uqayr Banī ‘Īsá","alt":["Al `Aqar","Al `Aqir","Al ‘Aqār","Al ‘Aqīr","`Iqayr Bani `Isa","`Uqayr Bani `Isa","عقير بني عيسى","‘Iqayr Banī ‘Īsá"],"lon":56.40908,"lat":23.98207,"pop":0},{"id":11764951,"name":"‘Uqb as Sukhām","alt":["`Uqb as Sakhkham","`Uqb as Sukham","عقب السّخام","‘Uqb as Sakhkhām"],"lon":56.19817,"lat":25.69989,"pop":0},{"id":11806557,"name":"‘Uqdat al Ghāf","alt":["`Uqdat al Ghaf","عقدة الغاف"],"lon":57.25254,"lat":23.12814,"pop":0},{"id":11781355,"name":"‘Uqdat al Mawāni‘","alt":["`Uqdat al Mawani`","عقدة الموانع"],"lon":56.57251,"lat":24.50371,"pop":0},{"id":11739028,"name":"‘Uqdat ash Shikal","alt":["`Uqdat ash Shikal","عقدة الشّكل"],"lon":56.57766,"lat":24.24347,"pop":0},{"id":11556119,"name":"‘Urf","alt":["Khayfan","Khayfān","`Urf","khyfan","خيفان","عرف"],"lon":53.26629,"lat":16.71973,"pop":0},{"id":11982261,"name":"‘Urf Lukhḑar","alt":["`Urf Lukhdar","عرف لخضر"],"lon":59.29477,"lat":21.91035,"pop":0},{"id":11744125,"name":"‘Usaybiq","alt":["`Isaybuq","`Usaybiq","عسيبق","‘Isaybuq"],"lon":56.46468,"lat":23.22919,"pop":0},{"id":11982199,"name":"‘Uwaybiyāt","alt":["`Uwaybiyat","`Uwaybyat","عويبيات","‘Uwaybyāt"],"lon":59.54474,"lat":22.23081,"pop":0},{"id":286028,"name":"‘Uwaydāt","alt":["`Uwaydat"],"lon":57.28167,"lat":23.89556,"pop":0},{"id":11830923,"name":"‘Uwayfīyah","alt":["`Uwayfiyah","`Uwayfyah","عويفية","‘Uwayfyah"],"lon":56.96164,"lat":22.28074,"pop":0},{"id":411962,"name":"‘Uwaynah","alt":["`Uwaynah"],"lon":58.04226,"lat":23.29949,"pop":0},{"id":11835224,"name":"‘Uwaynat al Ḩamrā’","alt":["`Uwaynat al Hamra'","عوينة الحمراء","‘Uwaynat al Ḥamrā’"],"lon":58.27609,"lat":22.91344,"pop":0},{"id":11799986,"name":"‘Uwaynat al Murrah","alt":["`Uwaynat al Murrah","عوينة المرّة"],"lon":56.89352,"lat":23.75594,"pop":0},{"id":11739438,"name":"‘Uwayqilah","alt":["`Iwayqlah","`Uwayqilah","عويقلة","‘Iwayqlah"],"lon":56.6638,"lat":23.77323,"pop":0},{"id":11835183,"name":"‘Uwaysān","alt":["`Uwaysan","عويسان"],"lon":57.78959,"lat":22.71117,"pop":0},{"id":286016,"name":"‘Uyūn","alt":["Aiyuun","`Uyun"],"lon":56.92284,"lat":23.5134,"pop":0},{"id":8307687,"name":"‘Uyūn","alt":["`Uyun","عيون"],"lon":53.89314,"lat":17.2579,"pop":0},{"id":11981994,"name":"‘Uyūn","alt":["`Uyun","عيون"],"lon":59.35144,"lat":22.45484,"pop":0},{"id":8558713,"name":"A‘akarnūt","alt":["A' Krnut","A`akarnut","A’ Krnūt","أعكرنوت"],"lon":54.37953,"lat":17.20293,"pop":0},{"id":11948882,"name":"A‘akūf","alt":["A`akuf","أعكوف"],"lon":53.92667,"lat":17.12427,"pop":0},{"id":415342,"name":"A‘anwathaq","alt":["A`anwathaq","Anoothook","Anuthuk","Anūthūk","`Awnawthaq","أعنوثق","‘Awnawthaq"],"lon":54.38125,"lat":17.15392,"pop":0},{"id":11909688,"name":"A‘araynūt Ayūr","alt":["A`araynut Ayur","أعرينوت أيور"],"lon":54.48807,"lat":17.16432,"pop":0},{"id":11909650,"name":"A‘arnawt","alt":["A`arnawt","أعرنوت"],"lon":54.07546,"lat":17.14509,"pop":0},{"id":11948809,"name":"A‘arnūt","alt":["A`arnut","اعرنوت"],"lon":54.06629,"lat":17.13625,"pop":0},{"id":11960527,"name":"A‘arnūt","alt":["A`arnut","أعرنوت"],"lon":54.16654,"lat":17.12938,"pop":0},{"id":11909649,"name":"A‘arshīnītī","alt":["A`arshiniti","أعرشينيتي"],"lon":54.21185,"lat":17.22361,"pop":0},{"id":8558869,"name":"A‘aşayrūt","alt":["A` Srut","A`asayrut","A‘ Şrūt","أعصيروت"],"lon":54.26608,"lat":17.20547,"pop":0},{"id":413409,"name":"A‘atayr","alt":["A`atayr","A`tayr","Ā‘tayr","أعتير"],"lon":54.56151,"lat":17.11707,"pop":0},{"id":8560945,"name":"A‘aţayrīt","alt":["A` Tayrit","A`atayrit","A‘ Ţayrīt","أعطيريت"],"lon":54.41333,"lat":17.17186,"pop":0},{"id":11948908,"name":"Ā‘awn","alt":["A`awn","آعون"],"lon":54.21621,"lat":17.2566,"pop":0},{"id":11959612,"name":"A‘jiyān","alt":["A`jiyan","أعجيان"],"lon":54.54672,"lat":17.18662,"pop":0},{"id":11556141,"name":"A‘rām","alt":["A`ram","أعرام"],"lon":53.17123,"lat":16.71686,"pop":0},{"id":11959611,"name":"A‘rīnūt","alt":["A`rinut","أعرينوت"],"lon":54.5697,"lat":17.19224,"pop":0},{"id":11960016,"name":"A‘şamīn","alt":["A`samin","أعصمين"],"lon":54.24227,"lat":17.24492,"pop":0},{"id":11960512,"name":"A‘şārit","alt":["A`sarit","A`sart","A‘şārt","اعصارت"],"lon":54.21047,"lat":17.1392,"pop":0},{"id":11909674,"name":"A‘şayrāt","alt":["A`sayrat","أعصيرات"],"lon":53.94652,"lat":17.11491,"pop":0},{"id":8558800,"name":"A‘sūm","alt":["A'sum","A`sum","A’sūm","أعسوم"],"lon":54.16952,"lat":17.2747,"pop":0},{"id":8558792,"name":"A’īrītī","alt":["A'iriti"],"lon":54.20473,"lat":17.25566,"pop":0},{"id":8560954,"name":"A’sūm","alt":["A'sum"],"lon":54.22057,"lat":17.26379,"pop":0},{"id":288670,"name":"Abū ‘Abālī","alt":["Abu `Abali","Bu `Abali","Bū ‘Abālī","أبو عبالي"],"lon":57.66729,"lat":23.74499,"pop":0},{"id":288669,"name":"Abū ‘Abālī as Sāḩil","alt":["Abu `Abali","Abu `Abali as Sahil","Abū ‘Abālī","Abū ‘Abālī as Sāḥil","Bu `Abali","Bū ‘Abālī","أبو عبالي السّاحل"],"lon":57.68697,"lat":23.76977,"pop":0},{"id":288665,"name":"Abū ‘Āşim","alt":["Abu `Asim","Abū ‘Āṣim","Bu `Asim","Bū ‘Āşim","أبو عاصم"],"lon":57.60178,"lat":23.70027,"pop":0},{"id":288664,"name":"Abū ‘Īd","alt":["Abu `Id","Bu `Aid","Bu ‘Aid","Bu`ayd","Bu‘ayd","أبو عيد"],"lon":58.01423,"lat":22.37199,"pop":0},{"id":289444,"name":"Abū ‘Ukayshah","alt":["Abu Akaisha","Abu `Ukayshah"],"lon":59.28333,"lat":21.4,"pop":0},{"id":11844992,"name":"Abū ‘Uwaydāt","alt":["Abu `Uwaydat","أبو عويدات"],"lon":57.23442,"lat":22.41721,"pop":0},{"id":289463,"name":"Abū aḑ Ḑurūs","alt":["Abu Durus","Abu ad Durus","Abū Ḑurūs","abw aldrws","أبو الضروس"],"lon":56.87407,"lat":24.19768,"pop":0},{"id":11814916,"name":"Abū al ‘Akārish","alt":["Abu al `Akarish","أبو العكارش"],"lon":58.8269,"lat":21.03823,"pop":0},{"id":289467,"name":"Abū al Ḩişn","alt":["Abu al Hisn"],"lon":57.63282,"lat":23.78105,"pop":0},{"id":289457,"name":"Abū an Nakhīl","alt":["Abu Nukhayl","Abu an Nakhil","Abū Nukhayl","abw alnkhyl","أبو النّخيل"],"lon":58.03006,"lat":23.71119,"pop":0},{"id":11814814,"name":"Abū aţ Ţubūl","alt":["Abu at Tubul","Abū aṭ Ṭubūl","abw altbwl","أبو الطبول"],"lon":55.51185,"lat":20.99786,"pop":0},{"id":394082,"name":"Abū Bādī","alt":["Abu Badi","Bubadi","Būbādī","abw bady","أبو بادي"],"lon":55.95934,"lat":24.83542,"pop":0},{"id":288661,"name":"Abū Baqarah","alt":["Abu Baqarah","Abu Baqrah","Abū Baqrah","Bu Baqarah","Bū Baqarah","abw bqrt","أبو بقرة"],"lon":56.40387,"lat":24.86801,"pop":0},{"id":11982046,"name":"Abū Fishayghah","alt":["Abu Fishayghah","abw fshyght","أبو فشيغة"],"lon":59.65473,"lat":22.25161,"pop":0},{"id":11732227,"name":"Abū Ḩabbārah","alt":["Abu Habbarah","Abū Ḥabbārah","abw hbart","أبو حبّارة"],"lon":56.48197,"lat":24.53685,"pop":0},{"id":11982004,"name":"Abū Ḩarshah","alt":["Abu Harshah","abw hrsht","أبو حرشة"],"lon":59.32003,"lat":22.2511,"pop":0},{"id":11830952,"name":"Abū Ḩimār","alt":["Abu Himar","Abū Ḥimār","abw hmar","أبو حمار"],"lon":57.05185,"lat":22.87186,"pop":0},{"id":11982250,"name":"Abū Ḩimār","alt":["Abu Himar","abw hmar","أبو حمار"],"lon":59.57244,"lat":21.91093,"pop":0},{"id":11803887,"name":"Abū Ḩulayfah","alt":["Abu Hilayfah","Abu Hulayfah","Abū Ḥilayfah","abw hlyft","أبو حليفة"],"lon":57.2832,"lat":23.87714,"pop":0},{"id":11785445,"name":"Abū Karabah","alt":["Abu Karabah","Abu Karbah","Abū Karbah","abw krbt","أبو كربة"],"lon":56.19892,"lat":23.56749,"pop":0},{"id":11960554,"name":"Abu Maḑābī","alt":["Abu Madabi","abw mdaby","أبو مضابي"],"lon":56.69646,"lat":19.81152,"pop":0},{"id":11804796,"name":"Abū Maḩḩār","alt":["Abu Mahhar","Abū Maḥḥār","abw mhar","أبو محار"],"lon":57.77986,"lat":23.70939,"pop":0},{"id":11830676,"name":"Abū Mīlī","alt":["Abu Mili","abw myly","أبو ميلي"],"lon":56.81464,"lat":22.71463,"pop":0},{"id":11845518,"name":"Abū Mudayk","alt":["Abu Midayk","Abu Mudayk","Abū Midayk","abw mdyk","أبو مديك"],"lon":58.00864,"lat":22.10656,"pop":0},{"id":11784312,"name":"Abū Nukhaylah","alt":["Abu Nikhaylah","Abu Nukhaylah","Abū Nikhaylah","abw nkhylt","أبو نخيلة"],"lon":56.01987,"lat":23.99481,"pop":0},{"id":11832194,"name":"Abū Nukhaylah","alt":["Abu Nikhaylah","Abu Nukhaylah","Abū Nikhaylah","abw nkhylt","أبو نخيلة"],"lon":57.64796,"lat":22.77277,"pop":0},{"id":11835131,"name":"Abū Nukhaylah","alt":["Abu Nikhaylah","Abu Nukhaylah","Abū Nikhaylah","abw nkhylt","أبو نخيلة"],"lon":57.62181,"lat":22.74099,"pop":0},{"id":288633,"name":"Abū Qal‘ah","alt":["Abu Qal`ah","Baqlah","Bu Qal`ah","Bugla","Buklah","Buqla","Bū Qal‘ah","أبو قلعة"],"lon":56.03493,"lat":24.40066,"pop":0},{"id":411464,"name":"Abū Qal‘ah","alt":["Abu Qal`ah","Abu Qala","أبو قلعة"],"lon":59.48345,"lat":22.53411,"pop":0},{"id":288305,"name":"Abū Qalāţ","alt":["Abu Qalat","Abu Qlat","Abū Qlāṭ","Ghalat","abw qlat","أبو قلاط"],"lon":58.88636,"lat":21.10635,"pop":0},{"id":390334,"name":"Abū Qurayn","alt":["Abu Qarayt","Abu Qirayn","Abu Qurayn","Abū Qarayt","Abū Qirayn","abw qryn","أبو قرين"],"lon":56.2782,"lat":26.16853,"pop":0},{"id":11803940,"name":"Abū Raghwah","alt":["Abu Raghwah","abw rghwt","أبو رغوة"],"lon":57.38287,"lat":23.86517,"pop":0},{"id":11982248,"name":"Abū Raḩlayn","alt":["Abu Rahlayn","abw rhlyn","أبو رحلين"],"lon":59.52304,"lat":21.93967,"pop":0},{"id":11982267,"name":"Abū Rawāḩ","alt":["Abu Rawah","abw rwah","أبو رواح"],"lon":59.32312,"lat":21.77401,"pop":0},{"id":289453,"name":"Abū Rumaylah","alt":["Abu Rumaila","Abu Rumaylah"],"lon":53.91667,"lat":17.4,"pop":0},{"id":11982237,"name":"Abū Sadīrah","alt":["Abu Sadirah","Abu Sidayrah","Abū Sidayrah","abw sdyrt","أبو سديرة"],"lon":59.39,"lat":22.05445,"pop":0},{"id":11982037,"name":"Abū Şarīmah","alt":["Abu Sarimah","abw srymt","أبو صريمة"],"lon":59.57403,"lat":22.38154,"pop":0},{"id":288621,"name":"Abū Saylah","alt":["Abu Saylah","Bu Saylah","Bu Sayli","Bū Saylah","Bū Saylī","abw sylt","أبو سيلة"],"lon":56.22206,"lat":23.44075,"pop":0},{"id":11980579,"name":"Abū Şulayb","alt":["Abu Sulayb","abw slyb","أبو صليب"],"lon":58.03006,"lat":21.74069,"pop":0},{"id":11845560,"name":"Abū Şulb","alt":["Abu Sulb","Abū Ṣulb","abw slb","أبو صلب"],"lon":58.39938,"lat":22.29985,"pop":0},{"id":11830921,"name":"Abū Ţiḩāl","alt":["Abu Tihal","Abū Ṭiḥāl","abw thal","أبو طحال"],"lon":56.81573,"lat":22.39734,"pop":0},{"id":11982285,"name":"Abū Ţuwaynah","alt":["Abu Tuwaynah","abw twynt","أبو طوينة"],"lon":57.9482,"lat":21.747,"pop":0},{"id":11982203,"name":"Abū Yūnah","alt":["Abu Yunah","abw ywnt","ابو يونة"],"lon":59.13931,"lat":22.18189,"pop":0},{"id":442264,"name":"Abū Z̧almā’","alt":["Abu Zalma'","Abū Ẓalmā’","Bu Zalmah","Bū Zalmah","أبو ظلماء"],"lon":58.39126,"lat":22.58166,"pop":0},{"id":12062790,"name":"Abū Dhikrī","alt":["Abu Dhikri","abw dhkry","أبو ذكري"],"lon":57.02582,"lat":23.33596,"pop":0},{"id":288645,"name":"Abū Khābī","alt":["Abu Khabi","Bakhabi","Bakhābī","Bu Khabi","Bū Khābī","abw khaby","أبو خابي"],"lon":56.20952,"lat":23.4485,"pop":0},{"id":11813859,"name":"Abū Khaţwatayn","alt":["Abu Khatwatayn","Abū Khaṭwatayn","abw khtwtyn","أبو خطوتين"],"lon":56.42905,"lat":24.09568,"pop":0},{"id":8558691,"name":"Ad ‘Alī","alt":["Ad `Ali","Ada `Ali","Ada ‘Alī","أد علي"],"lon":54.40104,"lat":17.20897,"pop":0},{"id":12030943,"name":"Aḑ Ḑa‘īnah","alt":["Ad Da`inah","الضعينة"],"lon":56.15431,"lat":24.6431,"pop":0},{"id":11773496,"name":"Ad Da‘nah","alt":["Ad Da`nah","الدّعنة"],"lon":56.3597,"lat":25.99129,"pop":0},{"id":11784087,"name":"Ad Da‘thūr","alt":["Ad Da`thur","الدعثور"],"lon":55.96437,"lat":23.63348,"pop":0},{"id":8026295,"name":"Aḑ Ḑab‘ānī","alt":["Ad Dab`ani","الضبعاني"],"lon":58.71742,"lat":23.31291,"pop":0},{"id":11806567,"name":"Aḑ Ḑabānīyah","alt":["Ad Dabaniyah","Ad Dabbaniyyah","Aḍ Ḍabbāniyyah","aldbanyt","الضبانية"],"lon":57.30177,"lat":23.05833,"pop":0},{"id":12036439,"name":"Aḑ Ḑabkah","alt":["Ad Dabkah","aldbkt","الضبكة"],"lon":58.58781,"lat":23.23624,"pop":0},{"id":388523,"name":"Ad Dabrayn","alt":["Ad Dabarin","Ad Dabarīn","Dabaran","Dabarayn","Dabarān","aldbryn","الدّبرين"],"lon":56.20161,"lat":26.15841,"pop":0},{"id":288504,"name":"Ad Daf‘","alt":["Ad Daf`","Ad Difi`","Ad Difi‘","Difa`","Difā‘","الدفع"],"lon":57.21675,"lat":23.3913,"pop":0},{"id":11968049,"name":"Ad Dafa‘","alt":["Ad Dafa`","الدفع"],"lon":57.63691,"lat":19.64043,"pop":0},{"id":411477,"name":"Ad Daffah","alt":["aldft","الدفة"],"lon":59.8209,"lat":22.29509,"pop":0},{"id":11913752,"name":"Ad Dahārīz","alt":["Ad Dahariz","aldharyz","الدهاريز"],"lon":54.16789,"lat":17.02875,"pop":0},{"id":7631289,"name":"Ad Dahārīz al Janūbīyah","alt":["Ad Dahariz al Janubiyah","Janub ad Dahariz","South ad Dahariz","South ad Daḩarīz","aldharyz aljnwbyt","الدهاريز الجنوبية"],"lon":54.16045,"lat":17.01071,"pop":0},{"id":11909601,"name":"Ad Dahārīz ash Shamālīyah","alt":["Ad Dahariz ash Shamaliyah","aldharyz alshmalyt","الدهاريز الشمالية"],"lon":54.15758,"lat":17.02908,"pop":0},{"id":288500,"name":"Ad Dahās","alt":["Ad Dahas","Dahaz","Dahāz","Dihas","Dihās","aldhas","الدهاس"],"lon":57.34763,"lat":23.41853,"pop":0},{"id":411985,"name":"Ad Daḩīyah","alt":["Ad Dahiyah","Ad Dahyah","Ad Daḥyah","Dahiyah","Dāhiyah","aldhyt","الدّحية"],"lon":58.1537,"lat":23.08307,"pop":0},{"id":12062827,"name":"Aḑ Ḑāḩiyah","alt":["Ad Dahiyah","Ad Dahyah","Aḑ Ḑāḩyah","aldahyt","الضاحية"],"lon":56.75855,"lat":24.176,"pop":0},{"id":11804926,"name":"Aḑ Ḑāḩīyah","alt":["Ad Dahiyah","Ad Dahyah","Aḍ Ḍāḥyah","aldahyt","الضّاحية"],"lon":57.74173,"lat":23.44597,"pop":0},{"id":8558725,"name":"Ad Damar","alt":["Ad Damr","aldmr","الدمر"],"lon":54.35412,"lat":17.14847,"pop":0},{"id":11950420,"name":"Ad Damar","alt":["aldmr","الدمر"],"lon":54.35337,"lat":17.14578,"pop":0},{"id":11845880,"name":"Ad Dammah","alt":["aldmt","الدمة"],"lon":58.68202,"lat":22.69593,"pop":0},{"id":11802341,"name":"Ad Damūs","alt":["Ad Dammus","Ad Dammūs","Ad Damus","aldmws","الدموس"],"lon":57.20588,"lat":23.89822,"pop":0},{"id":396366,"name":"Ad Dānah","alt":["Ad Da`nah","Ad Danah","Ad Da‘nah","Dana","aldant","الدّانة"],"lon":56.20542,"lat":25.77013,"pop":0},{"id":12036384,"name":"Ad Dann","alt":["Ad Dan","aldn","الدن"],"lon":58.02953,"lat":23.30457,"pop":0},{"id":11832055,"name":"Ad Dannānah","alt":["Ad Dannanah","aldnant","الدنانة"],"lon":57.26512,"lat":22.8326,"pop":0},{"id":288571,"name":"Ad Daqīq","alt":["Ad Daqiq","Daqiq","Daqīq","aldqyq","الدّقيق"],"lon":56.25518,"lat":24.09353,"pop":0},{"id":288570,"name":"Ad Daqīqah","alt":["Ad Daqiqah","Daqiqah","Daqīqah","aldqyqt","الدّقيقة"],"lon":56.05958,"lat":24.43696,"pop":0},{"id":11732175,"name":"Ad Dār","alt":["Ad Dar","aldar","الدّار"],"lon":56.28885,"lat":24.63544,"pop":0},{"id":11806516,"name":"Ad Dār","alt":["Ad Dar","aldar","الدّار"],"lon":57.09289,"lat":23.04567,"pop":0},{"id":12075443,"name":"Ad Dār al Bayḑā’","alt":["Ad Dar al Bayda'","الدار البيضاء"],"lon":57.13517,"lat":23.31911,"pop":0},{"id":11804361,"name":"Ad Dār al Kabīrah","alt":["Ad Dar al Kabirah","aldar alkbyrt","الدار الكبيرة"],"lon":57.40311,"lat":23.51255,"pop":0},{"id":11774099,"name":"Ad Dārah","alt":["Ad Darah","aldart","الدارة"],"lon":56.088,"lat":26.05249,"pop":0},{"id":11970763,"name":"Ad Dārah","alt":["Ad Darah","aldart","الدارة"],"lon":58.63813,"lat":20.17595,"pop":0},{"id":289426,"name":"Ad Darīz","alt":["Ad Dariz","Ad Diriz","Ad Dirīz","Dariz","Darīz","aldryz","الدريز"],"lon":56.61501,"lat":23.31784,"pop":0},{"id":289427,"name":"Ad Darīz","alt":["Ad Dariz","Ad Diriz","Ad Dirīz","Dariz","Darīz","aldryz","الدريز"],"lon":58.68375,"lat":22.584,"pop":0},{"id":412086,"name":"Ad Daşş","alt":["Ad Das","Ad Dass","Ad Daṣ","alds","الدّص"],"lon":57.53473,"lat":23.24036,"pop":0},{"id":288555,"name":"Ad Dawānīj","alt":["Ad Dawanij","Ad Dawaniq","Ad Dawānīq","Dawanij","Dawānij","aldwanyj","الدّوانيج"],"lon":56.55639,"lat":24.58278,"pop":0},{"id":11835190,"name":"Ad Dawḩ","alt":["Ad Dawh","Ad Dawḥ","aldwh","الدوح"],"lon":57.92564,"lat":22.54932,"pop":0},{"id":11832217,"name":"Aḑ Ḑawī","alt":["Ad Dawi","Aḍ Ḍawī","aldwy","الضوي"],"lon":58.34934,"lat":21.16829,"pop":0},{"id":11780714,"name":"Ad Dāyir","alt":["Ad Dayir","aldayr","الدّاير"],"lon":56.33368,"lat":25.27421,"pop":0},{"id":11765792,"name":"Ad Daymānīyah","alt":["Ad Daymaniyah","Ad Dimaniyyah","Ad Dīmāniyyah","aldymanyt","الدّيمانيّة"],"lon":56.21715,"lat":24.77565,"pop":0},{"id":11960037,"name":"Ad Daynār","alt":["Ad Daynar","aldynar","الدينار"],"lon":56.55208,"lat":18.61322,"pop":0},{"id":390325,"name":"Ad Dayrī","alt":["Ad Dayri","Al Darai","aldyry","الدّيري"],"lon":56.25341,"lat":26.15857,"pop":0},{"id":12075431,"name":"Ad Dakhīrah","alt":["Ad Dakhirah","aldkhyrt","الدخيرة"],"lon":56.3775,"lat":26.30399,"pop":0},{"id":11774100,"name":"Ad Dasht","alt":["aldsht","الدّشت"],"lon":56.23313,"lat":26.05407,"pop":0},{"id":11774097,"name":"Ad Dashsh","alt":["Ad Dash","aldsh","الدّش"],"lon":56.24568,"lat":26.06675,"pop":0},{"id":11802036,"name":"Ad Dashshah","alt":["aldsht","الدشّة"],"lon":56.85127,"lat":23.0657,"pop":0},{"id":11800009,"name":"Ad Difa‘","alt":["Ad Difa`","Ad Difi`","Ad Difi‘","الدفع"],"lon":56.52043,"lat":23.55095,"pop":0},{"id":11800423,"name":"Ad Dīnārī","alt":["Ad Daynari","Ad Daynārī","Ad Dinari","aldynary","الدّيناري"],"lon":56.34514,"lat":24.36436,"pop":0},{"id":11805258,"name":"Ad Diqal","alt":["Ad Daqal","aldql","الدّقل"],"lon":58.44801,"lat":23.51418,"pop":0},{"id":11845681,"name":"Ad Dīrah","alt":["Ad Dirah","aldyrt","الديرة"],"lon":58.57109,"lat":22.97195,"pop":0},{"id":390016,"name":"Ad Dīrḩī","alt":["Ad Dirhi","Ad Dīrḥī","Dirhi","Dirhī","Umm Saghrain","Umm Şaghraīn","aldyrhy","الدّيرحي"],"lon":56.17641,"lat":25.64945,"pop":0},{"id":11773448,"name":"Ad Dīyah","alt":["Ad Diyah","aldyt","الدّية"],"lon":56.2806,"lat":25.75132,"pop":0},{"id":11844960,"name":"Ad Du‘aymah","alt":["Ad Di`aymah","Ad Di‘aymah","Ad Du`aymah","الدعيمة"],"lon":58.40185,"lat":22.72293,"pop":0},{"id":411722,"name":"Ad Dubayshī","alt":["Ad Dubayshi","Dubayshi","Dubayshī","Tawiyan Dubayshi","aldbyshy","Ţawīyān Dubayshī","الدبيشي"],"lon":56.48965,"lat":23.18039,"pop":0},{"id":11738659,"name":"Ad Duhaybah","alt":["Ad Dihaybah","aldhybt","الدّهيبة"],"lon":56.51263,"lat":24.19493,"pop":0},{"id":11845848,"name":"Ad Dukayk","alt":["Ad Dikayk","aldkyk","الدكيك"],"lon":58.54193,"lat":22.71175,"pop":0},{"id":11829844,"name":"Ad Dumaythah","alt":["Ad Dimaythah","aldmytht","الدميثة"],"lon":58.75165,"lat":23.27692,"pop":0},{"id":8558743,"name":"Ad Duqm","alt":["aldqm","الدقم"],"lon":54.12596,"lat":17.00665,"pop":0},{"id":11800432,"name":"Ad Duraysīyāt","alt":["Ad Dirisiyyat","Ad Dirīsiyyāt","Ad Duraysiyat","aldrysyat","الدّريسيّات"],"lon":56.32232,"lat":24.46974,"pop":0},{"id":11813654,"name":"Aḑ Ḑuwayḩīyah","alt":["Ad Duwayhiyah","Ad Duwayhiyyah","Aḍ Ḍuwayḥiyyah","aldwyhyt","الضّويحيّة"],"lon":56.04293,"lat":24.37903,"pop":0},{"id":11982035,"name":"Aḑ Ḑuwayjah","alt":["Ad Duwayjah","aldwyjt","الضويجة"],"lon":58.983,"lat":22.31272,"pop":0},{"id":289423,"name":"Ad Duwaykah","alt":["Al Duwika"],"lon":58.03722,"lat":23.69861,"pop":0},{"id":11982020,"name":"Aḑ Ḑuwayqah","alt":["Ad Duwayqah","aldwyqt","الضويقة"],"lon":58.83186,"lat":22.39899,"pop":0},{"id":11804505,"name":"Ad Duwayyah","alt":["Ad Dawiyyah","Ad Dāwiyyah","aldwyt","الدّويّة"],"lon":57.61625,"lat":23.76024,"pop":0},{"id":12036413,"name":"Ad Duwayyah","alt":["aldwyt","الدوية"],"lon":58.31322,"lat":23.21649,"pop":0},{"id":288464,"name":"Ad Duwaykhilah","alt":["Ad Duwaykhlah","Duwaykhilah","Duwaykhīlah","aldwykhlt","الدّويخلة"],"lon":57.70917,"lat":23.07904,"pop":0},{"id":11832249,"name":"Ad Dukhkhah","alt":["aldkht","الدّخّة"],"lon":57.96473,"lat":22.75775,"pop":0},{"id":413370,"name":"Aḑa‘ayt","alt":["Ada`ayt","Adh`eet","Adh‘eet","أضعيت"],"lon":54.53525,"lat":17.18879,"pop":0},{"id":11959591,"name":"Adaksmīm","alt":["Adaksmim","adksmym","أدكسميم"],"lon":54.25637,"lat":17.29308,"pop":0},{"id":289433,"name":"Adam","alt":["AOM","adm","Ādam","أدم"],"lon":57.52718,"lat":22.37934,"pop":17283},{"id":8558795,"name":"Adfīrūt","alt":["Adfirawt","Adfirut","adfyrwt","أدفيروت"],"lon":54.18722,"lat":17.26845,"pop":0},{"id":11909643,"name":"Adī","alt":["Adi","ady","أدي"],"lon":54.04071,"lat":17.16118,"pop":0},{"id":11780937,"name":"Aḑī’ītī","alt":["Ad'iti","Adi'iti","Aḍ’ītī","adyyyty","أضيئيتي"],"lon":54.16768,"lat":18.0235,"pop":0},{"id":8560961,"name":"Aḑibīdūt","alt":["Adibdut","Adibidut","Adībdūt","adbydwt","أضبيدوت"],"lon":54.28376,"lat":17.24127,"pop":0},{"id":11948868,"name":"Adīlāf","alt":["Adilaf","adylaf","أديلاف"],"lon":54.56841,"lat":17.12948,"pop":0},{"id":11909687,"name":"Aḑīnaw Ḩiyawr","alt":["Adinaw Hiyawr","adynw hywr","أضينو حيور"],"lon":54.26973,"lat":17.18371,"pop":0},{"id":8558654,"name":"Adīqāf","alt":["Adiqaf","adyqaf","أديقاف"],"lon":54.46468,"lat":17.19702,"pop":0},{"id":11917278,"name":"Adjiyān","alt":["Adjiyan","adjyan","أدجيان"],"lon":54.48262,"lat":17.23268,"pop":0},{"id":11773478,"name":"Adkayr","alt":["adkyr","أدكير"],"lon":56.39167,"lat":25.98307,"pop":0},{"id":11948816,"name":"Adkīdāk","alt":["Adkidak","adkydak","أدكيداك"],"lon":54.398,"lat":17.07836,"pop":0},{"id":11950453,"name":"Admadmah","alt":["admdmt","ادمدمة"],"lon":54.00033,"lat":17.12337,"pop":0},{"id":11950503,"name":"Aḑţāf","alt":["Adtaf","adtaf","أضطاف"],"lon":54.50048,"lat":17.22699,"pop":0},{"id":11909686,"name":"Aḑwī","alt":["Adwi","adwy","أضوي"],"lon":54.50041,"lat":17.17081,"pop":0},{"id":289431,"name":"Adkhām","alt":["Adaakham","Adakham","Adanham","Adkham","Adākham","adkham","أدخام"],"lon":54.35557,"lat":17.14821,"pop":0},{"id":8558775,"name":"Af‘aywar","alt":["Af`aywar","Afaayor","أفعيور"],"lon":54.2425,"lat":17.16154,"pop":0},{"id":11959584,"name":"Af‘aywar","alt":["Af`aywar","أفعيور"],"lon":54.47409,"lat":17.25619,"pop":0},{"id":11917283,"name":"Af‘ūr","alt":["Af`ur","أفعور"],"lon":54.49714,"lat":17.22221,"pop":0},{"id":8558752,"name":"Afarḑakhawt","alt":["Afardakhawt","Afardhkut","afrdkhwt","أفرضخوت"],"lon":54.11564,"lat":17.1152,"pop":0},{"id":289417,"name":"Afī","alt":["Afi","afy","Āfī","أفي"],"lon":57.80764,"lat":23.44183,"pop":0},{"id":11959623,"name":"Afīḑā Akhzam","alt":["Afida Akhzam","afyda akhzm","افيضا اخزم"],"lon":54.65352,"lat":17.10209,"pop":0},{"id":8558648,"name":"Afīlḩawt","alt":["Afilhawt","afylhwt","أفيلحوت"],"lon":54.45484,"lat":17.2191,"pop":0},{"id":8558732,"name":"Afişl","alt":["Afisl"],"lon":54.30362,"lat":17.12311,"pop":0},{"id":11909675,"name":"Afjawḩ","alt":["Afjawh","afjwh","أفجوح"],"lon":53.96154,"lat":17.11827,"pop":0},{"id":11917338,"name":"Afjūr","alt":["Afjur","afjwr","أفجور"],"lon":54.04671,"lat":17.16256,"pop":0},{"id":288435,"name":"Aflaj","alt":["Falaj","aflj","أفلج"],"lon":58.40138,"lat":23.53953,"pop":0},{"id":411676,"name":"Afranjī","lon":56.22082,"lat":23.44928,"pop":0},{"id":8558736,"name":"Afrūtam","alt":["Afratm","Afrutam","Afrātm","afrwtm","أفروتم"],"lon":54.3749,"lat":17.13471,"pop":0},{"id":11913770,"name":"Afsaltī","alt":["Afsalti","afslty","أفسلتي"],"lon":54.2623,"lat":17.17985,"pop":0},{"id":11909703,"name":"Aftalqūt","alt":["Aftalqut","aftlqwt","أفتلقوت"],"lon":53.8474,"lat":16.91637,"pop":0},{"id":11950508,"name":"Afūqā","alt":["Afuqa","afwqa","أفوقا"],"lon":54.48015,"lat":17.17319,"pop":0},{"id":11959571,"name":"Aghānjūt","alt":["Aghanjut","aghanjwt","أغانجوت"],"lon":54.08281,"lat":17.17731,"pop":0},{"id":11960534,"name":"Aghār","alt":["Aghar","aghar","أغار"],"lon":54.13896,"lat":17.20777,"pop":0},{"id":11960511,"name":"Aghārnūt","alt":["Agharnut","agharnwt","أغارنوت"],"lon":54.2076,"lat":17.14545,"pop":0},{"id":11556121,"name":"Aghāthū","alt":["Aghathu","aghathw","أغاثو"],"lon":53.22834,"lat":16.72365,"pop":0},{"id":11948817,"name":"Aghtīḑ","alt":["Aghtid","aghtyd","أغتيض"],"lon":54.33712,"lat":17.11556,"pop":0},{"id":415357,"name":"Agyaan","alt":["Agyan","Agyān"],"lon":54.21667,"lat":17.16917,"pop":0},{"id":11959993,"name":"Aḩ A‘azlān","alt":["Ah A`azlan","اح اعزلان"],"lon":54.05393,"lat":17.07659,"pop":0},{"id":11556105,"name":"Aḩamrūt","alt":["Ahamrut","Aḥamrūt","ahmrwt","أحمروت"],"lon":53.44839,"lat":16.82684,"pop":0},{"id":11950482,"name":"Aḩfayrantī","alt":["Ahfayranti","ahfyrnty","أحفيرنتي"],"lon":54.23338,"lat":17.10649,"pop":0},{"id":11950499,"name":"Aḩjafīt","alt":["Ahjafit","ahjfyt","أحجفيت"],"lon":54.38142,"lat":17.23666,"pop":0},{"id":11909712,"name":"Ahlīsh","alt":["Ahlish","ahlysh","أهليش"],"lon":53.89319,"lat":16.99999,"pop":0},{"id":11909673,"name":"Aḩmān","alt":["Ahman","ahman","أحمان"],"lon":53.93985,"lat":17.10915,"pop":0},{"id":11913732,"name":"Aḩqūm","alt":["Ahqum","ahqwm","أحقوم"],"lon":53.89362,"lat":17.06955,"pop":0},{"id":415331,"name":"Aḩyawf","alt":["Ahyawf"],"lon":54.43394,"lat":17.12401,"pop":0},{"id":8558808,"name":"Aḩyūf","alt":["Ahyoof","Ahyuf","ahywf","أحيوف"],"lon":54.15906,"lat":17.19395,"pop":0},{"id":11909682,"name":"Aḩyūf","alt":["Ahyuf","ahywf","أحيوف"],"lon":54.42535,"lat":17.13008,"pop":0},{"id":11913736,"name":"Aḩyūf","alt":["Ahyuf","ahywf","أحيوف"],"lon":53.92027,"lat":17.07005,"pop":0},{"id":8558704,"name":"Aḩzīn","alt":["Ahzin"],"lon":54.29898,"lat":17.24414,"pop":0},{"id":11917301,"name":"Aḩshī","alt":["Ahshi","ahshy","أحشي"],"lon":53.9696,"lat":17.08619,"pop":0},{"id":11917279,"name":"Aja‘ārnūt","alt":["Aja`arnut","أجعارنوت"],"lon":54.48131,"lat":17.23158,"pop":0},{"id":11960034,"name":"Ajandīl","alt":["Ajandil","ajndyl","أجنديل"],"lon":54.24116,"lat":17.18413,"pop":0},{"id":11917305,"name":"Ajanfān","alt":["Ajanfan","ajnfan","أجنفان"],"lon":53.95698,"lat":17.08784,"pop":0},{"id":8558874,"name":"Ajayaa","lon":54.22787,"lat":17.19886,"pop":0},{"id":11774050,"name":"Ajdarūt","alt":["Ajdarawt","Ajdarut","ajdrwt","أجدروت"],"lon":53.56258,"lat":16.78915,"pop":0},{"id":8558827,"name":"Ajdīr","alt":["Ajdir","ajdyr","أجدير"],"lon":53.89973,"lat":17.06262,"pop":0},{"id":8707164,"name":"Ajdīr Ayyūb","alt":["Ajdir Ayyub","Ayub","Ayūb","ajdyr aywb","أجدير أيوب"],"lon":53.99397,"lat":17.10649,"pop":0},{"id":11960510,"name":"Ajdītī","alt":["Ajditi","ajdyty","اجديتي"],"lon":54.21845,"lat":17.15,"pop":0},{"id":11960513,"name":"Ajdītī","alt":["Ajditi","ajdyty","اجديتي"],"lon":54.22501,"lat":17.13619,"pop":0},{"id":11774054,"name":"Ajīnād","alt":["Ajinad","ajynad","أجيناد"],"lon":53.59987,"lat":16.76986,"pop":0},{"id":11948812,"name":"Ajla‘ānūt","alt":["Ajla`anut","أجلعانوت"],"lon":54.47194,"lat":17.1054,"pop":0},{"id":8558711,"name":"Ajnīntī","alt":["Ajninti","ajnynty","أجنينتي"],"lon":54.3695,"lat":17.20165,"pop":0},{"id":11959599,"name":"Ajūnāt","alt":["Ajunat","ajwnat","أجونات"],"lon":54.51151,"lat":17.23591,"pop":0},{"id":11950456,"name":"Ajūnūt","alt":["Ajunut","ajwnwt","أجونوت"],"lon":54.00422,"lat":17.12543,"pop":0},{"id":11959598,"name":"Ajūr Akūr","alt":["Ajur Akur","ajwr akwr","أجور أكور"],"lon":54.51577,"lat":17.24302,"pop":0},{"id":11959981,"name":"Ajūt","alt":["Ajut","ajwt","اجوت"],"lon":54.68119,"lat":17.18852,"pop":0},{"id":11960020,"name":"Ajyā‘","alt":["Ajya`","أجياع"],"lon":54.22377,"lat":17.17315,"pop":0},{"id":11948859,"name":"Ajzayrnītī","alt":["Ajzayrniti","ajzyrnyty","أجزيرنيتي"],"lon":54.51592,"lat":17.05084,"pop":0},{"id":8558794,"name":"Ajzīntī","alt":["Ajzayhti","Ajzayhtī","Ajzinti","ajzynty","أجزينتي"],"lon":54.18833,"lat":17.26263,"pop":0},{"id":11909654,"name":"Aka‘","alt":["Aka`","أكع"],"lon":54.16786,"lat":17.14475,"pop":0},{"id":11959991,"name":"Aktharnūt","alt":["Aktharnut","akthrnwt","اكثرنوت"],"lon":54.06577,"lat":17.07825,"pop":0},{"id":11960026,"name":"Aktītah","alt":["Aktitah","aktytt","اكتيتة"],"lon":54.23624,"lat":17.22701,"pop":0},{"id":11950455,"name":"Akūt Atūr","alt":["Akut Atur","akwt atwr","اكوت اتور"],"lon":54.00559,"lat":17.12324,"pop":0},{"id":289386,"name":"Al ‘Abbāsah","alt":["Al `Abbasah","`Abbasah","‘Abbāsah"],"lon":57.21667,"lat":23.91667,"pop":0},{"id":11845915,"name":"Al ‘Ābiyah","alt":["Al `Abiyah","Al `Abyah","Al ‘Ābyah","العابية"],"lon":58.97185,"lat":22.57884,"pop":0},{"id":11803889,"name":"Al ‘Ābīyah","alt":["Al `Abiyah","Al `Abyah","Al ‘Ābyah","العابية"],"lon":57.33183,"lat":23.77005,"pop":0},{"id":289385,"name":"Al ‘Ablah","alt":["Al Isbalah","Al `Ablah","العبلة"],"lon":56.47017,"lat":24.08404,"pop":0},{"id":289470,"name":"Al ‘Ablah","alt":["Al `Ablah","`Ablah","العبلة","‘Ablah"],"lon":56.91188,"lat":23.17249,"pop":0},{"id":11804504,"name":"Al ‘Adābah","alt":["Al `Adabah","العدابة"],"lon":57.62325,"lat":23.76139,"pop":0},{"id":412069,"name":"Al ‘Adan","alt":["Al `Adan"],"lon":57.67111,"lat":23.43806,"pop":0},{"id":289381,"name":"Al ‘Adfayn","alt":["Al `Adfayn","Al `Adhfayn","Al ‘Adhfayn","العدفين"],"lon":59.11231,"lat":22.56821,"pop":0},{"id":412881,"name":"Al ‘Afīfah","alt":["Al `Afifah","العفيفة"],"lon":56.69189,"lat":24.42307,"pop":0},{"id":8026296,"name":"Al ‘Āfiyah","alt":["Al `Afiyah","Al `Afyah","Al ‘Āfyah","العافية"],"lon":58.72129,"lat":23.35052,"pop":0},{"id":11806829,"name":"Al ‘Āfīyah","alt":["Al `Afiyah","Al `Afyah","Al ‘Āfyah","العافية"],"lon":57.819,"lat":23.10339,"pop":0},{"id":11960582,"name":"Al ‘Ajā’iz","alt":["Al `Aja'iz","العجائز"],"lon":57.17807,"lat":19.54656,"pop":0},{"id":11800040,"name":"Al ‘Ajājī","alt":["Al `Ajaji","Al `Ijaji","Al ‘Ijājī","العجاجي"],"lon":56.68707,"lat":23.53912,"pop":0},{"id":289375,"name":"Al ‘Ajal","alt":["Al `Ajal"],"lon":57.26778,"lat":23.26639,"pop":0},{"id":11784316,"name":"Al ‘Ajam","alt":["Al `Ajam","Al `Ijam","Al ‘Ijam","العجم"],"lon":56.11622,"lat":23.88074,"pop":0},{"id":11800168,"name":"Al ‘Ajam","alt":["Al `Ajam","Al `Ijam","Al ‘Ijam","العجم"],"lon":56.95285,"lat":23.57421,"pop":0},{"id":11806662,"name":"Al ‘Ajam","alt":["Al `Ajam","Al `Ijam","Al ‘Ijam","العجم"],"lon":57.9962,"lat":23.30586,"pop":0},{"id":11739430,"name":"Al ‘Ajamah","alt":["Al `Ajamah","Al `Ajmah","Al ‘Ajmah","العجمة"],"lon":56.59449,"lat":23.83132,"pop":0},{"id":11739440,"name":"Al ‘Ajamah","alt":["Al `Ajamah","Al `Ajmah","Al ‘Ajmah","العجمة"],"lon":56.63999,"lat":23.78347,"pop":0},{"id":11982217,"name":"Al ‘Ājir","alt":["Al `Ajir","العاجر"],"lon":59.18721,"lat":22.05951,"pop":0},{"id":11739420,"name":"Al ‘Ajmā’","alt":["Al `Ajma'","العجماء"],"lon":56.53866,"lat":23.95234,"pop":0},{"id":411634,"name":"Al ‘Ajūz","alt":["Al `Ajuz","Tawi `Ajuz","Ţawī ‘Ajūz","العجوز"],"lon":56.92622,"lat":23.09096,"pop":0},{"id":412149,"name":"Al ‘Alā’","alt":["Al `Ala'"],"lon":57.61399,"lat":23.08091,"pop":0},{"id":11806468,"name":"Al ‘Alāh","alt":["Al `Alah","العلاه"],"lon":57.30526,"lat":23.23432,"pop":0},{"id":11832237,"name":"Al ‘Alam","alt":["Al `Alam","العلم"],"lon":57.77311,"lat":22.92897,"pop":0},{"id":11773474,"name":"Al ‘Alāmah","alt":["Al `Alamah","العلامة"],"lon":56.34076,"lat":25.94607,"pop":0},{"id":289370,"name":"Al ‘Alāyah","alt":["Al `Alayah","Al `Ilayah","Al ‘Ilāyah","العلاية"],"lon":57.43775,"lat":23.38115,"pop":0},{"id":11835191,"name":"Al ‘Alīm","alt":["Al `Alim","Al `Ilaym","Al ‘Ilaym","العليم"],"lon":57.91416,"lat":22.69008,"pop":0},{"id":11799958,"name":"Al ‘Alū","alt":["Al `Alu","العلو"],"lon":56.53639,"lat":23.60739,"pop":0},{"id":11835213,"name":"Al ‘Alū","alt":["Al `Alu","العلو"],"lon":58.2259,"lat":22.90107,"pop":0},{"id":11732181,"name":"Al ‘Alyā","alt":["Al `Alya","العليا"],"lon":56.28954,"lat":24.57917,"pop":0},{"id":412127,"name":"Al ‘Alyā’","alt":["Al `Alya'","Al `Ulyah","Al ‘Ulyah","العلياء"],"lon":57.64388,"lat":23.18184,"pop":0},{"id":442233,"name":"Al ‘Alyā’","alt":["Al `Aliyah","Al `Alya'","Al `Ilya'","Al ‘Alīyah","Al ‘Ilyā’","العلياء"],"lon":58.05504,"lat":22.92624,"pop":0},{"id":11806403,"name":"Al ‘Amār","alt":["Al `Amar","العمار"],"lon":57.31394,"lat":23.45568,"pop":0},{"id":11804867,"name":"Al ‘Āmirah","alt":["Al `Amirah","Al `Amrah","Al ‘Āmrah","العامرة"],"lon":57.97497,"lat":23.68913,"pop":0},{"id":412230,"name":"Al ‘Āmirāt","alt":["Al Amarat","Al Amrat","Al `Amirat","العامرات"],"lon":58.49866,"lat":23.52239,"pop":0},{"id":289070,"name":"Al ‘Amqāt","alt":["Al `Amqat","Amqat","Amqāt","العمقات"],"lon":58.12839,"lat":23.44445,"pop":0},{"id":11781050,"name":"Al ‘Amūd","alt":["Al `Amud","العمود"],"lon":56.58111,"lat":18.30069,"pop":0},{"id":11739042,"name":"Al ‘Anbar","alt":["Al `Anbar","العنبر"],"lon":56.6113,"lat":24.21865,"pop":0},{"id":289048,"name":"Al ‘Aqabah","alt":["Al `Aqabah","Al `Aqbah","Al ‘Aqbah","`Aqabah","العقبة","‘Aqabah"],"lon":56.41736,"lat":25.93044,"pop":0},{"id":12030988,"name":"Al ‘Aqabah","alt":["Al `Aqabah","Al `Aqbah","Al ‘Aqbah","العقبة"],"lon":58.11143,"lat":23.45622,"pop":0},{"id":11806568,"name":"Al ‘Aqabah aţ Ţawīlah","alt":["Al `Aqabah at Tawilah","Al `Aqbah at Tawilah","Al ‘Aqbah aṭ Ṭawīlah","العقبة الطويلة"],"lon":57.32381,"lat":23.06097,"pop":0},{"id":11845852,"name":"Al ‘Aqbah","alt":["Al `Aqbah","العقبة"],"lon":58.55056,"lat":22.69659,"pop":0},{"id":12036401,"name":"Al ‘Aqbah","alt":["Al `Aqbah","العقبة"],"lon":58.70646,"lat":23.21894,"pop":0},{"id":11785578,"name":"Al ‘Aqbī","alt":["Al `Aqbi","العقبي"],"lon":56.26832,"lat":23.5304,"pop":0},{"id":289043,"name":"Al ‘Aqbīyah","alt":["Al `Aqbiyah","Al `Aqbiyyah","Al ‘Aqbiyyah","`Aqbiyah","العقبيّة","‘Aqbīyah"],"lon":58.30237,"lat":23.46288,"pop":0},{"id":289109,"name":"Al ‘Aqd","alt":["Al `Aqd","Al `Aqud","Al `Uqud","Al ‘Aqūd","Al ‘Uqūd","العقد"],"lon":57.31053,"lat":23.45263,"pop":0},{"id":289040,"name":"Al ‘Āqil","alt":["Al `Aqil","`Aqil","العاقل","‘Āqil"],"lon":57.85039,"lat":22.7828,"pop":0},{"id":411840,"name":"Al ‘Aqlī","alt":["Al Aqli","Al `Aqli","العقلي"],"lon":56.76922,"lat":23.80814,"pop":0},{"id":289038,"name":"Al ‘Aqr","alt":["Al `Aqr","Al `Aqur","Al ‘Aqur","`Aqr","العقر","‘Aqr"],"lon":56.43813,"lat":24.80935,"pop":0},{"id":289388,"name":"Al ‘Aqr","alt":["Al `Aqr","Al `Aqur","Al ‘Aqur","`Akur","العقر","‘Akūr"],"lon":57.3189,"lat":23.44824,"pop":0},{"id":412153,"name":"Al ‘Aqr","alt":["Al `Aqar","Al `Aqr","Al `Aqur","Al ‘Aqar","Al ‘Aqur","العقر"],"lon":57.66621,"lat":23.07243,"pop":0},{"id":11806753,"name":"Al ‘Aqr","alt":["Al `Aqr","Al `Aqur","Al ‘Aqur","العقر"],"lon":57.74204,"lat":23.14106,"pop":0},{"id":11830987,"name":"Al ‘Aqr","alt":["Al `Aqr","Al `Aqur","Al ‘Aqur","العقر"],"lon":57.30188,"lat":22.96373,"pop":0},{"id":11832181,"name":"Al ‘Aqr","alt":["Al `Aqr","Al `Aqur","Al ‘Aqur","العقر"],"lon":57.53991,"lat":22.92885,"pop":0},{"id":11846640,"name":"Al ‘Aqr","alt":["Al `Aqr","Al `Aqur","Al ‘Aqur","العقر"],"lon":59.08508,"lat":22.60232,"pop":0},{"id":11800424,"name":"Al ‘Aqrabīyah","alt":["Al `Aqrabiyah","Al `Aqrabiyyah","Al ‘Aqrabiyyah","العقربيّة"],"lon":56.3295,"lat":24.37326,"pop":0},{"id":11814873,"name":"Al ‘Aqrah","alt":["Al `Aqrah","Al `Uqrah","Al ‘Uqrah","العقرة"],"lon":59.12044,"lat":21.32811,"pop":0},{"id":289363,"name":"Al ‘Arāqī","alt":["Al `Araqi","Araqi","العراقي"],"lon":56.54834,"lat":23.27993,"pop":0},{"id":12030944,"name":"Al ‘Arāsim","alt":["Al `Arasim","العراسم"],"lon":56.06642,"lat":24.5213,"pop":0},{"id":289377,"name":"Al ‘Arhamīyah","alt":["Al Ahramiya","Al Ahramiyah","Al Ahramīyah","Al `Arhamiyah","Al `Arhamiyyah","Al ‘Arhamiyyah","العرهمية"],"lon":56.02693,"lat":24.61778,"pop":0},{"id":289362,"name":"Al ‘Āriḑ","alt":["'Aridh","Al `Arid","Al ‘Āriḍ","Aradh","Arid","العارض","’Āridh"],"lon":56.62551,"lat":23.43346,"pop":0},{"id":11806565,"name":"Al ‘Āriḑ","alt":["Al `Arid","Al ‘Āriḍ","العارض"],"lon":57.29718,"lat":23.09567,"pop":0},{"id":292917,"name":"Al ‘Āriḑīyah","alt":["Al Ardiyah","Al Arḑīyah","Al `Ardiyyah","Al `Aridiyah","Al ‘Arḍiyyah","العارضيّة"],"lon":56.31645,"lat":25.2793,"pop":0},{"id":12062812,"name":"Al ‘Arīn","alt":["Al `Arin","العرين"],"lon":57.14366,"lat":23.41747,"pop":0},{"id":411711,"name":"Al ‘Ārīyah","alt":["Al Aqariyah","Al Aqārīyah","Al `Ariyah","Al `Aryah","Al ‘Āryah","العارية"],"lon":56.40275,"lat":23.33339,"pop":0},{"id":11800466,"name":"Al ‘Arjā’","alt":["Al `Arja'","العرجاء"],"lon":56.42927,"lat":24.36341,"pop":0},{"id":11845792,"name":"Al ‘Arjalī","alt":["Al `Arjali","العرجلي"],"lon":58.78028,"lat":22.98718,"pop":0},{"id":11802319,"name":"Al ‘Arqānah","alt":["Al `Arqanah","العرقانة"],"lon":57.0226,"lat":23.75996,"pop":0},{"id":412599,"name":"Al ‘Arqūb","alt":["Al Arkub","Al `Arqub","العرقوب"],"lon":56.3069,"lat":25.81606,"pop":0},{"id":414862,"name":"Al ‘Arqūb","alt":["Al `Arqub","Al `Urqub","Al ‘Urqūb","Lawqaybawt","العرقوب"],"lon":56.1837,"lat":26.12668,"pop":0},{"id":11845525,"name":"Al ‘Arqūb","alt":["Al `Arqub","العرقوب"],"lon":58.01623,"lat":22.49458,"pop":0},{"id":11785424,"name":"Al ‘Arshī","alt":["Al `Arshi","العرشي"],"lon":56.4167,"lat":23.83087,"pop":0},{"id":11763493,"name":"Al ‘Aşam","alt":["Al `Asam","Al `Asum","Al ‘Aṣum","العصم"],"lon":56.21307,"lat":25.8866,"pop":0},{"id":289360,"name":"Al ‘Aşansar","alt":["Al `Asansar"],"lon":56.9,"lat":23.71667,"pop":0},{"id":11830698,"name":"Al ‘Asīl","alt":["Al `Asil","Al `Usayl","Al ‘Usayl","العسيل"],"lon":56.93187,"lat":22.57715,"pop":0},{"id":11806416,"name":"Al ‘Aşūr","alt":["Al `Asur","Al ‘Aṣūr","العصور"],"lon":57.32059,"lat":23.44048,"pop":0},{"id":11829812,"name":"Al ‘Atab","alt":["Al `Atab","العتب"],"lon":58.69813,"lat":23.35502,"pop":0},{"id":11845551,"name":"Al ‘Atbīyah","alt":["Al `Atbiyah","Al `Atbiyyah","Al ‘Atbiyyah","العتبية"],"lon":58.13211,"lat":22.48641,"pop":0},{"id":11845530,"name":"Al ‘Ath‘āth","alt":["Al `Ath`ath","العثعاث"],"lon":58.01733,"lat":22.34908,"pop":0},{"id":8028500,"name":"Al ‘Atkīyah","alt":["Al `Atkiyah","Al `Atkiyyah","Al ‘Atkiyyah","العتكيّة"],"lon":58.5128,"lat":23.41307,"pop":0},{"id":288934,"name":"Al ‘Awābī","alt":["Al `Awabi","`Awabi","العوابي","‘Awābī"],"lon":58.28527,"lat":23.4887,"pop":0},{"id":288935,"name":"Al ‘Awābī","alt":["Al `Awabi","Al ‘Awābi","Awbi","`Awabi","العوابي","‘Awābī"],"lon":57.53111,"lat":23.30611,"pop":0},{"id":11802331,"name":"Al ‘Awān","alt":["Al `Awan","العوان"],"lon":57.13865,"lat":23.943,"pop":0},{"id":11909588,"name":"Al ‘Awayā’","alt":["Al `Awaya'","العوياء"],"lon":53.16604,"lat":18.0434,"pop":0},{"id":11781067,"name":"Al ‘Awf","alt":["Al `Awf","العوف"],"lon":56.54784,"lat":18.14977,"pop":0},{"id":288432,"name":"Al ‘Awhī","alt":["'Auhi","Al `Awhi","Falaj al `Awhi","Falaj al ‘Awhī","Uhi","`Awhi","العوهي","‘Awhī","’Auhi"],"lon":56.66893,"lat":24.40202,"pop":0},{"id":11800172,"name":"Al ‘Ayānah","alt":["Al `Ayanah","Al `Iyanah","Al ‘Iyānah","العيانة"],"lon":56.95161,"lat":23.54954,"pop":0},{"id":288915,"name":"Al ‘Ayjah","alt":["Al Ayjah","Al `Ayjah","`Ayja","`Ayqa","`Ayqah","alʿyjt","العيجة","‘Ayjā","‘Ayqa","‘Ayqah"],"lon":59.54469,"lat":22.56615,"pop":0},{"id":409645,"name":"Al ‘Ayjah","alt":["Al `Ayjah","Qaryat al `Ayjah","Qaryat al ‘Ayjah","العيجة"],"lon":58.9039,"lat":20.5922,"pop":0},{"id":289344,"name":"Al ‘Ayn","alt":["Al `Ayn","العين"],"lon":57.84472,"lat":23.14145,"pop":0},{"id":289345,"name":"Al ‘Ayn","alt":["Al `Ayn"],"lon":54.03167,"lat":17.08306,"pop":0},{"id":289346,"name":"Al ‘Ayn","alt":["Al `Ayn","العين"],"lon":56.19004,"lat":23.87551,"pop":0},{"id":411623,"name":"Al ‘Ayn","alt":["Al `Ayn","العين"],"lon":56.96444,"lat":23.21177,"pop":0},{"id":412154,"name":"Al ‘Ayn","alt":["Al `Ayn"],"lon":57.6625,"lat":23.0726,"pop":0},{"id":11800461,"name":"Al ‘Ayn","alt":["Al `Ayn","العين"],"lon":56.46373,"lat":24.43887,"pop":0},{"id":11806449,"name":"Al ‘Ayn","alt":["Al `Ayn","العين"],"lon":57.43647,"lat":23.45178,"pop":0},{"id":11982249,"name":"Al ‘Ayn","alt":["Al `Ayn","العين"],"lon":59.55115,"lat":21.87806,"pop":0},{"id":289342,"name":"Al ‘Aynayn","alt":["Al `Aynayn"],"lon":58.03699,"lat":22.6696,"pop":0},{"id":416377,"name":"Al ‘Aynayn","alt":["Al `Aynayn","Aynayn","العينين"],"lon":56.5478,"lat":23.28872,"pop":0},{"id":442260,"name":"Al ‘Aynayn","alt":["Al `Aynayn","`Aynayn","العينين","‘Aynayn"],"lon":58.13179,"lat":22.58015,"pop":0},{"id":11781005,"name":"Al ‘Aynīyah","alt":["Al `Ayniyah","Al `Ayniyyah","Al ‘Ayniyyah","العينية"],"lon":56.4769,"lat":18.28645,"pop":0},{"id":11804502,"name":"Al ‘Ayş","alt":["Al `Ays","Al `Is","Al ‘Īṣ","العيص"],"lon":57.60356,"lat":23.76061,"pop":0},{"id":289340,"name":"Al ‘Ayshī","alt":["Al `Aysh","Al `Ayshah","Al `Ayshi","Al ‘Aysh","Al ‘Ayshah","العيشي"],"lon":57.13512,"lat":23.04035,"pop":0},{"id":11806654,"name":"Al ‘Azm","alt":["Al `Azim","Al `Azm","Al ‘Azim","العزم"],"lon":57.96892,"lat":23.28214,"pop":0},{"id":11804836,"name":"Al ‘Ibar","alt":["Al `Ibar","العبر"],"lon":57.82114,"lat":23.69255,"pop":0},{"id":12026992,"name":"Al ‘Ibaylah","alt":["Al `Ibaylah","العبيلة"],"lon":56.16911,"lat":24.21666,"pop":0},{"id":12036422,"name":"Al ‘Ijf","alt":["Al `Ijf","العجف"],"lon":58.57747,"lat":23.10155,"pop":0},{"id":11813659,"name":"Al ‘Il‘āl","alt":["Al `Il`al","العلعال"],"lon":56.12536,"lat":24.28296,"pop":0},{"id":412140,"name":"Al ‘Ilay‘ilīnah","alt":["Al `Ilay`ilinah","Al `Ilay`linah","Al ‘Ilay‘līnah","Lali Laynah","Lālī Laynah","العليعلينة"],"lon":57.57814,"lat":23.11379,"pop":0},{"id":11806992,"name":"Al ‘Ilāyah","alt":["Al `Ilayah","العلاية"],"lon":58.49266,"lat":23.39522,"pop":0},{"id":286082,"name":"Al ‘Ilyā’","alt":["Al `Ilya'","`Ulyah","العلياء","‘Ulyah"],"lon":58.56736,"lat":23.10304,"pop":0},{"id":11773481,"name":"Al ‘Iqāb","alt":["Al `Iqab","Al `Uqab","Al ‘Uqāb","العقاب"],"lon":56.37564,"lat":25.94599,"pop":0},{"id":12026982,"name":"Al ‘Iqaybah","alt":["Al `Iqaybah","العقيبة"],"lon":56.41497,"lat":26.30377,"pop":0},{"id":289341,"name":"Al ‘Īr","alt":["Al `Ayr","Al `Ir","Al ‘Ayr","العير"],"lon":57.45925,"lat":23.21384,"pop":0},{"id":11804633,"name":"Al ‘Irq","alt":["Al `Irq","Al `Urq","Al ‘Urq","العرق"],"lon":57.57961,"lat":23.59343,"pop":0},{"id":8512058,"name":"Al ‘Īsá lil Mawāshī","alt":["Al `Isa lil Mawashi","Issa Sheep Farm","alʿysy llmwashy","العيسى للمواشي"],"lon":59.47456,"lat":22.54611,"pop":0},{"id":289114,"name":"Al ‘Ubaylah","alt":["Abailah","Al `Ubaylah","`Ubaylah","‘Ubaylah"],"lon":56.16061,"lat":24.26494,"pop":0},{"id":11785398,"name":"Al ‘Ubaylah","alt":["Al `Ubaylah","العبيلة"],"lon":56.32259,"lat":23.99322,"pop":0},{"id":11813872,"name":"Al ‘Ubaylah","alt":["Al `Ubaylah","العبيلة"],"lon":56.47909,"lat":24.07908,"pop":0},{"id":11739432,"name":"Al ‘Udayd","alt":["Al `Adid","Al `Udayd","Al ‘Adīd","العديد"],"lon":56.53091,"lat":23.79179,"pop":0},{"id":11960556,"name":"Al ‘Ūdayn","alt":["Al `Udayn","العودين"],"lon":56.61415,"lat":19.56979,"pop":0},{"id":11732203,"name":"Al ‘Ukayrishah","alt":["Al `Akirshah","Al `Ukayrishah","Al ‘Akīrshah","العكيرشة"],"lon":56.35708,"lat":24.54737,"pop":0},{"id":12075397,"name":"Al ‘Ulā’","alt":["Al `Ula'","العلاء"],"lon":58.04845,"lat":23.35585,"pop":0},{"id":289113,"name":"Al ‘Ulyā","alt":["Al `Ulya"],"lon":58.21667,"lat":22.88333,"pop":0},{"id":414251,"name":"Al ‘Umānī","alt":["Al `Umani","Umm al `An'ah","Umm al ‘An’ah","العماني"],"lon":56.46591,"lat":24.75108,"pop":0},{"id":11835149,"name":"Al ‘Umāq","alt":["Al `Imaq","Al `Umaq","Al ‘Imāq","العماق"],"lon":58.00361,"lat":22.94511,"pop":0},{"id":289367,"name":"Al ‘Umayrah","alt":["Al `Amirah","Al `Umayrah","Al ‘Amīrah","العميرة"],"lon":56.4273,"lat":24.15542,"pop":0},{"id":289071,"name":"Al ‘Umqah","alt":["Al `Umqah","Amqah"],"lon":57.01972,"lat":23.47417,"pop":0},{"id":12036414,"name":"Al ‘Umqīyah","alt":["Al `Umqiyah","Al `Umqiyyah","Al ‘Umqiyyah","العمقية"],"lon":58.32047,"lat":23.13206,"pop":0},{"id":11800505,"name":"Al ‘Uqabīyah","alt":["Al `Aqbiyah","Al `Aqbiyyah","Al `Uqabiyah","Al ‘Aqbiyyah","Al ‘Aqbīyah","العقبية"],"lon":56.52788,"lat":23.33072,"pop":0},{"id":11806401,"name":"Al ‘Uqaq","alt":["Al `Uqaq","العقق"],"lon":57.29599,"lat":23.4254,"pop":0},{"id":11773495,"name":"Al ‘Uqaybah","alt":["Al `Iqaybah","Al `Uqaybah","Al ‘Iqaybah","العقيبة"],"lon":56.36385,"lat":25.93895,"pop":0},{"id":11806457,"name":"Al ‘Uqaybah","alt":["Al `Iqaybah","Al `Uqaybah","Al ‘Iqaybah","العقيبة"],"lon":57.43447,"lat":23.26709,"pop":0},{"id":11806634,"name":"Al ‘Uqaybah","alt":["Al `Iqaybah","Al `Uqaybah","Al ‘Iqaybah","العقيبة"],"lon":57.82363,"lat":23.38614,"pop":0},{"id":11829848,"name":"Al ‘Uqaybah","alt":["Al `Iqaybah","Al `Uqaybah","Al ‘Iqaybah","العقيبة"],"lon":58.89371,"lat":23.2565,"pop":0},{"id":11774106,"name":"Al ‘Uqaybāt","alt":["Al `Iqaybat","Al `Uqaybat","Al ‘Iqaybāt","العقيبات"],"lon":56.18714,"lat":26.13291,"pop":0},{"id":11804770,"name":"Al ‘Uqaydah","alt":["Al `Iqaydah","Al `Uqaydah","Al ‘Iqaydah","العقيدة"],"lon":57.64901,"lat":23.69483,"pop":0},{"id":11806969,"name":"Al ‘Uqaydah","alt":["Al `Iqaydah","Al `Uqaydah","Al ‘Iqaydah","العقيدة"],"lon":58.11725,"lat":23.13963,"pop":0},{"id":11813788,"name":"Al ‘Uqaydah","alt":["Al `Iqaydah","Al `Uqaydah","Al ‘Iqaydah","العقيدة"],"lon":55.96829,"lat":24.23882,"pop":0},{"id":11845698,"name":"Al ‘Uqaydah","alt":["Al `Iqaydah","Al `Uqaydah","Al ‘Iqaydah","العقيدة"],"lon":58.63688,"lat":22.81526,"pop":0},{"id":11804834,"name":"Al ‘Uqayr","alt":["Al `Iqayr","Al `Uqayr","Al ‘Iqayr","العقير"],"lon":57.83993,"lat":23.67082,"pop":0},{"id":11813660,"name":"Al ‘Uqayr","alt":["Al `Iqayr","Al `Uqayr","Al ‘Iqayr","العقير"],"lon":56.1372,"lat":24.2743,"pop":0},{"id":11813873,"name":"Al ‘Uqayr","alt":["Al `Iqayr","Al `Uqayr","Al ‘Iqayr","العقير"],"lon":56.44574,"lat":24.09119,"pop":0},{"id":11830947,"name":"Al ‘Uqayr","alt":["Al `Iqayr","Al `Uqayr","Al ‘Iqayr","العقير"],"lon":57.13599,"lat":22.97901,"pop":0},{"id":11982289,"name":"Al ‘Uqayr","alt":["Al `Uqayr","العقير"],"lon":58.04204,"lat":21.73298,"pop":0},{"id":11845897,"name":"Al ‘Uqd","alt":["Al `Uqd","العقد"],"lon":58.81705,"lat":22.63179,"pop":0},{"id":11782152,"name":"Al ‘Uqdah","alt":["Al `Uqdah","العقدة"],"lon":55.86514,"lat":24.26771,"pop":0},{"id":11800017,"name":"Al ‘Uqdah","alt":["Al `Uqdah","العقدة"],"lon":56.58345,"lat":23.54772,"pop":0},{"id":11806451,"name":"Al ‘Uqdah","alt":["Al `Iqdah","Al `Uqdah","Al ‘Iqdah","العقدة"],"lon":57.45165,"lat":23.38645,"pop":0},{"id":11832196,"name":"Al ‘Uqdah","alt":["Al `Uqdah","العقدة"],"lon":57.65333,"lat":22.7964,"pop":0},{"id":11845545,"name":"Al ‘Uqdah","alt":["Al `Uqdah","العقدة"],"lon":58.24963,"lat":22.36847,"pop":0},{"id":11982229,"name":"Al ‘Uqdah","alt":["Al `Uqdah","العقدة"],"lon":59.27407,"lat":22.13694,"pop":0},{"id":286042,"name":"Al ‘Uqdah al Gharbīyah","alt":["Al Uqdah al Gharbiyyah","Al `Uqdah al Gharbiyah","`Uqdah","العقدة الغربيّة","‘Uqdah"],"lon":57.79046,"lat":23.70841,"pop":0},{"id":11804837,"name":"Al ‘Uqdah ash Sharqīyah","alt":["Al `Uqdah ash Sharqiyah","Al `Uqdah ash Sharqiyyah","Al ‘Uqdah ash Sharqiyyah","العقدة الشّرقيّة"],"lon":57.7993,"lat":23.71174,"pop":0},{"id":11773479,"name":"Al ‘Uqq","alt":["Al `Uq","Al `Uqq","Al ‘Uq","العق"],"lon":56.39936,"lat":25.96225,"pop":0},{"id":11773439,"name":"Al ‘Uqqah","alt":["Al `Uqqah","العقّة"],"lon":56.30801,"lat":25.81263,"pop":0},{"id":11803936,"name":"Al ‘Urayq","alt":["Al `Irayq","Al `Urayq","Al ‘Irayq","العريق"],"lon":57.33298,"lat":23.84864,"pop":0},{"id":11806626,"name":"Al ‘Urayq","alt":["Al `Ariq","Al `Urayq","Al ‘Arīq","العريق"],"lon":57.81265,"lat":23.48874,"pop":0},{"id":11830920,"name":"Al ‘Urf","alt":["Al `Urf","العرف"],"lon":56.8115,"lat":22.4734,"pop":0},{"id":289106,"name":"Al ‘Usaylah","alt":["Al Usaylah","Al `Asaylah","Al `Usaylah","Al ‘Asaylah","العسيلة"],"lon":56.04263,"lat":24.38186,"pop":0},{"id":11982226,"name":"Al ‘Uwād","alt":["Al `Uwad","العواد"],"lon":59.31139,"lat":22.09355,"pop":0},{"id":289103,"name":"Al ‘Uwayd","alt":["Al `Uwayd","العويد"],"lon":57.5868,"lat":23.79623,"pop":0},{"id":11784084,"name":"Al ‘Uwaydah","alt":["Al `Iwaydah","Al `Uwaydah","Al ‘Iwaydah","العويدة"],"lon":55.98798,"lat":23.58143,"pop":0},{"id":11802348,"name":"Al ‘Uwaydāt","alt":["Al `Iwaydat","Al `Uwaydat","Al ‘Iwaydāt","العويدات"],"lon":57.23435,"lat":23.91256,"pop":0},{"id":285882,"name":"Al ‘Uwaynah","alt":["Al `Uwaynah","Zilaft","العوينة"],"lon":59.08953,"lat":22.59144,"pop":0},{"id":11766285,"name":"Al ‘Uwaynah","alt":["Al `Uwaynah","العوينة"],"lon":55.98573,"lat":24.56471,"pop":0},{"id":11802035,"name":"Al ‘Uwaynah","alt":["Al `Uwaynah","العوينة"],"lon":56.84168,"lat":23.07644,"pop":0},{"id":11832239,"name":"Al ‘Uwaynah","alt":["Al `Iwaynah","Al `Uwaynah","Al ‘Iwaynah","العوينة"],"lon":57.76914,"lat":22.90673,"pop":0},{"id":412124,"name":"Al ‘Uwaynāt","alt":["Al `Awaynat","Al `Uwaynat","Al ‘Awaynāt","العوينات"],"lon":57.66295,"lat":23.21333,"pop":0},{"id":11760930,"name":"Al ‘Uwaynāt","alt":["Al `Uwaynat","العوينات"],"lon":56.61043,"lat":24.25955,"pop":0},{"id":289101,"name":"Al ‘Uwaynāt as Sāḩil","alt":["Al `Uwaynat","Al `Uwaynat as Sahil","Al ‘Uwaynāt","العوينات الساحل"],"lon":56.81484,"lat":24.27269,"pop":0},{"id":11732212,"name":"Al ‘Uwayr","alt":["Al `Uwayr","العوير"],"lon":56.39648,"lat":24.68446,"pop":0},{"id":411718,"name":"Al ‘Uwayridī","lon":56.45549,"lat":23.22084,"pop":0},{"id":412169,"name":"Al ‘Uyaynah","alt":["Al `Ayinah","Al `Iyaynah","Al `Uyaynah","Al ‘Ayīnah","Al ‘Iyaynah","العيينة"],"lon":57.95377,"lat":23.06128,"pop":0},{"id":11800404,"name":"Al ‘Uyaynah","alt":["Al `Iyaynah","Al `Uyaynah","Al ‘Iyaynah","العيينة"],"lon":56.27217,"lat":24.44158,"pop":0},{"id":11802290,"name":"Al ‘Uyaynī","alt":["Al `Iyayni","Al `Uyayni","Al ‘Iyaynī","العييني"],"lon":57.00715,"lat":23.51317,"pop":0},{"id":286017,"name":"Al ‘Uyūn","alt":["Al `Uyun","`Uyun","العيون","‘Uyūn"],"lon":58.06354,"lat":22.37093,"pop":0},{"id":412248,"name":"Al ‘Uyūn","alt":["Al `Uyun","`Ayun","العيون","‘Ayun"],"lon":59.49047,"lat":22.03286,"pop":0},{"id":11804794,"name":"Al ‘Udhaybah","alt":["Al `Idhaybah","Al `Udhaybah","Al ‘Idhaybah","العذيبة"],"lon":57.76121,"lat":23.73774,"pop":0},{"id":7649253,"name":"Al ‘Udhaybah al Janūbīyah","alt":["Al Udhaybah al Janubiyah","Al `Udhaybah Al Janubiyyah","Al `Udhaybah al Janubiyah","Al ‘Udhaybah Al Janūbiyyah","العذيبة الجنوبية"],"lon":58.34362,"lat":23.57147,"pop":0},{"id":286091,"name":"Al ‘Udhaybah ash Shamālīyah","alt":["Al Udhaybah ash Shamaliyah","Al `Udhaybah ash Shamaliyah","Al `Udhaybah ash Shamaliyyah","Al ‘Udhaybah ash Shamāliyyah","Azaiba","`Udhaybah","العذيبة الشّماليّة","‘Udhaybah"],"lon":58.36386,"lat":23.60126,"pop":0},{"id":11845353,"name":"Al ‘Ushaysh","alt":["Al `Ushaysh","العشيش"],"lon":57.61919,"lat":22.16635,"pop":0},{"id":289383,"name":"Al Abyaḑ","alt":["Abyad","Abyadh","Abyaḑ","Al Abyad","Al Abyaḍ","Al Bayd","Labijah","Labījah","alabyd","الأبيض"],"lon":57.66611,"lat":23.46556,"pop":0},{"id":289384,"name":"Al Abyaḑ","alt":["Al Abyad"],"lon":57.52819,"lat":23.02097,"pop":0},{"id":11835133,"name":"Al Abyaḑ","alt":["Al Abyad","Al Abyaḍ","alabyd","الأبيض"],"lon":57.57154,"lat":22.69254,"pop":0},{"id":289415,"name":"Al Aflāj","alt":["Aflaj","Aflāj","Al Aflaj","alaflaj","الأفلاج"],"lon":58.21303,"lat":22.38548,"pop":0},{"id":11800381,"name":"Al Aflāj","alt":["Al Aflaj","alaflaj","الأفلاج"],"lon":56.2261,"lat":23.4252,"pop":0},{"id":289104,"name":"Al Afrāḑ","alt":["Al Afrad","Al Afrāḍ","Al Uthrat","Al Uthrāt","Lothera","alafrad","الأفراض"],"lon":56.04899,"lat":24.36137,"pop":0},{"id":412195,"name":"Al Afrāḑ","alt":["Al Afrad","Al Afrād","Al Afrāḍ","alafrad","الأفراض"],"lon":57.4452,"lat":23.83547,"pop":0},{"id":289380,"name":"Al Aḩjāl","alt":["Al Ahjal"],"lon":56.88333,"lat":23.45,"pop":0},{"id":11832247,"name":"Al Ahwār","alt":["Al Ahwar","alahwar","الأهوار"],"lon":57.80794,"lat":22.81283,"pop":0},{"id":6619714,"name":"Al Ahyl","lon":57.20195,"lat":23.21705,"pop":0},{"id":412215,"name":"Al Amarat","lon":58.4975,"lat":23.52417,"pop":0},{"id":287488,"name":"Al Anşab","alt":["Al Ansab","Al Anṣab","Lansab","Lanşab","alansb","الأنصب"],"lon":58.35449,"lat":23.538,"pop":0},{"id":11780715,"name":"Al Anz̧ār","alt":["Al Anzar","Al Anẓār","alanzar","الأنظار"],"lon":56.32669,"lat":25.27909,"pop":0},{"id":11763517,"name":"Al Aryām","alt":["Al Aryam","alaryam","الأريام"],"lon":56.23963,"lat":25.78674,"pop":0},{"id":11739016,"name":"Al Asīl","alt":["Al Asayl","Al Asil","alasyl","الأسيل"],"lon":56.52424,"lat":24.01992,"pop":0},{"id":11763496,"name":"Al Asmaţ","alt":["Al Asmat","Al Asmaṭ","alasmt","الأسمط"],"lon":56.23526,"lat":25.86556,"pop":0},{"id":411986,"name":"Al Aswad","alt":["Aswad","alaswd","الأسود"],"lon":58.23404,"lat":23.09146,"pop":0},{"id":11845870,"name":"Al Aswad","alt":["alaswd","الأسود"],"lon":58.74445,"lat":22.52152,"pop":0},{"id":11814920,"name":"Al Athlatayn","alt":["alathltyn","الأثلتين"],"lon":58.9656,"lat":21.18627,"pop":0},{"id":289373,"name":"Al Akhḑar","alt":["Al Akhdar","Al Akhḍar","alakhdr","الأخضر"],"lon":56.46042,"lat":23.22247,"pop":0},{"id":442245,"name":"Al Akhḑar","alt":["Al Akhdar","Al Akhḍar","Khazar","Khaz̧ar","alakhdr","الأخضر"],"lon":58.17364,"lat":22.84136,"pop":0},{"id":289372,"name":"Al Akhrī","alt":["Al Akhri"],"lon":56.76667,"lat":23.8,"pop":0},{"id":11763504,"name":"Al Ashkalah","alt":["alashklt","الأشكلة"],"lon":56.21475,"lat":25.82438,"pop":0},{"id":289358,"name":"Al Ashqar","alt":["Lishgar"],"lon":56.12908,"lat":24.31564,"pop":0},{"id":411249,"name":"Al Ashkhar","alt":["alashkhr","الأشخر"],"lon":58.69775,"lat":23.03983,"pop":0},{"id":289359,"name":"Al Ashkharah","alt":["Al Ashkhara","Al Ashkhirah","Lashkharah"],"lon":59.57158,"lat":21.84728,"pop":0},{"id":11739029,"name":"Al Ashkharah","alt":["alashkhrt","الأشخرة"],"lon":56.57487,"lat":24.19614,"pop":0},{"id":11764773,"name":"Al Ashkharah","alt":["alashkhrt","الأشخرة"],"lon":56.26115,"lat":25.62484,"pop":0},{"id":11982202,"name":"Al Ashkharīyah","alt":["Al Ashkhariyah","Al Ashkhariyyah","alashkhryt","الأشخرية"],"lon":59.11562,"lat":22.19966,"pop":0},{"id":412198,"name":"Al Bad‘ah","alt":["Al Bad`ah"],"lon":57.472,"lat":23.83021,"pop":0},{"id":11732207,"name":"Al Bad‘ah","alt":["Al Bad`ah","البدعة"],"lon":56.4296,"lat":24.63934,"pop":0},{"id":11800547,"name":"Al Bad‘ah","alt":["Al Bad`ah","البدعة"],"lon":56.87009,"lat":23.37916,"pop":0},{"id":11832202,"name":"Al Bad‘ah","alt":["Al Bad`ah","البدعة"],"lon":57.74197,"lat":22.82922,"pop":0},{"id":11803953,"name":"Al Bad‘ah al Gharbīyah","alt":["Al Bad`ah al Gharbiyah","Al Bad`ah al Gharbiyyah","Al Bad‘ah al Gharbiyyah","البدعة الغربية"],"lon":57.4646,"lat":23.84364,"pop":0},{"id":288655,"name":"Al Bad‘ah ash Sharqīyah","alt":["Al Bad`ah ash Sharqiyah","Al Bad`ah ash Sharqiyyah","Al Bad‘ah ash Sharqiyyah","Buday`ah","Buday‘ah","البدعة الشرقية"],"lon":57.4706,"lat":23.84036,"pop":0},{"id":11806402,"name":"Al Badāyi‘","alt":["Al Badayi`","Al Bidayu`","Al Bidāyu‘","البدايع"],"lon":57.30586,"lat":23.43012,"pop":0},{"id":11948889,"name":"Al Bāḩah","alt":["Al Bahah","albaht","الباحة"],"lon":53.98962,"lat":17.12065,"pop":0},{"id":11829789,"name":"Al Baḩrah","alt":["Al Bahrah","Al Baḥrah","albhrt","البحرة"],"lon":58.54825,"lat":23.35313,"pop":0},{"id":289337,"name":"Al Bajrīyah","alt":["Al Bajriyah","Al Bajriyyah","albjryt","البجريّة"],"lon":58.49946,"lat":23.53725,"pop":0},{"id":11829835,"name":"Al Bakkār","alt":["Al Bakkar","albkar","البكّار"],"lon":58.77774,"lat":23.43251,"pop":0},{"id":11739450,"name":"Al Baks","alt":["albks","البكس"],"lon":56.63683,"lat":23.83403,"pop":0},{"id":390506,"name":"Al Balad","alt":["Al Bilad","albld","البلد"],"lon":56.45961,"lat":26.21777,"pop":0},{"id":11909679,"name":"Al Balīd","alt":["Al Balid","alblyd","البليد"],"lon":54.13441,"lat":17.01048,"pop":0},{"id":289333,"name":"Al Bānah","alt":["Al Banah","albant","البانة"],"lon":56.89503,"lat":23.28369,"pop":0},{"id":412207,"name":"Al Bāridah","alt":["Al Bardah","Al Baridah","Al Bārdah","Baridah","albardt","الباردة"],"lon":57.49865,"lat":23.7858,"pop":0},{"id":11773463,"name":"Al Bāridah","alt":["Al Bardah","Al Baridah","Al Bārdah","albardt","الباردة"],"lon":56.34455,"lat":25.87217,"pop":0},{"id":11806456,"name":"Al Bāridah","alt":["Al Bardah","Al Baridah","Al Bārdah","albardt","الباردة"],"lon":57.43083,"lat":23.27055,"pop":0},{"id":11800141,"name":"Al Barkah","alt":["Al Barakah","albrkt","البركة"],"lon":56.83228,"lat":23.73037,"pop":0},{"id":412076,"name":"Al Barmīyah","alt":["Al Barmiyah"],"lon":57.66192,"lat":23.38783,"pop":0},{"id":289329,"name":"Al Basātīn","alt":["Al Basatin","albsatyn","البساتين"],"lon":57.02911,"lat":23.32488,"pop":0},{"id":288781,"name":"Al Başīr","alt":["Al Basir","Al Baṣīr","Basir","albsyr","البصير"],"lon":58.35295,"lat":21.29376,"pop":0},{"id":288786,"name":"Al Bāsiţ","alt":["Al Basit","Al Bāsiṭ","Barsit","Bārsit","albast","الباسط"],"lon":57.91299,"lat":23.70654,"pop":0},{"id":11806570,"name":"Al Baţḩā’","alt":["Al Batha'","Al Baṭḥā’","البطحاء"],"lon":57.2679,"lat":23.03296,"pop":0},{"id":11829847,"name":"Al Baţḩā’","alt":["Al Batha'","Al Baṭḥā’","البطحاء"],"lon":58.8606,"lat":23.25604,"pop":0},{"id":11835398,"name":"Al Baţḩā’","alt":["Al Batha'","Al Baṭḥā’","البطحاء"],"lon":58.12399,"lat":22.7271,"pop":0},{"id":12030983,"name":"Al Baţḩā’","alt":["Al Batha'","البطحاء"],"lon":58.17636,"lat":23.45246,"pop":0},{"id":12036455,"name":"Al Baţḩā’","alt":["Al Batha'","البطحاء"],"lon":58.97546,"lat":23.04618,"pop":0},{"id":11813879,"name":"Al Baţḩah","alt":["Al Bathah","Al Baṭḥah","albtht","البطحة"],"lon":56.49992,"lat":24.14481,"pop":0},{"id":412233,"name":"Al Bāţin","alt":["Al Batin"],"lon":59.10709,"lat":22.46912,"pop":0},{"id":11813875,"name":"Al Baţnān","alt":["Al Batnan","Al Butnan","albtnan","البطنان"],"lon":56.47286,"lat":24.09803,"pop":0},{"id":11744040,"name":"Al Bayāḑ","alt":["Al Bayad","Al Bayāḍ","albyad","البياض"],"lon":56.37976,"lat":23.10088,"pop":0},{"id":11785433,"name":"Al Bayah","alt":["Al Bayyah","albyh","البيه"],"lon":56.08803,"lat":23.6131,"pop":0},{"id":11785428,"name":"Al Bayḑā’","alt":["Al Bayda'","Al Bayḍā’","البيضاء"],"lon":56.44524,"lat":23.96004,"pop":0},{"id":11845285,"name":"Al Bayḑā’","alt":["Al Bayda'","Al Bayḍā’","البيضاء"],"lon":57.92524,"lat":22.44401,"pop":0},{"id":12026999,"name":"Al Bash","alt":["albsh","البش"],"lon":56.81499,"lat":24.20741,"pop":0},{"id":11835167,"name":"Al Bashā’ir","alt":["Al Basha'ir","albshayr","البشائر"],"lon":57.60904,"lat":22.52646,"pop":0},{"id":287298,"name":"Al Bashshūq","alt":["Al Bashshuq","Mashuq","Mashūq","albshwq","البشّوق"],"lon":57.3027,"lat":23.24064,"pop":0},{"id":288761,"name":"Al Bī‘ah","alt":["Al Bi`ah","Bay`ah","Bay‘ah","البيعة"],"lon":58.02207,"lat":23.01594,"pop":0},{"id":412156,"name":"Al Bībān","alt":["Al Biban","Biban","Bībān","albyban","البيبان"],"lon":57.73075,"lat":23.09274,"pop":0},{"id":412187,"name":"Al Bidāyah","alt":["Al Bidayah","Al Budayah","Al Budāyah","albdayt","البداية"],"lon":57.16784,"lat":23.91815,"pop":0},{"id":11764930,"name":"Al Bidī","alt":["Al Bidi","albdy","البدي"],"lon":56.22031,"lat":25.67309,"pop":0},{"id":11804765,"name":"Al Bidī","alt":["Al Bidi","albdy","البدي"],"lon":57.60864,"lat":23.74223,"pop":0},{"id":11804782,"name":"Al Bidī","alt":["Al Bidi","albdy","البدي"],"lon":57.74575,"lat":23.69382,"pop":0},{"id":411266,"name":"Al Bilād","alt":["Al Bilad","Bilad","Bilād","alblad","البلاد"],"lon":58.98257,"lat":23.18806,"pop":0},{"id":288706,"name":"Al Billah","alt":["Billa","Billah","alblt","البلّة"],"lon":57.75494,"lat":23.72062,"pop":0},{"id":289323,"name":"Al Bīr","alt":["Al Bi'r","Al Bir","Al Bi’r","albyr","البير"],"lon":57.97176,"lat":23.37135,"pop":0},{"id":289324,"name":"Al Bīr","alt":["Al Bi'r","Al Bir","Al Bi’r","albyr","البير"],"lon":57.4433,"lat":23.21968,"pop":0},{"id":411987,"name":"Al Bīr","alt":["Al Bir","Bi'r","Bi’r","albyr","البير"],"lon":58.23553,"lat":23.07768,"pop":0},{"id":390416,"name":"Al Birak","alt":["albrk","البرك"],"lon":56.33259,"lat":26.11266,"pop":0},{"id":8067375,"name":"Al Bīrayn","alt":["Al Birayn","alyryn","اليرين"],"lon":58.48344,"lat":23.47037,"pop":0},{"id":411861,"name":"Al Birr","alt":["Al Bir","Al Burr","albr","البر"],"lon":57.33191,"lat":23.22211,"pop":0},{"id":11804865,"name":"Al Birr","alt":["Al Bar","albr","البر"],"lon":57.95747,"lat":23.51231,"pop":0},{"id":411248,"name":"Al Bīyuḑ","alt":["Al Bayd","Al Bayḑ","Al Biyud","Al Biyyud","Al Biyyuḑ","Bayyid","Bayyiḑ","albyd","البيض"],"lon":58.66277,"lat":23.04693,"pop":0},{"id":289322,"name":"Al Buda‘ah","alt":["Al Buda`ah","Budahr","Būdahr"],"lon":58.3987,"lat":23.13457,"pop":0},{"id":288656,"name":"Al Buday‘ah","alt":["Al Biday`ah","Al Biday‘ah","Al Buday`ah","Badiyah","Buday`ah","Buday‘ah","Bādiyah","البديعة"],"lon":56.90346,"lat":23.72106,"pop":0},{"id":412133,"name":"Al Buday‘ah","alt":["Al Biday`ah","Al Bidayah","Al Biday‘ah","Al Bidāyah","Al Buday`ah","البديعة"],"lon":57.73647,"lat":23.15313,"pop":0},{"id":11804503,"name":"Al Buday‘ah","alt":["Al Biday`ah","Al Biday‘ah","Al Buday`ah","البديعة"],"lon":57.62991,"lat":23.77662,"pop":0},{"id":11764769,"name":"Al Buḩayrī","alt":["Al Bihayri","Al Biḥayrī","Al Buhayri","albhyry","البحيري"],"lon":56.25572,"lat":25.63466,"pop":0},{"id":11784086,"name":"Al Buḩayşah","alt":["Al Bihaysah","Al Biḥayṣah","Al Buhaysah","albhyst","البحيصة"],"lon":55.94582,"lat":23.61917,"pop":0},{"id":288641,"name":"Al Bulaydah","alt":["Bulaydah","alblydt","البليدة"],"lon":56.92012,"lat":23.3842,"pop":0},{"id":288642,"name":"Al Bulaydah","alt":["Al Bilaydah","Bulaydah","alblydt","البليدة"],"lon":58.19637,"lat":22.56551,"pop":0},{"id":289321,"name":"Al Bulaydah","alt":["Al Bilaydah","alblydt","البليدة"],"lon":56.41588,"lat":24.84157,"pop":0},{"id":412251,"name":"Al Bulaydah","lon":59.36393,"lat":22.01601,"pop":0},{"id":11739446,"name":"Al Bulaydah","alt":["alblydt","البليدة"],"lon":56.71903,"lat":23.82683,"pop":0},{"id":12030939,"name":"Al Būn","alt":["Al Bun","albwn","البون"],"lon":56.16182,"lat":24.71353,"pop":0},{"id":11760933,"name":"Al Burayd","alt":["albryd","البريد"],"lon":56.61915,"lat":24.43921,"pop":0},{"id":11774112,"name":"Al Buraydah","alt":["Al Biraydah","albrydt","البريدة"],"lon":56.25542,"lat":26.19312,"pop":0},{"id":412185,"name":"Al Burayk","lon":57.15846,"lat":23.94214,"pop":0},{"id":11800177,"name":"Al Burayk","alt":["Al Birik","Al Birīk","albryk","البريك"],"lon":56.97445,"lat":23.74954,"pop":0},{"id":289317,"name":"Al Buraymī","alt":["Al Buraymi","Baraimi","Bireimi","Buraimi","Burami","RMB","albrymy","البريمي"],"lon":55.79312,"lat":24.25088,"pop":73670},{"id":11770157,"name":"Al Burj as Suflīyah","alt":["Al Burj as Sufliyah","Al Burj as Sufliyyah","albrj alsflyt","البرج السفلية"],"lon":53.44402,"lat":17.87362,"pop":0},{"id":11773418,"name":"Al Busāţ","alt":["Al Bisat","Al Biṣāṭ","Al Busat","albsat","البساط"],"lon":56.30627,"lat":25.98579,"pop":0},{"id":11800178,"name":"Al Buşayrī","alt":["Al Bisayri","Al Biṣayrī","Al Busayri","albsyry","البصيري"],"lon":56.98357,"lat":23.74645,"pop":0},{"id":11800003,"name":"Al Busaytīn","alt":["Al Bisaytin","Al Bisaytīn","Al Busaytin","albsytyn","البسيتين"],"lon":56.88668,"lat":23.79556,"pop":0},{"id":289311,"name":"Al Bustān","alt":["Al Bustan","albstan","البستان"],"lon":58.60982,"lat":23.57282,"pop":0},{"id":11802309,"name":"Al Bustān","alt":["Al Bustan","albstan","البستان"],"lon":57.21447,"lat":23.57674,"pop":0},{"id":390417,"name":"Al Būt","alt":["Al But","albwt","البوت"],"lon":56.33489,"lat":26.12054,"pop":0},{"id":391656,"name":"Al Buţaykhī","alt":["Al Bataykhi","Al Baţaykhī","Al Bitikhi","Al Biṭīkhī","Al Butaykhi","albtykhy","البطيخي"],"lon":56.27875,"lat":26.19442,"pop":0},{"id":11802049,"name":"Al Buwayḑā","alt":["Al Buwayda","Al Buwayḍā","albwyda","البويضا"],"lon":56.95827,"lat":23.01204,"pop":0},{"id":412170,"name":"Al Buwayḑā’","alt":["Al Buwayda'","Al Buwayza","Al Buwayz̧ā","Al Buwayḍā’","البويضاء"],"lon":57.95592,"lat":23.05398,"pop":0},{"id":11802038,"name":"Al Buwayḑah","alt":["Al Buwaydah","Al Buwayḍah","albwydt","البويضة"],"lon":56.89122,"lat":23.0243,"pop":0},{"id":11806410,"name":"Al Buwayḑah","alt":["Al Buwaydah","Al Buwayḍah","albwydt","البويضة"],"lon":57.29624,"lat":23.48115,"pop":0},{"id":11813651,"name":"Al Buwayḑah","alt":["Al Bayda'","Al Bayḑā’","Al Buwaydah","Al Buwayḍah","albwydt","البويضة"],"lon":56.05754,"lat":24.45604,"pop":0},{"id":11804494,"name":"Al Buwayrid","alt":["albwyrd","البويرد"],"lon":57.52718,"lat":23.7674,"pop":0},{"id":12036456,"name":"Al Buwayrid","alt":["albwyrd","البويرد"],"lon":58.70734,"lat":23.23831,"pop":0},{"id":12075393,"name":"Al Buwayrid","alt":["albwyrd","البويرد"],"lon":58.12545,"lat":23.40635,"pop":0},{"id":11785596,"name":"Al Buwayridah","alt":["Al Buwayrdah","albwyrdt","البويردة"],"lon":56.48807,"lat":23.63673,"pop":0},{"id":288606,"name":"Al Buwayriq","alt":["Buwayrik","albwyrq","البويرق"],"lon":57.27152,"lat":23.63218,"pop":0},{"id":389901,"name":"Al Buwayt","alt":["albwyt","البويت"],"lon":56.1935,"lat":26.04722,"pop":0},{"id":11806853,"name":"Al Buwayt","alt":["albwyt","البويت"],"lon":57.96746,"lat":23.0418,"pop":0},{"id":442255,"name":"Al Buwayţin","alt":["Al Buwaytin","Al Buwayṭin","Buwaytin","albwytn","البويطن"],"lon":58.04056,"lat":22.61802,"pop":0},{"id":11800024,"name":"Al Bukhayrah","alt":["Al Bikhayrah","albkhyrt","البخيرة"],"lon":56.60612,"lat":23.6617,"pop":0},{"id":11982045,"name":"Al Fāf","alt":["Al Faf","alfaf","الفاف"],"lon":59.60692,"lat":22.25568,"pop":0},{"id":412089,"name":"Al Fāghirah","alt":["Al Faghirah","Al Faghrah","Al Fāghrah","Fujayrah","alfaghrt","الفاغرة"],"lon":57.9693,"lat":23.28833,"pop":0},{"id":11804831,"name":"Al Fāghirah","alt":["Al Faghirah","Al Faghrah","Al Fāghrah","alfaghrt","الفاغرة"],"lon":57.77801,"lat":23.66942,"pop":0},{"id":11739023,"name":"Al Fajj","alt":["Al Faj","alfj","الفج"],"lon":56.54689,"lat":24.18212,"pop":0},{"id":11773428,"name":"Al Fajj","alt":["Al Faj","alfj","الفج"],"lon":56.27002,"lat":25.85399,"pop":0},{"id":11835236,"name":"Al Fajj","alt":["Al Faj","alfj","الفج"],"lon":58.32972,"lat":22.81989,"pop":0},{"id":12036404,"name":"Al Fajj","alt":["Al Faj","alfj","الفج"],"lon":58.69283,"lat":23.22554,"pop":0},{"id":11845006,"name":"Al Fajjah","alt":["alfjt","الفجة"],"lon":57.47589,"lat":22.357,"pop":0},{"id":11806988,"name":"Al Fajjayn","alt":["alfjyn","الفجّين"],"lon":58.45995,"lat":23.35463,"pop":0},{"id":11804624,"name":"Al Fajrah","alt":["Al Fijrah","alfjrt","الفجرة"],"lon":57.51573,"lat":23.54002,"pop":0},{"id":11732178,"name":"Al Falaj","alt":["alflj","الفلج"],"lon":56.28169,"lat":24.62765,"pop":0},{"id":411261,"name":"Al Fāli‘","alt":["Al Fala","Al Fali`","الفالع"],"lon":58.96528,"lat":23.20768,"pop":0},{"id":12036403,"name":"Al Fāli‘ al Janūbīyah","alt":["Al Fali` al Janubiyah","Al Fali` al Janubiyyah","Al Fāli‘ al Janūbiyyah","الفالع الجنوبية"],"lon":58.96173,"lat":23.20198,"pop":0},{"id":288363,"name":"Al Faljāt","alt":["Al Faljat","Faljat","Faljāt","Firjat","Firjāt","alfljat","الفلجات"],"lon":58.03913,"lat":23.35603,"pop":0},{"id":11806832,"name":"Al Faljayn","alt":["alfljyn","الفلجين"],"lon":57.85995,"lat":23.09929,"pop":0},{"id":11806966,"name":"Al Fankh","alt":["alfnkh","الفنخ"],"lon":58.07963,"lat":23.23309,"pop":0},{"id":11800413,"name":"Al Faqārah","alt":["Al Faqarah","alfqart","الفقارة"],"lon":56.33613,"lat":24.31343,"pop":0},{"id":288408,"name":"Al Far‘","alt":["Al Far`","Far`","Fara`ah","Far‘","Fārā‘ah","الفرع"],"lon":57.48193,"lat":23.31533,"pop":0},{"id":411281,"name":"Al Far‘","alt":["Al Far`","Al Fara`","Al Fara‘","Fara'","Fara’","الفرع"],"lon":58.98918,"lat":23.07075,"pop":0},{"id":11806704,"name":"Al Far‘","alt":["Al Far`","الفرع"],"lon":57.50814,"lat":23.08223,"pop":0},{"id":11804864,"name":"Al Far‘ah","alt":["Al Far`ah","الفرعة"],"lon":57.90861,"lat":23.54641,"pop":0},{"id":11845685,"name":"Al Far‘ah","alt":["Al Far`ah","الفرعة"],"lon":58.61934,"lat":22.86259,"pop":0},{"id":390044,"name":"Al Farāyid","alt":["Al Farayid","Al Firayid","Al Firāyid","Khamid","alfrayd","الفرايد"],"lon":56.19782,"lat":25.93359,"pop":0},{"id":11835422,"name":"Al Farash","alt":["alfrsh","الفرش"],"lon":58.16447,"lat":22.74487,"pop":0},{"id":288404,"name":"Al Farfār","alt":["Al Farfar","Farfar","Farfār","alfrfar","الفرفار"],"lon":56.35877,"lat":24.19635,"pop":0},{"id":288403,"name":"Al Farfārah","alt":["Al Farfarah","Farfarah","Farfārah","alfrfart","الفرفارة"],"lon":56.45805,"lat":24.70892,"pop":0},{"id":11806630,"name":"Al Farham","alt":["alfrhm","الفرهم"],"lon":57.81415,"lat":23.44854,"pop":0},{"id":11744541,"name":"Al Farjah","alt":["alfrjt","الفرجة"],"lon":55.61894,"lat":22.44879,"pop":0},{"id":11760931,"name":"Al Farjah","alt":["Al Furjah","alfrjt","الفرجة"],"lon":56.57381,"lat":24.29979,"pop":0},{"id":288366,"name":"Al Farrā‘ah","alt":["Al Farra`ah","Fira`ah","Firā‘ah","الفراعة"],"lon":57.31649,"lat":23.22051,"pop":0},{"id":11806611,"name":"Al Farrā‘ah","alt":["Al Farra`ah","الفرّاعة"],"lon":57.39485,"lat":23.13889,"pop":0},{"id":11830986,"name":"Al Farrāj","alt":["Al Farraj","alfraj","الفراج"],"lon":57.29941,"lat":22.96752,"pop":0},{"id":390368,"name":"Al Fatak","alt":["Al Fatk","Al Fiduk","alftk","الفتك"],"lon":56.35904,"lat":26.02766,"pop":0},{"id":288392,"name":"Al Fatḩ","alt":["Al Fath","Fath Al Bu Sa`id","Fatḩ Āl Bū Sa‘īd","alfth","الفتح"],"lon":58.41449,"lat":23.55994,"pop":0},{"id":288394,"name":"Al Fatḩ","alt":["Al Fath","Al Fatḥ","Fatah","Fath","Fatḩ","alfth","الفتح"],"lon":58.1403,"lat":22.61656,"pop":0},{"id":11784317,"name":"Al Fatḩ","alt":["Al Fath","Al Fatḥ","alfth","الفتح"],"lon":56.19939,"lat":23.76187,"pop":0},{"id":11832047,"name":"Al Fatḩ","alt":["Al Fath","Al Fatḥ","alfth","الفتح"],"lon":57.3121,"lat":22.92271,"pop":0},{"id":288391,"name":"Al Fatḩī","alt":["Al Fathi","Al Fatḥī","Fathi","Fatḩī","alfthy","الفتحي"],"lon":57.5115,"lat":22.77686,"pop":0},{"id":11806428,"name":"Al Fatīyah","alt":["Al Fatiyah","Al Fatiyyah","alftyt","الفتيّة"],"lon":57.36827,"lat":23.31256,"pop":0},{"id":11803949,"name":"Al Fāw","alt":["Al Faw","alfaw","الفاو"],"lon":57.46174,"lat":23.83472,"pop":0},{"id":11814214,"name":"Al Fāw","alt":["Al Faw","alfaw","الفاو"],"lon":58.86562,"lat":20.57959,"pop":0},{"id":11845502,"name":"Al Fayḑah","alt":["Al Faydah","Al Fayḍah","alfydt","الفيضة"],"lon":57.99005,"lat":22.02846,"pop":0},{"id":11732234,"name":"Al Fayh","alt":["alfyh","الفيه"],"lon":56.31002,"lat":24.61963,"pop":0},{"id":8511985,"name":"Al Fayḩā’ lil Mawāshī","alt":["Al Fayha' lil Mawashi","Al Feha Sheep Farm","alfyhaʾ llmwashy","الفيحاء للمواشي"],"lon":59.47202,"lat":22.5517,"pop":0},{"id":288364,"name":"Al Fayq","alt":["Fiq","Firaq","Fīq","alfyq","الفيق"],"lon":57.67944,"lat":23.2,"pop":0},{"id":289307,"name":"Al Fayy","alt":["Al Fa'y","Al Fai","Al Fay","Al Fa’y","alfy","الفي"],"lon":56.1669,"lat":24.76221,"pop":0},{"id":11732238,"name":"Al Fayy","alt":["Al Fay","alfy","الفي"],"lon":56.32407,"lat":24.58492,"pop":0},{"id":12027018,"name":"Al Fayy","alt":["Al Fay","alfy","الفي"],"lon":56.05569,"lat":24.02339,"pop":0},{"id":288355,"name":"Al Fayyāḑ","alt":["Al Fayyad","Al Fayyāḍ","Fiyad","Fiyāḑ","alfyad","الفياض"],"lon":58.72839,"lat":23.30858,"pop":0},{"id":288382,"name":"Al Fayyāḑ","alt":["Al Fayyad","Fayyad","Fayyāḑ","alfyad","الفياض"],"lon":56.16067,"lat":24.03517,"pop":0},{"id":11799966,"name":"Al Fayyāḑ","alt":["Al Fayyad","Al Fayyāḍ","alfyad","الفياض"],"lon":56.80321,"lat":23.92124,"pop":0},{"id":11800400,"name":"Al Fijāj","alt":["Al Fijaj","alfjaj","الفجاج"],"lon":56.26854,"lat":24.45804,"pop":0},{"id":288344,"name":"Al Filayj","alt":["Fulayj","alflyj","الفليج"],"lon":59.36151,"lat":22.42833,"pop":0},{"id":288431,"name":"Al Filayj","alt":["Falaj al Harth","Falaj al Hirith","Falaj al Ḩarth","alflyj","الفليج"],"lon":56.77981,"lat":24.07528,"pop":0},{"id":288374,"name":"Al Film","alt":["Fiiam","Filam","Film","alflm","الفلم"],"lon":56.41787,"lat":26.18849,"pop":0},{"id":288367,"name":"Al Fīqayn","alt":["Al Fiqayn","Fiqayn","Fīqayn","alfyqyn","الفيقين"],"lon":57.60757,"lat":22.80242,"pop":0},{"id":390467,"name":"Al Frian","lon":56.41,"lat":26.23167,"pop":0},{"id":288345,"name":"Al Fujayj","alt":["Al Fijayj","Fujayj","alfjyj","الفجيج"],"lon":56.75491,"lat":23.91965,"pop":0},{"id":11800522,"name":"Al Fujayj","alt":["Al Fijayj","alfjyj","الفجيج"],"lon":56.74071,"lat":23.39667,"pop":0},{"id":11784321,"name":"Al Fujayjah","alt":["alfjyjt","الفجيجة"],"lon":56.18642,"lat":23.82447,"pop":0},{"id":288342,"name":"Al Fulayj","alt":["Al Filayj","Falai","Fulayj","Fulayy","alflyj","الفليج"],"lon":57.35919,"lat":22.66366,"pop":0},{"id":288343,"name":"Al Fulayj","alt":["Al Filayj","Fulayj","alflyj","الفليج"],"lon":58.55345,"lat":22.63235,"pop":0},{"id":288437,"name":"Al Fulayj","alt":["Al Filayj","Falaj","Falayj","Washil","Wāshil","alflyj","الفليج"],"lon":58.05844,"lat":22.86196,"pop":0},{"id":289005,"name":"Al Fulayj","alt":["Aflaj","Aflāj","Al Filayj","Asam","alflyj","Āsam","الفليج"],"lon":57.99079,"lat":23.59565,"pop":0},{"id":8026290,"name":"Al Fulayj","alt":["Al Filayj","alflyj","الفليج"],"lon":58.7986,"lat":23.22086,"pop":0},{"id":11732214,"name":"Al Fulayj","alt":["Al Filayj","alflyj","الفليج"],"lon":56.39876,"lat":24.74991,"pop":0},{"id":11732226,"name":"Al Fulayj","alt":["Al Filayj","alflyj","الفليج"],"lon":56.4675,"lat":24.52457,"pop":0},{"id":11785582,"name":"Al Fulayj","alt":["Al Filayj","alflyj","الفليج"],"lon":56.34091,"lat":23.54753,"pop":0},{"id":11845857,"name":"Al Fulayj al Jadīdah","alt":["Al Filayj al Jadidah","Al Filayj al Jadīdah","Al Fulayj al Jadidah","alflyj aljdydt","الفليج الجديدة"],"lon":58.591,"lat":22.66317,"pop":0},{"id":11800031,"name":"Al Furay‘","alt":["Al Furay`","الفريع"],"lon":56.62118,"lat":23.61947,"pop":0},{"id":11802299,"name":"Al Furay‘ah","alt":["Al Firay`ah","Al Firay‘ah","Al Furay`ah","الفريعة"],"lon":57.1048,"lat":23.65973,"pop":0},{"id":11813883,"name":"Al Furaysh","alt":["Al Firaysh","alfrysh","الفريش"],"lon":56.4737,"lat":24.19024,"pop":0},{"id":288405,"name":"Al Furḑah","alt":["Al Fardah","Al Farḍah","Al Furdah","Fardah","Farḑah","alfrdt","الفرضة"],"lon":57.12029,"lat":23.82002,"pop":0},{"id":288335,"name":"Al Furfār","alt":["Al Furfar","Furfar","Furfur","Furfār","alfrfar","الفرفار"],"lon":56.84869,"lat":23.76832,"pop":0},{"id":289310,"name":"Al Furfārah","alt":["Al Farfarah","Al Farfārah","Al Furfarah","alfrfart","الفرفارة"],"lon":58.09012,"lat":23.41251,"pop":0},{"id":411777,"name":"Al Furfārah","alt":["Al Furfarah","Hayl al Farfar","alfrfart","الفرفارة","Ḩayl al Farfār"],"lon":56.19006,"lat":23.84783,"pop":0},{"id":11917307,"name":"Al Futūn","alt":["Al Futun","alftwn","الفتون"],"lon":53.95612,"lat":17.08521,"pop":0},{"id":289305,"name":"Al Ghābah","alt":["Al Ghabah","Ghaba"],"lon":57.33333,"lat":21.5,"pop":0},{"id":412159,"name":"Al Ghābah","alt":["Al Ghaba","Al Ghabah","alghabt","الغابة"],"lon":57.74041,"lat":23.08811,"pop":0},{"id":11806404,"name":"Al Ghābah","alt":["Al Ghabah","alghabt","الغابة"],"lon":57.31065,"lat":23.45999,"pop":0},{"id":11844989,"name":"Al Ghābah","alt":["Al Ghabah","alghabt","الغابة"],"lon":57.06422,"lat":22.27894,"pop":0},{"id":11968194,"name":"Al Ghābah","alt":["Al Ghabah","alghabt","الغابة"],"lon":57.25351,"lat":21.37722,"pop":0},{"id":289304,"name":"Al Ghabbī","alt":["Al Ghabbi","alghby","الغبي"],"lon":58.81298,"lat":22.43725,"pop":0},{"id":411565,"name":"Al Ghabbī","alt":["Al Ghabbi","alghby","الغبّي"],"lon":56.52813,"lat":23.27382,"pop":0},{"id":11763508,"name":"Al Ghabīnah","alt":["Al Ghabinah","alghbynt","الغبينة"],"lon":56.21867,"lat":25.79172,"pop":0},{"id":11800460,"name":"Al Ghaḑfah","alt":["Al Ghadfah","Al Ghaḍfah","alghdft","الغضفة"],"lon":56.45459,"lat":24.41861,"pop":0},{"id":11806432,"name":"Al Ghāḑī","alt":["Al Ghadi","Al Ghāḍī","alghady","الغاضي"],"lon":57.39127,"lat":23.48528,"pop":0},{"id":11844953,"name":"Al Ghadīr","alt":["Al Ghadir","Al Ghidayyir","alghdyr","الغدير"],"lon":58.48145,"lat":22.61042,"pop":0},{"id":11830985,"name":"Al Ghāf","alt":["Al Ghaf","alghaf","الغاف"],"lon":57.29949,"lat":22.97212,"pop":0},{"id":289302,"name":"Al Ghāfāt","alt":["Al Ghafat","Ghafat","alghafat","الغافات"],"lon":57.1479,"lat":22.9869,"pop":0},{"id":11804928,"name":"Al Ghāfāt","alt":["Al Ghafat","alghafat","الغافات"],"lon":57.72842,"lat":23.49552,"pop":0},{"id":11832171,"name":"Al Ghāfatayn","alt":["Al Ghafatayn","Al Ghaftayn","Al Ghāftayn","alghaftyn","الغافتين"],"lon":57.53752,"lat":22.96614,"pop":0},{"id":11968201,"name":"Al Ghāfatayn","alt":["Al Ghafatayn","Al Ghaftayn","Al Ghāftayn","alghaftyn","الغافتين"],"lon":55.5168,"lat":19.61307,"pop":0},{"id":412134,"name":"Al Ghaff","alt":["Al Ghaf","Al Ghuf","alghf","الغف"],"lon":57.77619,"lat":23.15153,"pop":0},{"id":390425,"name":"Al Ghāfūl","alt":["Al Ghaful","Dahful","alghafwl","الغافول"],"lon":56.33447,"lat":26.16525,"pop":0},{"id":11766264,"name":"Al Ghalāyil","alt":["Al Ghalayil","alghlayl","الغلايل"],"lon":55.94782,"lat":24.65636,"pop":0},{"id":412612,"name":"Al Ghalīl","alt":["Al Ghalil","alghlyl","الغليل"],"lon":56.34303,"lat":25.88422,"pop":0},{"id":11802338,"name":"Al Ghalīl","alt":["Al Ghalil","alghlyl","الغليل"],"lon":57.18549,"lat":23.92326,"pop":0},{"id":11832229,"name":"Al Ghalīl","alt":["Al Ghalil","alghlyl","الغليل"],"lon":57.7592,"lat":22.94709,"pop":0},{"id":412203,"name":"Al Ghalīlah","alt":["Al Ghalilah","Al Ghulaylah","alghlylt","الغليلة"],"lon":57.36654,"lat":23.86974,"pop":0},{"id":412282,"name":"Al Ghalīlah","alt":["Al Ghalilah","alghlylt","الغليلة"],"lon":59.44132,"lat":22.60838,"pop":0},{"id":288233,"name":"Al Ghallājī","alt":["Al Ghallaji","Ghulay","Ghulāy","alghlajy","الغلاجي"],"lon":58.66144,"lat":22.64278,"pop":0},{"id":11829802,"name":"Al Ghamghamī","alt":["Al Ghamghami","alghmghmy","الغمغمي"],"lon":58.60735,"lat":23.30518,"pop":0},{"id":11982227,"name":"Al Ghamlūl","alt":["Al Ghamlul","alghmlwl","الغملول"],"lon":59.3551,"lat":22.10669,"pop":0},{"id":288297,"name":"Al Ghamşah","alt":["Al Ghamsah","Al Ghumsah","Al Ghumṣah","Ghamsah","Ghamşah","alghmst","الغمصة"],"lon":58.52366,"lat":22.97925,"pop":0},{"id":11802029,"name":"Al Ghanţal","alt":["Al Ghantal","Al Ghanṭal","alghntl","الغنطل"],"lon":56.82914,"lat":23.24872,"pop":0},{"id":11832178,"name":"Al Ghantaq","alt":["alghntq","الغنتق"],"lon":57.51186,"lat":22.93705,"pop":0},{"id":11832056,"name":"Al Ghār","alt":["Al Ghar","alghar","الغار"],"lon":57.30631,"lat":22.80372,"pop":0},{"id":292100,"name":"Al Gharābīyah","alt":["Al Gharabiyah","Al Ghirabiyyah","Al Ghirābiyyah","Gharbiyah","Gharbīyah","alghrabyt","الغرابيّة"],"lon":56.25831,"lat":25.61886,"pop":0},{"id":412208,"name":"Al Gharbā’","alt":["Al Gharba'","Gharba'","Gharbā’","الغرباء"],"lon":57.01911,"lat":23.75698,"pop":0},{"id":11835410,"name":"Al Gharīb","alt":["Al Gharib","alghryb","الغريب"],"lon":58.24563,"lat":22.58957,"pop":0},{"id":11829783,"name":"Al Gharrāq","alt":["Al Gharraq","alghraq","الغرّاق"],"lon":58.51414,"lat":23.38997,"pop":0},{"id":288277,"name":"Al Gharwah","alt":["Al Ghurwah","Gharwah","alghrwt","الغروة"],"lon":57.2415,"lat":23.59566,"pop":0},{"id":288276,"name":"Al Gharyayn","alt":["Al Ghuryayn","Ghariyan","Gharyan","Gharyān","Gharīyān","alghryyn","الغريين"],"lon":58.01477,"lat":22.88811,"pop":0},{"id":11732206,"name":"Al Ghatal","alt":["alghtl","الغتل"],"lon":56.40488,"lat":24.59597,"pop":0},{"id":11732216,"name":"Al Ghawābī","alt":["Al Ghawabi","alghwaby","الغوابي"],"lon":56.44826,"lat":24.7307,"pop":0},{"id":11804911,"name":"Al Ghawj","alt":["alghwj","الغوج"],"lon":57.59604,"lat":23.32951,"pop":0},{"id":11781358,"name":"Al Ghawnah","alt":["Al Ghunah","Al Ghūnah","alghwnt","الغونة"],"lon":56.52635,"lat":24.6027,"pop":0},{"id":411860,"name":"Al Ghawr","alt":["alghwr","الغور"],"lon":57.32003,"lat":23.22332,"pop":0},{"id":11800569,"name":"Al Ghawr","alt":["alghwr","الغور"],"lon":56.99732,"lat":23.49656,"pop":0},{"id":412052,"name":"Al Ghayl","alt":["alghyl","الغيل"],"lon":57.59348,"lat":23.46025,"pop":0},{"id":11813662,"name":"Al Ghayl","alt":["alghyl","الغيل"],"lon":56.14537,"lat":24.26579,"pop":0},{"id":288261,"name":"Al Ghayyān","alt":["Al Ghayyan","Ghayyan","Ghayyān","alghyan","الغيان"],"lon":58.6132,"lat":23.05241,"pop":0},{"id":289294,"name":"Al Ghayz","alt":["Al Ghuwayz","Al Ghuwiz","Al Ghuwīz","alghyz","الغيز"],"lon":56.77895,"lat":23.76208,"pop":0},{"id":11980595,"name":"Al Ghayz̧arānah","alt":["Al Ghaydharanah","Al Ghaydharānah","Al Ghayzaranah","alghyzrant","الغيظرانة"],"lon":57.90287,"lat":21.79343,"pop":0},{"id":11804346,"name":"Al Ghaz̧āh","alt":["Al Ghazah","Al Ghaẓāh","alghzat","الغظاة"],"lon":57.28816,"lat":23.57652,"pop":0},{"id":11806679,"name":"Al Ghazālīyah","alt":["Al Ghazaliyah","Al Ghazaliyyah","Al Ghazāliyyah","alghzalyt","الغزاليّة"],"lon":57.87516,"lat":23.43947,"pop":0},{"id":11773467,"name":"Al Ghazīrah","alt":["Al Ghazirah","alghzyrt","الغزيرة"],"lon":56.35923,"lat":25.91267,"pop":0},{"id":287604,"name":"Al Ghashab","alt":["Al Ghashub","Khashub","Khashūb","alghshb","الغشب"],"lon":57.42885,"lat":23.41817,"pop":0},{"id":11845524,"name":"Al Ghashbah","alt":["alghshbt","الغشبة"],"lon":58.01715,"lat":22.49825,"pop":0},{"id":288225,"name":"Al Ghashībah","alt":["Al Ghashibah","Al Ghushaybah","Ghursheba","alghshybt","الغشيبة"],"lon":58.11272,"lat":23.68645,"pop":0},{"id":12030945,"name":"Al Ghidayyir","alt":["alghdyr","الغدير"],"lon":56.13853,"lat":24.22734,"pop":0},{"id":11814454,"name":"Al Ghiḑin","alt":["Al Ghidin","Al Ghiḍin","alghdn","الغضن"],"lon":58.26701,"lat":20.59042,"pop":0},{"id":11830950,"name":"Al Ghīlān","alt":["Al Ghilan","alghylan","الغيلان"],"lon":57.05649,"lat":22.91503,"pop":0},{"id":11970746,"name":"Al Ghīnah","alt":["Al Ghinah","alghynt","الغينة"],"lon":59.24014,"lat":21.53813,"pop":0},{"id":409650,"name":"Al Ghīrāy","alt":["Al Ghiray","Al Ghiyaray","Al Ghiyarāy","Qaryat al Firay","Qaryat al Fīrāy","alghyray","الغيراي"],"lon":58.933,"lat":20.54926,"pop":0},{"id":11800456,"name":"Al Ghīwār","alt":["Al Ghiwar","alghywar","الغيوار"],"lon":56.43567,"lat":24.38618,"pop":0},{"id":288221,"name":"Al Ghīzayn","alt":["Al Ghayzan","Al Ghayzān","Al Ghizayn","Ghaidhain","Ghayzayn","Ghazain","Ghuzayn","alghyzyn","الغيزين"],"lon":56.98382,"lat":23.81339,"pop":0},{"id":412199,"name":"Al Ghū","alt":["Al Ghu"],"lon":57.48472,"lat":23.82528,"pop":0},{"id":11773482,"name":"Al Ghuban","alt":["alghbn","الغبن"],"lon":56.39496,"lat":25.95165,"pop":0},{"id":11739058,"name":"Al Ghubayb","alt":["alghbyb","الغبيب"],"lon":56.6842,"lat":24.13298,"pop":0},{"id":11806520,"name":"Al Ghubayrā’","alt":["Al Ghubayra'","الغبيراء"],"lon":57.15573,"lat":23.03293,"pop":0},{"id":12036389,"name":"Al Ghubayrā’","alt":["Al Ghubayra'","الغبيراء"],"lon":58.20671,"lat":23.3408,"pop":0},{"id":288249,"name":"Al Ghubayrah","alt":["Ghubayrah","Ghubirah","Ghubīrah","alghbyrt","الغبيرة"],"lon":58.58252,"lat":23.02886,"pop":0},{"id":288250,"name":"Al Ghubayrah","alt":["Al Ghibayrah","Fulayj","Ghubayrah","alghbyrt","الغبيرة"],"lon":58.02797,"lat":22.80438,"pop":0},{"id":411863,"name":"Al Ghubayrah","alt":["Al Ghabirah","Al Ghabīrah","alghbyrt","الغبيرة"],"lon":57.3736,"lat":23.24621,"pop":0},{"id":11739047,"name":"Al Ghubayrah","alt":["alghbyrt","الغبيرة"],"lon":56.64191,"lat":24.05163,"pop":0},{"id":11739063,"name":"Al Ghubayrah","alt":["alghbyrt","الغبيرة"],"lon":56.68883,"lat":24.04334,"pop":0},{"id":11800523,"name":"Al Ghubayrah","alt":["alghbyrt","الغبيرة"],"lon":56.74872,"lat":23.28815,"pop":0},{"id":11804929,"name":"Al Ghubayrah","alt":["alghbyrt","الغبيرة"],"lon":57.68094,"lat":23.47974,"pop":0},{"id":11844940,"name":"Al Ghubayrah","alt":["alghbyrt","الغبيرة"],"lon":58.32034,"lat":22.70767,"pop":0},{"id":12036402,"name":"Al Ghubayrah","alt":["Al Ghibayrah","alghbyrt","الغبيرة"],"lon":58.86481,"lat":23.0915,"pop":0},{"id":12036415,"name":"Al Ghubayrah","alt":["alghbyrt","الغبيرة"],"lon":58.31459,"lat":23.14085,"pop":0},{"id":12075381,"name":"Al Ghubayrah","alt":["alghbyrt","الغبيرة"],"lon":57.16119,"lat":23.25556,"pop":0},{"id":11845000,"name":"Al Ghubayţah al Janūbīyah","alt":["Al Ghubaytah al Janubiyah","Al Ghubaytah al Janubiyyah","Al Ghubayṭah al Janūbiyyah","alghbytt aljnwbyt","الغبيطة الجنوبية"],"lon":57.31789,"lat":22.46191,"pop":0},{"id":11844999,"name":"Al Ghubayţah ash Shamālīyah","alt":["Al Ghubaytah ash Shamaliyah","Al Ghubaytah ash Shamaliyyah","Al Ghubayṭah ash Shamāliyyah","alghbytt alshmalyt","الغبيطة الشمالية"],"lon":57.3254,"lat":22.49383,"pop":0},