[{"id":12280137,"name":"16 de Diciembre","alt":["Dieciseis de Diciembre","Dieciséis de Diciembre"],"lon":-79.38088,"lat":9.10117,"pop":0},{"id":12280128,"name":"3 de Mayo","alt":["Tres de Mayo"],"lon":-79.40648,"lat":9.08364,"pop":0},{"id":12241946,"name":"7 de Septiembre","alt":["Siete de Septiembre"],"lon":-79.64252,"lat":8.95298,"pop":0},{"id":12280152,"name":"8 de Septiembre","alt":["Ocho de Septiembre"],"lon":-79.40141,"lat":9.11036,"pop":0},{"id":3764196,"name":"Aceite","lon":-78.18103,"lat":7.61791,"pop":0},{"id":3715166,"name":"Acequia de Cochea","lon":-82.41667,"lat":8.58333,"pop":0},{"id":3715165,"name":"Acequias Abajo","lon":-82.45,"lat":8.6,"pop":0},{"id":3715161,"name":"Achiote","lon":-80.01889,"lat":9.22237,"pop":0},{"id":12208493,"name":"Achiote","lon":-81.83521,"lat":8.31456,"pop":0},{"id":3715159,"name":"Achotillal","alt":["Achiotillal"],"lon":-80.94704,"lat":8.52899,"pop":0},{"id":12276597,"name":"Achudup Bipi","alt":["Isla Perro Chico"],"lon":-78.87632,"lat":9.55847,"pop":0},{"id":3715155,"name":"Achudup Dummad","alt":["Achutupo","Achutupo Numero Uno","Achutupo Número Uno","Isla Perro Grande"],"lon":-78.8652,"lat":9.56196,"pop":0},{"id":3715158,"name":"Achuerdup","alt":["Achoertupo","Isla Anzuelo"],"lon":-78.92684,"lat":9.49175,"pop":0},{"id":3715156,"name":"Achutupo","alt":["ACU","Achutupo Numero 2","Achutupo Numero Dos","Achutupo Número 2","Achutupo Número Dos"],"lon":-77.98729,"lat":9.19827,"pop":1753},{"id":3715152,"name":"Aclita","lon":-81.12991,"lat":8.04946,"pop":164},{"id":12290873,"name":"Acuacua","lon":-77.62613,"lat":8.10454,"pop":0},{"id":12261156,"name":"Acuadup","lon":-78.70366,"lat":9.47072,"pop":0},{"id":3715148,"name":"Acuatupu","alt":["Acuatupo","Acuatupo No. 1","Acuatupo Numero Uno","Acuatupo Número Uno","Isla Piedra"],"lon":-78.99852,"lat":9.45597,"pop":0},{"id":12290839,"name":"Adios Mi Pueblo","lon":-77.56401,"lat":8.01363,"pop":0},{"id":12252693,"name":"Aeropuerto de Río Hato","alt":["Aeropuerto de Rio Hato"],"lon":-80.13113,"lat":8.37678,"pop":0},{"id":3715143,"name":"África","alt":["Africa"],"lon":-82.32444,"lat":9.14868,"pop":0},{"id":12226877,"name":"Agoy","lon":-81.7748,"lat":9.00149,"pop":0},{"id":10348677,"name":"Agua Amarilla","lon":-81.19102,"lat":8.28098,"pop":72},{"id":12229738,"name":"Agua Azul","lon":-80.87757,"lat":8.24542,"pop":0},{"id":3715130,"name":"Agua Azules","lon":-80.91667,"lat":7.88333,"pop":0},{"id":3715129,"name":"Agua Bendita","alt":["Auga Bendita"],"lon":-79.61826,"lat":9.16387,"pop":0},{"id":12275589,"name":"Agua Bendita","lon":-78.17496,"lat":8.52946,"pop":0},{"id":3715124,"name":"Agua Blanca","lon":-79.25,"lat":9.06667,"pop":0},{"id":3715127,"name":"Agua Blanca","lon":-81.41562,"lat":7.98113,"pop":6},{"id":10179208,"name":"Agua Blanca","lon":-81.25937,"lat":7.67209,"pop":0},{"id":12229691,"name":"Agua Blanca","lon":-80.81732,"lat":8.23001,"pop":0},{"id":3715125,"name":"Agua Blancas","alt":["Agua Blanca","Aguas Blancas"],"lon":-80.65125,"lat":8.47497,"pop":0},{"id":3715005,"name":"Agua Buena","alt":["Aguas Buenas","Auga Buena"],"lon":-79.60242,"lat":9.12289,"pop":0},{"id":3715109,"name":"Agua Buena","lon":-79.91543,"lat":8.8258,"pop":0},{"id":3715110,"name":"Agua Buena","lon":-79.84078,"lat":8.78081,"pop":0},{"id":3715111,"name":"Agua Buena","lon":-80.39965,"lat":7.83682,"pop":1012},{"id":3715112,"name":"Agua Buena","lon":-80.32334,"lat":7.68495,"pop":0},{"id":3715113,"name":"Agua Buena","lon":-80.2819,"lat":7.58258,"pop":4},{"id":3715114,"name":"Agua Buena","lon":-80.19005,"lat":7.53418,"pop":4},{"id":3715115,"name":"Agua Buena","alt":["Aguas Buenas"],"lon":-80.34372,"lat":7.45726,"pop":0},{"id":10347283,"name":"Agua Buena","lon":-82.87038,"lat":8.30002,"pop":710},{"id":12236989,"name":"Agua Buena","lon":-80.53373,"lat":8.57027,"pop":0},{"id":12269141,"name":"Agua Buena","lon":-78.58796,"lat":8.92977,"pop":0},{"id":12299228,"name":"Agua Buena","lon":-77.89969,"lat":8.30226,"pop":0},{"id":12299433,"name":"Agua Buena","lon":-77.95917,"lat":8.6332,"pop":0},{"id":12275684,"name":"Agua Buena Número Dos","alt":["Agua Buena Numero 2","Agua Buena Numero Dos","Agua Buena Número 2"],"lon":-78.19737,"lat":8.61917,"pop":0},{"id":10181883,"name":"Agua Buena Número Uno","alt":["Agua Buena Numero 1","Agua Buena Numero Uno","Agua Buena Número 1"],"lon":-78.86126,"lat":9.04877,"pop":0},{"id":12275685,"name":"Agua Buena Número Uno","alt":["Agua Buena Numero 1","Agua Buena Numero Uno","Agua Buena Número 1"],"lon":-78.20781,"lat":8.63485,"pop":0},{"id":3715004,"name":"Agua Caliente","alt":["Aguas Calientes"],"lon":-80.61392,"lat":7.44386,"pop":0},{"id":3715094,"name":"Agua Caliente","lon":-80.88333,"lat":8.51667,"pop":0},{"id":12299338,"name":"Agua Caliente","lon":-77.97356,"lat":8.38668,"pop":0},{"id":12281541,"name":"Agua Caliente Arriba","lon":-78.01069,"lat":8.117,"pop":0},{"id":3713623,"name":"Agua Clara","lon":-81.30028,"lat":7.94984,"pop":0},{"id":12245771,"name":"Agua Clara","alt":["Jumani"],"lon":-81.50451,"lat":8.56101,"pop":0},{"id":12299222,"name":"Agua Clara","lon":-77.92512,"lat":8.32529,"pop":0},{"id":12275636,"name":"Agua Clara Abajo","lon":-78.24042,"lat":8.66234,"pop":0},{"id":12275644,"name":"Agua Clara Arriba","lon":-78.21796,"lat":8.66447,"pop":0},{"id":12250250,"name":"Agua Clara Número Dos","alt":["Agua Clara Numero 2","Agua Clara Numero Dos","Agua Clara Número 2"],"lon":-79.76172,"lat":9.32528,"pop":0},{"id":3715049,"name":"Agua de Salud","lon":-81.47423,"lat":8.5105,"pop":0},{"id":3715032,"name":"Agua Fresca","alt":["Agua Fria","Agua Fría"],"lon":-80.80734,"lat":7.40263,"pop":0},{"id":3715029,"name":"Agua Fría","alt":["Agua Fria"],"lon":-80.47306,"lat":8.66684,"pop":262},{"id":3715030,"name":"Agua Fría","alt":["Agua Fria","Aguas Frias"],"lon":-80.34269,"lat":8.42244,"pop":0},{"id":3715031,"name":"Agua Fría","alt":["Agua Fria"],"lon":-81.34489,"lat":7.8858,"pop":0},{"id":12186446,"name":"Agua Fría","alt":["Agua Fria"],"lon":-82.78256,"lat":8.59886,"pop":0},{"id":12211899,"name":"Agua Fría","alt":["Agua Fria"],"lon":-81.02849,"lat":8.24511,"pop":0},{"id":12228717,"name":"Agua Fría","alt":["Agua Fria"],"lon":-80.93561,"lat":8.48084,"pop":0},{"id":12269643,"name":"Agua Fría de Ipetí","alt":["Agua Fria","Agua Fria de Ipeti","Agua Fría"],"lon":-78.49397,"lat":8.93503,"pop":0},{"id":10194277,"name":"Agua Fría Número Dos","alt":["Agua Fria Numero 2","Agua Fria Numero Dos","Agua Fría Número 2"],"lon":-78.18955,"lat":8.82386,"pop":0},{"id":10194898,"name":"Agua Fría Número Uno","alt":["Agua Fria Numero 1","Agua Fria Numero Uno","Agua Fría Número 1"],"lon":-78.19776,"lat":8.85957,"pop":0},{"id":3715023,"name":"Agua Mina","lon":-79.91074,"lat":8.54808,"pop":0},{"id":12275968,"name":"Agua Muerta","lon":-79.42869,"lat":9.57276,"pop":0},{"id":3715016,"name":"Agua Rica","lon":-79.83109,"lat":8.79469,"pop":0},{"id":3715014,"name":"Agua Salud","lon":-81.48624,"lat":8.45749,"pop":0},{"id":12199397,"name":"Agua Salud","lon":-82.80599,"lat":9.51098,"pop":0},{"id":12218696,"name":"Agua Salud","lon":-81.65323,"lat":8.53073,"pop":0},{"id":3714999,"name":"Agua Sucia","alt":["Rio Agua Sucia","Río Agua Sucia"],"lon":-79.75242,"lat":9.26629,"pop":0},{"id":3714995,"name":"Agua Viva","lon":-81.29163,"lat":8.21671,"pop":40},{"id":12275708,"name":"Agua Viva","lon":-78.0309,"lat":8.40718,"pop":0},{"id":12208665,"name":"Agua Viva Número Dos","alt":["Agua Viva Numero 2","Agua Viva Numero Dos","Agua Viva Número 2"],"lon":-81.22455,"lat":8.33038,"pop":0},{"id":3712089,"name":"Agua Viva Número Uno","alt":["Agua Viva","Agua Viva Numero 1","Agua Viva Numero Uno","Agua Viva Número 1","Coibita"],"lon":-81.19369,"lat":8.31767,"pop":0},{"id":3715080,"name":"Aguacatal","alt":["Aguacate"],"lon":-82.5846,"lat":8.80168,"pop":0},{"id":3715084,"name":"Aguacatal","lon":-81.01158,"lat":7.81432,"pop":0},{"id":3715088,"name":"Aguacatal","alt":["Canta Rana"],"lon":-82.45559,"lat":8.4667,"pop":856},{"id":3715089,"name":"Aguacatal","lon":-80.95881,"lat":8.32452,"pop":0},{"id":3715090,"name":"Aguacatal","lon":-81.12241,"lat":8.29385,"pop":0},{"id":12194348,"name":"Aguacatal","lon":-82.24568,"lat":8.52858,"pop":0},{"id":12208524,"name":"Aguacatal","lon":-81.94022,"lat":8.33022,"pop":0},{"id":12228813,"name":"Aguacatal","lon":-80.81096,"lat":8.40234,"pop":0},{"id":12282912,"name":"Aguacatal","lon":-78.23072,"lat":7.96559,"pop":0},{"id":3711540,"name":"Aguacate","alt":["El Aguacate"],"lon":-82.54534,"lat":8.63068,"pop":0},{"id":3715077,"name":"Aguacate","lon":-82.21171,"lat":9.17076,"pop":36},{"id":3715081,"name":"Aguacate","lon":-80.09554,"lat":8.52351,"pop":0},{"id":3715083,"name":"Aguacate","lon":-80.66914,"lat":7.7936,"pop":86},{"id":12209485,"name":"Aguacate","lon":-80.43568,"lat":9.12676,"pop":0},{"id":12223625,"name":"Aguacate","lon":-81.31375,"lat":8.78325,"pop":0},{"id":3711536,"name":"Aguacate Arriba","alt":["El Aguacate Numero Uno","El Aguacate Número Uno"],"lon":-79.97035,"lat":8.75034,"pop":167},{"id":12223637,"name":"Aguacate Arriba","lon":-81.31676,"lat":8.76821,"pop":0},{"id":12224890,"name":"Aguacate Número Dos","alt":["Aguacate Numero 2","Aguacate Numero Dos","Aguacate Número 2"],"lon":-81.22672,"lat":8.76501,"pop":0},{"id":3715058,"name":"Aguacatillo","lon":-80.08333,"lat":8.48333,"pop":0},{"id":3715059,"name":"Aguacatillo","lon":-81.46738,"lat":8.35089,"pop":0},{"id":12185956,"name":"Aguacatillo","lon":-82.00624,"lat":8.48316,"pop":0},{"id":12208667,"name":"Aguacatillo","lon":-81.17966,"lat":8.32886,"pop":0},{"id":12180587,"name":"Aguacatón","alt":["Aguacaton"],"lon":-82.80246,"lat":8.3543,"pop":0},{"id":3715046,"name":"Aguadilla","lon":-78.11838,"lat":8.46497,"pop":0},{"id":12269510,"name":"Aguadilla","lon":-78.63669,"lat":8.70848,"pop":0},{"id":3708201,"name":"Aguadillita","alt":["La Aguadillita"],"lon":-78.11009,"lat":8.45135,"pop":0},{"id":3715040,"name":"Aguadulce","lon":-82.46376,"lat":9.28217,"pop":0},{"id":3715041,"name":"Aguadulce","lon":-80.05869,"lat":8.40365,"pop":0},{"id":3715042,"name":"Aguadulce","lon":-80.53978,"lat":8.24146,"pop":8501},{"id":12215756,"name":"Aguamasa","lon":-80.51129,"lat":7.97328,"pop":0},{"id":3715010,"name":"Aguas Azules","alt":["Agua Azules"],"lon":-80.92774,"lat":7.88908,"pop":0},{"id":3715011,"name":"Aguas Azules","alt":["Agua Azules"],"lon":-80.51667,"lat":7.41667,"pop":0},{"id":12261294,"name":"Aguas Azules","lon":-78.62518,"lat":9.02555,"pop":0},{"id":3715008,"name":"Aguas Blancas","lon":-80.3079,"lat":8.50704,"pop":1053},{"id":3715126,"name":"Aguas Blancas","alt":["Agua Blanca"],"lon":-80.73893,"lat":8.32606,"pop":0},{"id":12202695,"name":"Aguas Blancas","lon":-82.40031,"lat":8.73373,"pop":0},{"id":12210220,"name":"Aguas Blancas","lon":-80.38458,"lat":8.67397,"pop":0},{"id":3715000,"name":"Aguas Claras","lon":-79.73333,"lat":9.35,"pop":0},{"id":3715001,"name":"Aguas Claras","alt":["Agua Clara"],"lon":-79.68427,"lat":9.18383,"pop":0},{"id":3715002,"name":"Aguas Claras","lon":-80.38137,"lat":8.66531,"pop":132},{"id":3715055,"name":"Aguas Claras","alt":["Agua Clara"],"lon":-79.77689,"lat":9.29646,"pop":0},{"id":12204743,"name":"Aguas Claras","lon":-80.5089,"lat":7.51653,"pop":0},{"id":12271083,"name":"Aguas Claras","lon":-78.24196,"lat":8.68177,"pop":0},{"id":12230018,"name":"Aguas Limpias","lon":-80.88116,"lat":8.08755,"pop":0},{"id":12204831,"name":"Aguas Tibias","lon":-80.61558,"lat":7.40811,"pop":0},{"id":12192445,"name":"Águila","alt":["Aguila"],"lon":-81.87917,"lat":8.49917,"pop":0},{"id":12252744,"name":"Águila Arriba","alt":["Aguila Arriba"],"lon":-80.21225,"lat":8.60623,"pop":0},{"id":12256047,"name":"Ahoga Pollo","lon":-79.80576,"lat":8.87584,"pop":0},{"id":3714966,"name":"Ahoga Yegua","lon":-79.7476,"lat":8.96793,"pop":0},{"id":12209959,"name":"Ahogada de Las Yucas","lon":-80.43559,"lat":8.86236,"pop":0},{"id":3714960,"name":"Aidirgandí","alt":["Aidirgandi","Airdirgandi","Airdirgandí","Culebra","Piedra de Amolar"],"lon":-78.37659,"lat":9.36582,"pop":0},{"id":3714956,"name":"Ailigandí","alt":["AIL","Ailigandi","Ailingandi","Ailingandí"],"lon":-78.02778,"lat":9.2281,"pop":1652},{"id":12192466,"name":"Ají","alt":["Aji"],"lon":-81.93206,"lat":8.40397,"pop":0},{"id":10182359,"name":"Akua Yala","alt":["Akuayala","Puente Bayano"],"lon":-78.79938,"lat":9.17008,"pop":0},{"id":12250201,"name":"Al Otro Lado","lon":-79.66656,"lat":9.561,"pop":0},{"id":3714940,"name":"Alambique","lon":-82.0854,"lat":8.36489,"pop":79},{"id":3714939,"name":"Alanje","lon":-82.55873,"lat":8.39997,"pop":1373},{"id":3714934,"name":"Albrook","lon":-79.5587,"lat":8.97787,"pop":0},{"id":3714932,"name":"Alcalde Díaz","alt":["Alcalde Diaz","Alcaldediaz","Alcaldedíaz","Penoncito","Peñoncito"],"lon":-79.55667,"lat":9.12273,"pop":20285},{"id":12245823,"name":"Alcalde Díaz Rural","alt":["Alcalde Diaz Rural"],"lon":-79.55993,"lat":9.13641,"pop":0},{"id":10182377,"name":"Alcatriz","lon":-78.57355,"lat":9.00186,"pop":65},{"id":12275564,"name":"Alcazar Dos","alt":["Alcazar 2"],"lon":-79.41823,"lat":9.21665,"pop":0},{"id":12275563,"name":"Alcazar Uno","alt":["Alcazar 1"],"lon":-79.40963,"lat":9.22106,"pop":0},{"id":12281538,"name":"Aldea Emberá","alt":["Aldea Embera"],"lon":-78.01924,"lat":8.1147,"pop":0},{"id":12258777,"name":"Alfagia","lon":-80.12801,"lat":9.13888,"pop":0},{"id":3714924,"name":"Alfagía","alt":["Alfagia","Alfajia","Alfajía"],"lon":-79.77699,"lat":9.24067,"pop":0},{"id":3714919,"name":"Algarrobal","lon":-80.46937,"lat":8.65778,"pop":0},{"id":3714920,"name":"Algarrobal","lon":-82.2553,"lat":8.5411,"pop":0},{"id":3711523,"name":"Algarrobo","alt":["El Algarrobo"],"lon":-80.0266,"lat":8.52711,"pop":0},{"id":3714914,"name":"Algarrobo","lon":-79.89404,"lat":8.59918,"pop":0},{"id":3714915,"name":"Algarrobo","lon":-81.77917,"lat":8.47129,"pop":0},{"id":3714917,"name":"Algarrobo","alt":["Alto Algarrobo"],"lon":-81.54778,"lat":8.33289,"pop":0},{"id":12210278,"name":"Alica","alt":["Alicia"],"lon":-80.38302,"lat":8.73528,"pop":0},{"id":12299250,"name":"Aligandí","alt":["Aligandi"],"lon":-77.77751,"lat":8.20435,"pop":0},{"id":3714895,"name":"Almirante","lon":-79.60294,"lat":9.54929,"pop":0},{"id":3714896,"name":"Almirante","lon":-82.4018,"lat":9.30091,"pop":8744},{"id":12210202,"name":"Almorzadero","lon":-80.46926,"lat":8.68129,"pop":0},{"id":12246023,"name":"Alta Vista","lon":-79.50268,"lat":9.06105,"pop":0},{"id":3714885,"name":"Altamira","lon":-79.46104,"lat":9.06695,"pop":0},{"id":10347241,"name":"Altamira","lon":-82.8647,"lat":8.79426,"pop":462},{"id":11398388,"name":"Altamira","alt":["Mata Palo"],"lon":-80.03546,"lat":8.72779,"pop":0},{"id":12229865,"name":"Altamira","lon":-80.71417,"lat":8.22171,"pop":0},{"id":12229954,"name":"Altamira","lon":-80.54579,"lat":8.21764,"pop":0},{"id":12249919,"name":"Altamira","lon":-79.72603,"lat":9.22757,"pop":0},{"id":12219374,"name":"Alto Aguacate","lon":-81.67618,"lat":8.49891,"pop":0},{"id":12220502,"name":"Alto Aji","lon":-81.59378,"lat":8.37731,"pop":0},{"id":12192372,"name":"Alto Algarrobo","lon":-81.97608,"lat":8.34809,"pop":0},{"id":12226703,"name":"Alto Algarrobo","lon":-81.61403,"lat":8.40796,"pop":0},{"id":12192285,"name":"Alto Amarillo","lon":-81.79742,"lat":8.39845,"pop":0},{"id":3714865,"name":"Alto Ambrosio","alt":["Alto de Ambrosio"],"lon":-80.89805,"lat":7.72724,"pop":0},{"id":12220319,"name":"Alto Arena","lon":-81.59467,"lat":8.37937,"pop":0},{"id":12220355,"name":"Alto Arena","lon":-81.64064,"lat":8.38801,"pop":0},{"id":12192304,"name":"Alto Arriera","lon":-81.80578,"lat":8.46697,"pop":0},{"id":10347512,"name":"Alto Balsa","lon":-81.52116,"lat":8.53656,"pop":0},{"id":12245791,"name":"Alto Baño","alt":["Alto Bano"],"lon":-81.59146,"lat":8.55457,"pop":0},{"id":12227024,"name":"Alto Bilingüe","alt":["Alto Bilingue"],"lon":-81.23457,"lat":8.60039,"pop":0},{"id":3714877,"name":"Alto Bonito","alt":["Llano Bonito"],"lon":-79.71667,"lat":9,"pop":0},{"id":3714878,"name":"Alto Bonito","alt":["Llano Bonito"],"lon":-80.64616,"lat":8.45871,"pop":0},{"id":10347398,"name":"Alto Bonito","lon":-82.058,"lat":8.47828,"pop":0},{"id":12194323,"name":"Alto Bonito","lon":-82.19617,"lat":8.50781,"pop":0},{"id":12202426,"name":"Alto Bonito","lon":-82.74783,"lat":8.71365,"pop":0},{"id":3707466,"name":"Alto Boquete","alt":["Laja Mina"],"lon":-81.44463,"lat":7.87149,"pop":0},{"id":3714875,"name":"Alto Boquete","lon":-82.43331,"lat":8.73615,"pop":4746},{"id":3714874,"name":"Alto Boró","alt":["Alto Boro"],"lon":-81.33491,"lat":8.18997,"pop":0},{"id":12186451,"name":"Alto Brujo","lon":-82.828,"lat":8.61927,"pop":0},{"id":3714873,"name":"Alto Caballero","lon":-81.67511,"lat":8.29324,"pop":0},{"id":12221595,"name":"Alto Cabuya","lon":-81.58293,"lat":8.49915,"pop":0},{"id":10347408,"name":"Alto Camarón","alt":["Alto Camaron"],"lon":-81.94637,"lat":8.36738,"pop":0},{"id":12186465,"name":"Alto Campos","lon":-82.82912,"lat":8.63363,"pop":0},{"id":3714871,"name":"Alto Caña","alt":["Alto Cana"],"lon":-81.78594,"lat":8.43362,"pop":0},{"id":12194297,"name":"Alto Caña","alt":["Alto Cana"],"lon":-82.1305,"lat":8.51173,"pop":0},{"id":12199243,"name":"Alto Caña","alt":["Alto Cana"],"lon":-82.38437,"lat":9.18476,"pop":0},{"id":12218700,"name":"Alto Caña","alt":["Alto Cana"],"lon":-81.72435,"lat":8.52519,"pop":0},{"id":12221788,"name":"Alto Caña","alt":["Alto Cana"],"lon":-81.39031,"lat":8.52362,"pop":0},{"id":12208521,"name":"Alto Cañazas","alt":["Alto Canazas"],"lon":-81.75915,"lat":8.3167,"pop":0},{"id":12194452,"name":"Alto Caño","alt":["Alto Cano"],"lon":-82.11813,"lat":8.51022,"pop":0},{"id":12219454,"name":"Alto Capacho","lon":-81.6548,"lat":8.47146,"pop":0},{"id":3714870,"name":"Alto Cedro","lon":-81.69884,"lat":8.39012,"pop":110},{"id":3712668,"name":"Alto Cerrón","alt":["Alto Cerron","Cerron","Cerrón"],"lon":-82.86514,"lat":8.76275,"pop":0},{"id":12202561,"name":"Alto Chiquero","lon":-82.4934,"lat":8.84597,"pop":0},{"id":10347250,"name":"Alto Chiriquí Viejo","alt":["Alto Chiriqui Viejo","Alto de Chiriqui Viejo","Alto de Chiriquí Viejo"],"lon":-82.77995,"lat":8.58516,"pop":0},{"id":12192406,"name":"Alto Chombo","lon":-81.89319,"lat":8.38779,"pop":0},{"id":12224733,"name":"Alto Chonte","lon":-81.38896,"lat":8.73214,"pop":0},{"id":12186078,"name":"Alto Chumico","lon":-82.11647,"lat":8.35295,"pop":0},{"id":3714869,"name":"Alto Ciénaga","alt":["Alto Cienaga"],"lon":-81.64416,"lat":8.45261,"pop":0},{"id":12219373,"name":"Alto Ciénaga Mono","alt":["Alto Cienaga Mono"],"lon":-81.68237,"lat":8.49542,"pop":0},{"id":12220247,"name":"Alto Cobre","lon":-81.59109,"lat":8.43131,"pop":0},{"id":12194305,"name":"Alto Coco","lon":-82.1422,"lat":8.55836,"pop":0},{"id":3714868,"name":"Alto Conejo","lon":-81.61589,"lat":8.45462,"pop":166},{"id":3714831,"name":"Alto Coral","alt":["Alto del Coral"],"lon":-80.90127,"lat":8.50542,"pop":0},{"id":3714867,"name":"Alto Corotú","alt":["Alto Corotu","Alto del Corotu","Alto del Corotú"],"lon":-82.31565,"lat":8.57339,"pop":0},{"id":3711880,"name":"Alto Corrales","alt":["Corrales","Corrales de Barro Blanco"],"lon":-82.18919,"lat":8.42705,"pop":0},{"id":3714866,"name":"Alto Corrales","lon":-82.18333,"lat":8.4,"pop":0},{"id":12192286,"name":"Alto Cruz","lon":-81.79111,"lat":8.4023,"pop":0},{"id":12220332,"name":"Alto Cruz","lon":-81.57363,"lat":8.37406,"pop":0},{"id":12224914,"name":"Alto Cuay","lon":-81.2183,"lat":8.69236,"pop":0},{"id":12218697,"name":"Alto Culebra","lon":-81.65558,"lat":8.53721,"pop":0},{"id":12221544,"name":"Alto de Ana Blanca","lon":-81.51761,"lat":8.78594,"pop":0},{"id":3711510,"name":"Alto de Balbuena","alt":["El Alto","El Alto de Balbuena"],"lon":-80.89172,"lat":8.02033,"pop":0},{"id":12221780,"name":"Alto de Batata","lon":-81.44239,"lat":8.52636,"pop":0},{"id":12215147,"name":"Alto de Bubí","alt":["Alto de Bubi"],"lon":-81.44319,"lat":7.90039,"pop":0},{"id":12259743,"name":"Alto de Buena Vista","lon":-80.23232,"lat":8.90175,"pop":0},{"id":3714772,"name":"Alto de Campana","alt":["Altos de Campana"],"lon":-79.87988,"lat":8.71363,"pop":0},{"id":3714864,"name":"Alto de Cañazas","lon":-80.25,"lat":8.8,"pop":0},{"id":3711513,"name":"Alto de Capira","alt":["El Alto","El Alto de Capira"],"lon":-79.88313,"lat":8.73653,"pop":585},{"id":3714863,"name":"Alto de Catecito","lon":-81.42353,"lat":7.90802,"pop":0},{"id":10348011,"name":"Alto de Cerro Viejo","lon":-81.59873,"lat":8.25244,"pop":0},{"id":12211209,"name":"Alto de Chumical","lon":-81.40346,"lat":8.27193,"pop":0},{"id":12255620,"name":"Alto de Cirí","alt":["Alto de Ciri"],"lon":-80.04225,"lat":8.75701,"pop":0},{"id":3714861,"name":"Alto de Colorado","lon":-82.69715,"lat":8.85054,"pop":0},{"id":3714860,"name":"Alto de Cruz","lon":-80.91667,"lat":7.75,"pop":0},{"id":3714859,"name":"Alto de Cubilla","lon":-81.87305,"lat":8.39094,"pop":0},{"id":12230001,"name":"Alto de Cuvíbora","alt":["Alto de Cuvibora"],"lon":-80.95395,"lat":8.11611,"pop":0},{"id":3714795,"name":"Alto de Divalá","alt":["Alto Divala","Alto Divalá","Alto de Divala"],"lon":-82.69854,"lat":8.47295,"pop":0},{"id":12196373,"name":"Alto de Dos Caños","alt":["Alto de Dos Canos","Altos de Dos Canos","Altos de Dos Caños"],"lon":-82.77092,"lat":9.55152,"pop":0},{"id":3711509,"name":"Alto de Escárrea","alt":["Alto de Escarrea","El Alto de Escarrea","El Alto de Escárrea"],"lon":-82.6613,"lat":8.52179,"pop":0},{"id":3714828,"name":"Alto de Gallo","alt":["Alto del Gallo"],"lon":-80.0885,"lat":8.54473,"pop":0},{"id":3714857,"name":"Alto de Gariché","lon":-82.74672,"lat":8.52993,"pop":146},{"id":12247913,"name":"Alto de Gloria Número Dos","alt":["Alto de Gloria Numero 2","Alto de Gloria Numero Dos","Alto de Gloria Número 2"],"lon":-79.66859,"lat":9.25073,"pop":0},{"id":12202486,"name":"Alto de Guadalupe","lon":-82.55005,"lat":8.87552,"pop":0},{"id":3714856,"name":"Alto de Jacú","alt":["Alto de Jacu"],"lon":-82.73524,"lat":8.62235,"pop":106},{"id":12247929,"name":"Alto de Jalisco","lon":-79.60331,"lat":9.17204,"pop":0},{"id":10348753,"name":"Alto de Jesús","alt":["Alto de Jesus"],"lon":-81.48412,"lat":8.26152,"pop":361},{"id":12211840,"name":"Alto de Jobo","lon":-81.25059,"lat":8.24921,"pop":0},{"id":12229599,"name":"Alto de Jorón","alt":["Alto de Joron"],"lon":-80.85159,"lat":8.21067,"pop":0},{"id":12236879,"name":"Alto de Jorones","lon":-80.53642,"lat":8.62102,"pop":0},{"id":3714855,"name":"Alto de Julián","lon":-80.76622,"lat":7.68117,"pop":0},{"id":3714854,"name":"Alto de la Arena","lon":-81.59374,"lat":8.10586,"pop":22},{"id":3714853,"name":"Alto de La Arena","alt":["Alto La Arena"],"lon":-81.63531,"lat":8.25502,"pop":0},{"id":12245575,"name":"Alto de La Calzada","lon":-79.53683,"lat":9.12403,"pop":0},{"id":12209386,"name":"Alto de La Chasla","lon":-80.25874,"lat":9.02435,"pop":0},{"id":12230002,"name":"Alto de La Colina","lon":-80.9487,"lat":8.10996,"pop":0},{"id":12211167,"name":"Alto de La Concepción","alt":["Alto de La Concepcion"],"lon":-81.33188,"lat":8.2823,"pop":0},{"id":3714852,"name":"Alto de la Corocita","alt":["La Corocita"],"lon":-81.43966,"lat":7.86195,"pop":0},{"id":3714850,"name":"Alto de La Cruz","lon":-81.50158,"lat":8.18297,"pop":0},{"id":3714851,"name":"Alto de La Cruz","alt":["Alto de Cruz"],"lon":-80.89623,"lat":7.75604,"pop":0},{"id":10179836,"name":"Alto de La Cruz","lon":-79.72267,"lat":9.4744,"pop":0},{"id":12224954,"name":"Alto de La Cruz","lon":-81.34177,"lat":8.12486,"pop":0},{"id":12227085,"name":"Alto de La Cruz","lon":-81.04229,"lat":8.50453,"pop":0},{"id":12236751,"name":"Alto de La Cruz","lon":-80.5734,"lat":8.79903,"pop":0},{"id":3764338,"name":"Alto de La Encantada","lon":-80.11114,"lat":8.96908,"pop":0},{"id":3714849,"name":"Alto de La Estancia","alt":["Cabecera de Sofre"],"lon":-80.17643,"lat":8.59234,"pop":1081},{"id":3714848,"name":"Alto de La Gloria","alt":["La Gloria"],"lon":-80.69856,"lat":7.6189,"pop":0},{"id":12224930,"name":"Alto de La Honda","lon":-81.19977,"lat":8.74201,"pop":0},{"id":12229610,"name":"Alto de La Juanita","lon":-80.82427,"lat":8.29256,"pop":0},{"id":12211238,"name":"Alto de La Laguna","lon":-81.5604,"lat":8.15513,"pop":0},{"id":10348485,"name":"Alto de La Mesa","lon":-80.1182,"lat":8.63383,"pop":215},{"id":3714435,"name":"Alto de La Mesita","alt":["Bajo de La Mesita"],"lon":-81.52229,"lat":8.14393,"pop":0},{"id":3707177,"name":"Alto de La Mina","lon":-81.57768,"lat":8.12888,"pop":0},{"id":12231509,"name":"Alto de La Mina","lon":-80.8876,"lat":8.02349,"pop":0},{"id":3714842,"name":"Alto de la Montaña","lon":-81.23067,"lat":8.14639,"pop":1},{"id":3714841,"name":"Alto de La Palma","lon":-81.36743,"lat":8.24499,"pop":0},{"id":12199787,"name":"Alto de La Palma","lon":-81.50271,"lat":7.82056,"pop":0},{"id":12211171,"name":"Alto de La Pavona","lon":-81.35445,"lat":8.25274,"pop":0},{"id":12258797,"name":"Alto de La Paz","lon":-79.88275,"lat":8.59064,"pop":0},{"id":12215140,"name":"Alto de La Pita","lon":-81.23765,"lat":7.9086,"pop":0},{"id":12215201,"name":"Alto de La Pita","lon":-81.27331,"lat":7.90906,"pop":0},{"id":3714840,"name":"Alto de la Playa","lon":-82.61939,"lat":8.35202,"pop":0},{"id":3706810,"name":"Alto de La Poma","alt":["La Poma"],"lon":-80.04185,"lat":8.55328,"pop":0},{"id":3714839,"name":"Alto de La Quebrada Manuel","lon":-80.16034,"lat":7.45227,"pop":0},{"id":12229570,"name":"Alto de La Rivera","lon":-80.84373,"lat":8.29467,"pop":0},{"id":3714838,"name":"Alto de La Rosa","lon":-80.10259,"lat":8.44046,"pop":0},{"id":12219575,"name":"Alto de La Yegua","lon":-81.42663,"lat":8.13067,"pop":0},{"id":12232208,"name":"Alto de La Yegua","lon":-80.97067,"lat":7.703,"pop":0},{"id":12280302,"name":"Alto de Las Acacias","lon":-79.42051,"lat":9.0504,"pop":0},{"id":3714837,"name":"Alto de Las Huacas","lon":-81.51848,"lat":8.17164,"pop":93},{"id":12259375,"name":"Alto de Las Huellas","lon":-80.22481,"lat":8.99134,"pop":0},{"id":3714835,"name":"Alto de Las Mejías","alt":["Alto de Las Mejias","Alto de los Mejias","Alto de los Mejías"],"lon":-81.44236,"lat":8.12292,"pop":0},{"id":12194281,"name":"Alto de Las Minas","lon":-82.21589,"lat":8.66512,"pop":0},{"id":12241247,"name":"Alto de Las Minas","lon":-81.20953,"lat":8.40111,"pop":0},{"id":12245842,"name":"Alto de Las Nubes","lon":-79.55958,"lat":9.085,"pop":0},{"id":12229611,"name":"Alto de Las Palmas","lon":-80.82031,"lat":8.29443,"pop":0},{"id":3714834,"name":"Alto de las Yeguas","lon":-81.44012,"lat":7.92645,"pop":0},{"id":12230635,"name":"Alto de Los Bala","lon":-80.93251,"lat":8.06518,"pop":0},{"id":12230014,"name":"Alto de Los Duendes","lon":-80.90147,"lat":8.13287,"pop":0},{"id":12211164,"name":"Alto de Los Garcías","alt":["Alto de Los Garcias"],"lon":-81.26478,"lat":8.2993,"pop":0},{"id":12216013,"name":"Alto de Los González","alt":["Alto de Los Gonzalez"],"lon":-81.01994,"lat":8.10647,"pop":0},{"id":12227070,"name":"Alto de Los González","alt":["Alto de Los Gonzalez"],"lon":-81.07311,"lat":8.54477,"pop":0},{"id":12231659,"name":"Alto de Los Gringos","lon":-80.81397,"lat":7.8637,"pop":0},{"id":3714813,"name":"Alto de los Machos","lon":-81.69335,"lat":8.30828,"pop":0},{"id":12214665,"name":"Alto de Los Machos","lon":-81.4538,"lat":7.76747,"pop":0},{"id":3714812,"name":"Alto de los Monos","lon":-81.43333,"lat":7.96667,"pop":0},{"id":12231630,"name":"Alto de Los Montenegros","lon":-80.88653,"lat":7.83417,"pop":0},{"id":3714811,"name":"Alto de Los Negros","lon":-81.51799,"lat":8.36259,"pop":0},{"id":12212005,"name":"Alto de Los Olivos","lon":-80.77281,"lat":7.4463,"pop":0},{"id":10348674,"name":"Alto de Los Pajaritos","alt":["Los Pajaritos"],"lon":-81.20149,"lat":8.3947,"pop":0},{"id":12219609,"name":"Alto de Los Pérez","alt":["Alto de Los Perez"],"lon":-81.32247,"lat":8.15952,"pop":0},{"id":12227075,"name":"Alto de Los Pinedas","lon":-81.07617,"lat":8.53683,"pop":0},{"id":12252777,"name":"Alto de Los Pinos","lon":-80.0468,"lat":8.57986,"pop":0},{"id":12219876,"name":"Alto de Los Rosales","lon":-80.40608,"lat":7.94028,"pop":0},{"id":3714810,"name":"Alto de Los Ruices","lon":-81.46886,"lat":8.21877,"pop":71},{"id":3704968,"name":"Alto de Los Sánchez","alt":["Alto de Los Sanchez","Los Sanchez","Los Sánchez"],"lon":-81.2177,"lat":8.24755,"pop":0},{"id":12236587,"name":"Alto de Los Yangüez","alt":["Alto de Los Yanguez"],"lon":-80.56878,"lat":9.02594,"pop":0},{"id":12194437,"name":"Alto de Mango","lon":-82.07184,"lat":8.54968,"pop":0},{"id":3714804,"name":"Alto de Méjico","alt":["Alto de Mejico"],"lon":-81.43153,"lat":7.90442,"pop":0},{"id":3714803,"name":"Alto de Monte Lirio","alt":["San Antonio"],"lon":-82.78333,"lat":8.8,"pop":0},{"id":12220217,"name":"Alto de Naranjo","lon":-81.51981,"lat":8.23313,"pop":0},{"id":12241906,"name":"Alto de Nuevo Arraiján","alt":["Alto de Nuevo Arraijan"],"lon":-79.71765,"lat":8.93399,"pop":0},{"id":3714802,"name":"Alto de Palo Verde","lon":-81.41784,"lat":8.40801,"pop":0},{"id":3714801,"name":"Alto de Panamá","alt":["Alto Panama","Alto Panamá","Alto de Panama"],"lon":-81.65317,"lat":8.12626,"pop":0},{"id":12227058,"name":"Alto de Piedra","lon":-81.11467,"lat":8.51353,"pop":0},{"id":3712016,"name":"Alto de Quebrada Conga","alt":["Alto de Conga","Quebrada Conga"],"lon":-81.55176,"lat":8.09732,"pop":0},{"id":3714800,"name":"Alto de Quebrada Piedra","lon":-80.95157,"lat":7.7576,"pop":0},{"id":12252807,"name":"Alto de Río Antón","alt":["Alto de Rio Anton"],"lon":-80.21476,"lat":8.51009,"pop":0},{"id":12252750,"name":"Alto de Río de Jesús","alt":["Alto de Rio de Jesus"],"lon":-80.16293,"lat":8.58568,"pop":0},{"id":3714798,"name":"Alto de San Juanito","lon":-81.34639,"lat":7.84722,"pop":0},{"id":12202340,"name":"Alto de Sori","lon":-82.55075,"lat":9.33799,"pop":0},{"id":12209665,"name":"Alto de Tierra Buena","lon":-80.27813,"lat":8.95796,"pop":0},{"id":12219553,"name":"Alto de Tobálico","alt":["Alto de Tobalico"],"lon":-81.32433,"lat":8.01976,"pop":0},{"id":12227159,"name":"Alto de Tobálico","alt":["Alto de Tobalico"],"lon":-81.35479,"lat":8.01672,"pop":0},{"id":12241045,"name":"Alto de Valle Alegre","lon":-81.00054,"lat":8.45573,"pop":0},{"id":12236874,"name":"Alto de Ventorrillo","lon":-80.59926,"lat":8.62293,"pop":0},{"id":3714847,"name":"Alto del Aguacate","lon":-80.88333,"lat":7.73333,"pop":0},{"id":12236898,"name":"Alto del Alsanagua","lon":-80.59363,"lat":8.60625,"pop":0},{"id":12215356,"name":"Alto del Barria","lon":-81.06183,"lat":7.80514,"pop":0},{"id":12211989,"name":"Alto del Cántaro","alt":["Alto del Cantaro"],"lon":-80.82737,"lat":7.66584,"pop":0},{"id":12219630,"name":"Alto del Capacho","lon":-81.36668,"lat":8.1174,"pop":0},{"id":3714832,"name":"Alto del Castillo","lon":-80.8485,"lat":7.85893,"pop":0},{"id":12237121,"name":"Alto del Castillo","lon":-80.65554,"lat":8.40696,"pop":0},{"id":12236988,"name":"Alto del Chirú","alt":["Alto del Chiru"],"lon":-80.51674,"lat":8.57022,"pop":0},{"id":12282857,"name":"Alto del Cielo","lon":-78.89337,"lat":9.22569,"pop":0},{"id":3711057,"name":"Alto del Coco","alt":["El Coco"],"lon":-80.24055,"lat":8.78979,"pop":0},{"id":10348406,"name":"Alto del Coco","lon":-80.23888,"lat":8.787,"pop":0},{"id":12236716,"name":"Alto del Coquillo","lon":-80.72633,"lat":8.74679,"pop":0},{"id":10194331,"name":"Alto del Cristo","lon":-78.07749,"lat":8.60594,"pop":0},{"id":12241226,"name":"Alto del Cristo","lon":-81.16489,"lat":8.38119,"pop":0},{"id":3714830,"name":"Alto del Espino","lon":-79.84105,"lat":8.8472,"pop":3672},{"id":12210824,"name":"Alto del Espino","lon":-81.15078,"lat":7.97218,"pop":0},{"id":3714829,"name":"Alto del Espino Prieto","lon":-80.18093,"lat":7.45473,"pop":3},{"id":12236906,"name":"Alto del Gallo","lon":-80.55276,"lat":8.60147,"pop":0},{"id":3714827,"name":"Alto del Guarumo","lon":-80.84214,"lat":7.74805,"pop":0},{"id":3714824,"name":"Alto del Jobo","alt":["Comunidad Altos del Jobo"],"lon":-79.81355,"lat":8.98594,"pop":0},{"id":3714825,"name":"Alto del Jobo","lon":-80.01231,"lat":8.59058,"pop":0},{"id":12236867,"name":"Alto del Jobo","lon":-80.52538,"lat":8.63496,"pop":0},{"id":3714823,"name":"Alto del Jujucal","lon":-80.53516,"lat":8.63318,"pop":0},{"id":3710522,"name":"Alto del Limón","alt":["Alto de Limon","Alto de Limón","Alto del Limon","El Limon","El Limón"],"lon":-79.76229,"lat":8.90234,"pop":0},{"id":12250159,"name":"Alto del Lirio","lon":-79.55409,"lat":9.61421,"pop":0},{"id":12280181,"name":"Alto del Lirio","lon":-79.49719,"lat":9.0837,"pop":0},{"id":3714821,"name":"Alto del Llanón","alt":["Alto de Llanon","Alto de Llanón","Alto del Llano","Alto del Llanon"],"lon":-81.24894,"lat":8.23781,"pop":0},{"id":3714820,"name":"Alto del Mamey","alt":["Alto de Mamey"],"lon":-80.06106,"lat":8.63349,"pop":24},{"id":12224953,"name":"Alto del Mango","lon":-81.33746,"lat":8.11922,"pop":0},{"id":3714819,"name":"Alto del Marañón","alt":["Alto Maranon","Alto Marañón","Alto del Maranon","El Cortezo"],"lon":-80.60786,"lat":8.30018,"pop":0},{"id":12208633,"name":"Alto del María","alt":["Alto del Maria"],"lon":-81.07276,"lat":8.27584,"pop":0},{"id":3714818,"name":"Alto del Mora","lon":-80.21528,"lat":8.89647,"pop":24},{"id":12216057,"name":"Alto del Nance","lon":-81.01321,"lat":8.06847,"pop":0},{"id":12204832,"name":"Alto del Naranjillo","lon":-80.74177,"lat":7.45,"pop":0},{"id":3714815,"name":"Alto del Naranjo","alt":["Naranjal"],"lon":-80.10479,"lat":8.89044,"pop":73},{"id":12227077,"name":"Alto del Pito","lon":-81.06367,"lat":8.5249,"pop":0},{"id":3714809,"name":"Alto del Pontón","alt":["Alto del Ponton"],"lon":-81.47779,"lat":7.9204,"pop":0},{"id":10348005,"name":"Alto del Prado","lon":-81.51317,"lat":8.23719,"pop":0},{"id":3714796,"name":"Alto del Río","alt":["Alto de Tranquilla","Alto del Rio","Del Rio","Rio Tranquilla"],"lon":-79.99114,"lat":8.51564,"pop":0},{"id":3714807,"name":"Alto del Río","alt":["Alto del Rio"],"lon":-80.67894,"lat":7.67893,"pop":0},{"id":12215695,"name":"Alto del Rosario","lon":-80.60646,"lat":7.89663,"pop":0},{"id":12211225,"name":"Alto del Salado","lon":-81.60855,"lat":8.05944,"pop":0},{"id":12203883,"name":"Alto El Burro","lon":-82.28541,"lat":9.0816,"pop":0},{"id":12241183,"name":"Alto El Chiflón","alt":["Alto El Chiflon"],"lon":-81.05684,"lat":8.34268,"pop":0},{"id":12250263,"name":"Alto El Chorro","lon":-79.76883,"lat":9.2971,"pop":0},{"id":12214624,"name":"Alto El Cine","lon":-81.37742,"lat":7.70446,"pop":0},{"id":10347515,"name":"Alto El Común","alt":["Alto El Comun","El Comun","El Común"],"lon":-81.68938,"lat":8.42097,"pop":0},{"id":12252175,"name":"Alto El Cristal","lon":-80.93569,"lat":8.32901,"pop":0},{"id":12219558,"name":"Alto El Fresco","lon":-81.32319,"lat":8.02433,"pop":0},{"id":12236718,"name":"Alto El Guineo","lon":-80.7163,"lat":8.74429,"pop":0},{"id":12252178,"name":"Alto El Higo","lon":-80.88144,"lat":8.28749,"pop":0},{"id":3714826,"name":"Alto El Horcón","alt":["Alto El Horcon","Alto del Horcon","Alto del Horcón"],"lon":-80.98349,"lat":7.76732,"pop":0},{"id":12219592,"name":"Alto El Jobo","lon":-81.3934,"lat":8.09311,"pop":0},{"id":12231707,"name":"Alto El Limón","alt":["Alto El Limon"],"lon":-80.76596,"lat":7.80916,"pop":0},{"id":3710419,"name":"Alto El Marco","alt":["El Marco","Marco"],"lon":-81.27772,"lat":8.10467,"pop":0},{"id":12208584,"name":"Alto El Molino","lon":-80.31687,"lat":7.44283,"pop":0},{"id":3714817,"name":"Alto El Nance","alt":["Alto del Nance","El Alto Nance"],"lon":-80.92541,"lat":7.92813,"pop":0},{"id":12202638,"name":"Alto El Nance","lon":-82.30668,"lat":8.71968,"pop":0},{"id":12209664,"name":"Alto El Panamá","alt":["Alto El Panama"],"lon":-80.30551,"lat":8.94858,"pop":0},{"id":12219657,"name":"Alto El Pito","lon":-81.36483,"lat":8.08487,"pop":0},{"id":12224967,"name":"Alto Espino","lon":-81.38401,"lat":8.04242,"pop":0},{"id":3712682,"name":"Alto Estrella","alt":["Cerro Melon","Cerro Melón"],"lon":-81.68345,"lat":8.40354,"pop":0},{"id":3714792,"name":"Alto Fresco","lon":-81.46734,"lat":8.07581,"pop":3},{"id":12237466,"name":"Alto Frijolito","lon":-80.01011,"lat":9.18702,"pop":0},{"id":12194282,"name":"Alto Frío","alt":["Alto Frio"],"lon":-82.21199,"lat":8.65576,"pop":0},{"id":10348679,"name":"Alto Galera","alt":["Cerro Galera"],"lon":-81.49741,"lat":8.51399,"pop":0},{"id":12192389,"name":"Alto Gambu","lon":-81.95723,"lat":8.38856,"pop":0},{"id":3711503,"name":"Alto García","alt":["Alto Garcia","El Alto Garcia","El Alto García"],"lon":-80.81359,"lat":7.38548,"pop":0},{"id":12192292,"name":"Alto Gengibre","lon":-81.82178,"lat":8.47332,"pop":0},{"id":12224846,"name":"Alto Guabino","lon":-81.11096,"lat":8.77032,"pop":0},{"id":3714790,"name":"Alto Gualaca","lon":-82.22709,"lat":8.49043,"pop":0},{"id":3702187,"name":"Alto Guayabo","alt":["Guabal","Quebrada Iglesia"],"lon":-81.53005,"lat":8.3025,"pop":0},{"id":3714789,"name":"Alto Guayabo","alt":["Guabal"],"lon":-81.53112,"lat":8.30031,"pop":0},{"id":12221541,"name":"Alto Guayabo","lon":-81.54156,"lat":8.78788,"pop":0},{"id":12221742,"name":"Alto Güibale","alt":["Alto Guibale"],"lon":-81.36883,"lat":8.52042,"pop":0},{"id":12220313,"name":"Alto Higuerón","alt":["Alto Higueron"],"lon":-81.55074,"lat":8.40144,"pop":0},{"id":12212088,"name":"Alto Hilario","lon":-80.93407,"lat":7.65338,"pop":0},{"id":3714787,"name":"Alto Ibalá","alt":["Alto Ibala"],"lon":-81.20604,"lat":8.35705,"pop":376},{"id":12192386,"name":"Alto Jacaque","lon":-81.97965,"lat":8.38934,"pop":0},{"id":12220343,"name":"Alto Jagua","lon":-81.56822,"lat":8.33799,"pop":0},{"id":10347316,"name":"Alto Jaramillo","lon":-82.40368,"lat":8.76455,"pop":342},{"id":12220118,"name":"Alto Javilla","lon":-81.6063,"lat":8.48562,"pop":0},{"id":12224693,"name":"Alto Jujuca","lon":-81.26149,"lat":8.67343,"pop":0},{"id":12214666,"name":"Alto La Esperanza","lon":-81.43566,"lat":7.78186,"pop":0},{"id":3707737,"name":"Alto La Estrella","alt":["El Alto de La Estrella","La Estrella"],"lon":-80.67074,"lat":8.17789,"pop":0},{"id":12247893,"name":"Alto La Gloria","lon":-79.67382,"lat":9.25382,"pop":0},{"id":12212086,"name":"Alto La Iguana","lon":-80.89411,"lat":7.65513,"pop":0},{"id":3714845,"name":"Alto La Mina","alt":["Alto de la Mina"],"lon":-82.81331,"lat":8.70619,"pop":0},{"id":12228556,"name":"Alto La Palma","lon":-80.91436,"lat":8.52599,"pop":0},{"id":10347865,"name":"Alto Laguna","lon":-81.63694,"lat":8.11295,"pop":127},{"id":3714785,"name":"Alto Lajilla","lon":-81.35018,"lat":8.18495,"pop":0},{"id":12240987,"name":"Alto Las Minas","lon":-81.08854,"lat":8.42016,"pop":0},{"id":12241232,"name":"Alto Las Varas","lon":-81.163,"lat":8.34482,"pop":0},{"id":12224895,"name":"Alto Líbano","alt":["Alto Libano"],"lon":-81.20649,"lat":8.77102,"pop":0},{"id":10348574,"name":"Alto Limón","alt":["Alto Limon"],"lon":-81.17964,"lat":8.68963,"pop":116},{"id":12192271,"name":"Alto Limón","alt":["Alto Limon"],"lon":-81.85881,"lat":8.3599,"pop":0},{"id":12209550,"name":"Alto Limón","alt":["Alto Limon"],"lon":-80.29773,"lat":8.85306,"pop":0},{"id":12211221,"name":"Alto Limón","alt":["Alto Limon"],"lon":-81.5409,"lat":8.07137,"pop":0},{"id":12228561,"name":"Alto Limón","alt":["Alto Limon"],"lon":-80.89806,"lat":8.51609,"pop":0},{"id":12228793,"name":"Alto Limón","alt":["Alto Limon"],"lon":-80.83927,"lat":8.39388,"pop":0},{"id":12198922,"name":"Alto Limoncito","lon":-82.8534,"lat":8.6682,"pop":0},{"id":3714784,"name":"Alto Lino","lon":-82.4365,"lat":8.80043,"pop":706},{"id":12245845,"name":"Alto Lino","lon":-79.61062,"lat":9.12215,"pop":0},{"id":12228568,"name":"Alto Lirio","lon":-80.9008,"lat":8.53471,"pop":0},{"id":12220246,"name":"Alto Llano Venado","lon":-81.58723,"lat":8.43667,"pop":0},{"id":3714783,"name":"Alto Loro","lon":-81.86679,"lat":8.44746,"pop":0},{"id":12220490,"name":"Alto Loro","lon":-81.69549,"lat":8.62154,"pop":0},{"id":12202479,"name":"Alto Los Guerras","lon":-82.61844,"lat":8.84229,"pop":0},{"id":12231698,"name":"Alto Los Helechales","lon":-80.82018,"lat":7.81852,"pop":0},{"id":3714782,"name":"Alto los Mirandas","alt":["Alto Los Miranda","Alto de los Mirandas"],"lon":-81.61667,"lat":8.16667,"pop":0},{"id":12202478,"name":"Alto Los Rubios","lon":-82.59258,"lat":8.83932,"pop":0},{"id":12219509,"name":"Alto Lucira","lon":-81.45814,"lat":8.04539,"pop":0},{"id":12211175,"name":"Alto Macho","lon":-81.64225,"lat":8.16359,"pop":0},{"id":3714780,"name":"Alto Majagua","lon":-82.47555,"lat":8.5503,"pop":173},{"id":12208518,"name":"Alto Mango","lon":-81.7527,"lat":8.29787,"pop":0},{"id":12224949,"name":"Alto Marañón","alt":["Alto Maranon"],"lon":-81.13305,"lat":8.73982,"pop":0},{"id":12258764,"name":"Alto Membrillar","lon":-80.18271,"lat":9.11873,"pop":0},{"id":10347861,"name":"Alto Meregilda","lon":-81.63624,"lat":8.30085,"pop":243},{"id":12186472,"name":"Alto Meseta","lon":-82.75879,"lat":8.58565,"pop":0},{"id":10348490,"name":"Alto México","alt":["Alto Mexico"],"lon":-80.17744,"lat":8.60092,"pop":127},{"id":12224931,"name":"Alto Mirador","lon":-81.2047,"lat":8.74884,"pop":0},{"id":12192276,"name":"Alto Molejón","alt":["Alto Molejon"],"lon":-81.81957,"lat":8.34698,"pop":0},{"id":12192409,"name":"Alto Mono","lon":-81.88649,"lat":8.39483,"pop":0},{"id":12227328,"name":"Alto Mono","lon":-81.87323,"lat":8.82171,"pop":0},{"id":3714778,"name":"Alto Montilla","alt":["Montilla"],"lon":-80.60893,"lat":7.56025,"pop":0},{"id":12221775,"name":"Alto Muale","lon":-81.47388,"lat":8.52514,"pop":0},{"id":12194263,"name":"Alto Nance","lon":-82.00368,"lat":8.51876,"pop":0},{"id":12199420,"name":"Alto Nance","lon":-82.71028,"lat":9.50901,"pop":0},{"id":3714777,"name":"Alto Nancito","lon":-81.85113,"lat":8.37015,"pop":270},{"id":12194434,"name":"Alto Naranjo","lon":-82.06867,"lat":8.52571,"pop":0},{"id":12224877,"name":"Alto Níspero","alt":["Alto Nispero"],"lon":-81.19871,"lat":8.7871,"pop":0},{"id":12208502,"name":"Alto Nube","lon":-81.80291,"lat":8.30975,"pop":0},{"id":12202678,"name":"Alto Nuevo de Fortuna","lon":-82.27407,"lat":8.74285,"pop":0},{"id":12198541,"name":"Alto Oro","lon":-81.86435,"lat":8.5065,"pop":0},{"id":10348601,"name":"Alto Ortiga","lon":-81.21109,"lat":8.60997,"pop":192},{"id":12211249,"name":"Alto Pacoral","lon":-81.59278,"lat":8.12252,"pop":0},{"id":12192451,"name":"Alto Paila","lon":-81.93918,"lat":8.49504,"pop":0},{"id":12203875,"name":"Alto Palma","lon":-82.32069,"lat":9.0278,"pop":0},{"id":12192366,"name":"Alto Pavo","lon":-81.95621,"lat":8.36537,"pop":0},{"id":3703257,"name":"Alto Pavón","alt":["Alto Pavon","Pavon","Pavón"],"lon":-82.82153,"lat":8.60162,"pop":0},{"id":12202546,"name":"Alto Peña","alt":["Alto Pena"],"lon":-82.29917,"lat":8.97136,"pop":0},{"id":12229154,"name":"Alto Peñón","alt":["Alto Penon"],"lon":-80.97531,"lat":8.37753,"pop":0},{"id":12220318,"name":"Alto Perico","lon":-81.59992,"lat":8.3861,"pop":0},{"id":12231622,"name":"Alto Perico","lon":-80.97923,"lat":7.89518,"pop":0},{"id":12192370,"name":"Alto Piedra","lon":-81.97308,"lat":8.35375,"pop":0},{"id":12241939,"name":"Alto Piedra","lon":-79.65949,"lat":8.93337,"pop":0},{"id":12224553,"name":"Alto Piña","alt":["Alto Pina"],"lon":-81.34959,"lat":8.71828,"pop":0},{"id":10347312,"name":"Alto Pineda","lon":-82.57607,"lat":8.8346,"pop":0},{"id":12221546,"name":"Alto Pita","lon":-81.51682,"lat":8.77906,"pop":0},{"id":12208628,"name":"Alto Pital","lon":-81.029,"lat":8.279,"pop":0},{"id":12299440,"name":"Alto Playón","alt":["Alto Playon","Alto Playona"],"lon":-77.8818,"lat":8.53822,"pop":0},{"id":12211139,"name":"Alto Prado","lon":-80.36802,"lat":8.50583,"pop":0},{"id":3714776,"name":"Alto Quiel","lon":-82.47073,"lat":8.80773,"pop":963},{"id":10347245,"name":"Alto Quiel","lon":-82.88839,"lat":8.72881,"pop":576},{"id":3714775,"name":"Alto Rey","lon":-81.95342,"lat":8.33445,"pop":229},{"id":3714799,"name":"Alto Riecito","alt":["Alto de Riecito"],"lon":-80.24745,"lat":8.88046,"pop":0},{"id":12202557,"name":"Alto Romero","lon":-82.38331,"lat":8.93559,"pop":0},{"id":3714774,"name":"Alto Salaíto","alt":["Alto Salaito"],"lon":-81.89845,"lat":8.41074,"pop":0},{"id":10347858,"name":"Alto Saldaña","alt":["Alto Saldana"],"lon":-81.68637,"lat":8.33,"pop":456},{"id":12219487,"name":"Alto Saldaña","alt":["Alto Saldana"],"lon":-81.72516,"lat":8.41633,"pop":0},{"id":12192410,"name":"Alto Salitre","lon":-81.87996,"lat":8.41068,"pop":0},{"id":3714773,"name":"Alto Sardo","lon":-81.60896,"lat":8.40718,"pop":0},{"id":12198493,"name":"Alto Senia","lon":-81.77206,"lat":8.54523,"pop":0},{"id":10348469,"name":"Alto Silencio","lon":-80.18291,"lat":8.86953,"pop":0},{"id":12194428,"name":"Alto Soloy","lon":-82.06864,"lat":8.50727,"pop":0},{"id":3714767,"name":"Alto Tamarindo","lon":-82.13738,"lat":8.31727,"pop":0},{"id":3714797,"name":"Alto Tebario","alt":["Alto de Tebario"],"lon":-80.93903,"lat":7.73004,"pop":0},{"id":12202515,"name":"Alto Tisingal","alt":["Alto Tizingal"],"lon":-82.65906,"lat":8.82465,"pop":0},{"id":12202530,"name":"Alto Tribaldo","lon":-82.59623,"lat":8.82912,"pop":0},{"id":3713607,"name":"Alto Uracillo","alt":["Cabecera de Uracillo"],"lon":-80.18095,"lat":8.8068,"pop":0},{"id":12236983,"name":"Alto Veladero","lon":-80.54574,"lat":8.58095,"pop":0},{"id":12203889,"name":"Alto Zapatero","lon":-82.31038,"lat":9.01037,"pop":0},{"id":12218748,"name":"Altoleta","lon":-81.60974,"lat":8.25914,"pop":0},{"id":3714833,"name":"Altos de Cañafístulo","alt":["Alto del Canafistulo","Alto del Cañafístulo","Altos de Canafistulo"],"lon":-80.66075,"lat":7.74655,"pop":0},{"id":12275558,"name":"Altos de Cerro Azul","lon":-79.39464,"lat":9.21957,"pop":0},{"id":10179999,"name":"Altos de Divisa","lon":-79.71245,"lat":9.25321,"pop":470},{"id":12211127,"name":"Altos de El Chorrillo","lon":-80.3497,"lat":8.52451,"pop":0},{"id":3764402,"name":"Altos de Espavé","alt":["Altos de Espave"],"lon":-79.82861,"lat":8.95167,"pop":102},{"id":12280142,"name":"Altos de Génesis","alt":["Altos de Genesis"],"lon":-79.39961,"lat":9.11206,"pop":0},{"id":3714771,"name":"Altos de Güera","alt":["Alto de Guera","Alto de Güera","Altos de Guera","Los Altos"],"lon":-80.62094,"lat":7.53123,"pop":0},{"id":12211842,"name":"Altos de La Cruz","lon":-81.26633,"lat":8.23875,"pop":0},{"id":12215812,"name":"Altos de La Cruz","lon":-80.61862,"lat":7.91048,"pop":0},{"id":12245831,"name":"Altos de La Esperanza","lon":-79.57145,"lat":9.11695,"pop":0},{"id":12204189,"name":"Altos de La Gloria","lon":-82.22357,"lat":8.9729,"pop":0},{"id":12303970,"name":"Altos de La Gloria","lon":-79.16994,"lat":9.18299,"pop":0},{"id":12218766,"name":"Altos de La Quebrada Guabo","lon":-80.20316,"lat":7.4645,"pop":0},{"id":12242715,"name":"Altos de La Roca","lon":-79.6199,"lat":8.89333,"pop":0},{"id":12245561,"name":"Altos de La Rotonda","lon":-79.50449,"lat":9.08592,"pop":0},{"id":12242767,"name":"Altos de Las Huacas","lon":-79.69343,"lat":8.91301,"pop":0},{"id":12280286,"name":"Altos de Las Praderas de San Antonio","lon":-79.44905,"lat":9.07375,"pop":0},{"id":12228734,"name":"Altos de Las Puntas","lon":-80.89775,"lat":8.47842,"pop":0},{"id":3705788,"name":"Altos de Llano Bonito","alt":["Llano Bonito"],"lon":-80.53154,"lat":8.26643,"pop":0},{"id":10348401,"name":"Altos de Los Darieles","alt":["Alto de Los Darieles"],"lon":-80.27939,"lat":8.8066,"pop":0},{"id":12194295,"name":"Altos de Los Pinos","lon":-82.23954,"lat":8.6617,"pop":0},{"id":12211101,"name":"Altos de Los Reyes","lon":-80.40147,"lat":8.59457,"pop":0},{"id":3705638,"name":"Altos de Madre Vieja","lon":-81.33109,"lat":7.67575,"pop":0},{"id":3714805,"name":"Altos de Martincito","alt":["Alto Martincito","Alto de Martincito"],"lon":-80.97321,"lat":8.07835,"pop":0},{"id":12186965,"name":"Altos de Milla Diez","alt":["Altos de Milla 10"],"lon":-82.47909,"lat":9.37964,"pop":0},{"id":3714816,"name":"Altos de Naranjal","alt":["Alto del Naranjal"],"lon":-80.89992,"lat":8.52031,"pop":0},{"id":3713158,"name":"Altos de Naranjo","alt":["Canchigua","Conchita"],"lon":-78.90116,"lat":9.16323,"pop":0},{"id":12275547,"name":"Altos de Pacora","lon":-79.36038,"lat":9.22778,"pop":0},{"id":12280166,"name":"Altos de Pedregal","lon":-79.43086,"lat":9.10856,"pop":0},{"id":3706575,"name":"Altos de San Francisco","alt":["Las Cruces","Las Cruces de San Francisco","San Francisco"],"lon":-79.79,"lat":8.86167,"pop":8189},{"id":12280155,"name":"Altos de San José","alt":["Altos de San Jose"],"lon":-79.41387,"lat":9.09987,"pop":0},{"id":3714768,"name":"Altos de San Miguel","alt":["Alto de San Miguel"],"lon":-80.31057,"lat":8.75256,"pop":0},{"id":10347289,"name":"Altos de San Vicente","lon":-82.87968,"lat":8.25968,"pop":424},{"id":12279206,"name":"Altos de Tanara","lon":-79.21986,"lat":9.13444,"pop":0},{"id":12278180,"name":"Altos de Tataré","alt":["Altos de Tatare"],"lon":-79.29458,"lat":9.10147,"pop":0},{"id":12275548,"name":"Altos de Utivé","alt":["Altos de Utive"],"lon":-79.37639,"lat":9.21921,"pop":0},{"id":12256055,"name":"Altos de Valle Dorado","lon":-79.76703,"lat":8.87836,"pop":0},{"id":12186449,"name":"Altos de Zapatero","lon":-82.79706,"lat":8.60874,"pop":0},{"id":12280107,"name":"Altos del Ángel","alt":["Altos del Angel"],"lon":-79.35054,"lat":9.09233,"pop":0},{"id":12245179,"name":"Altos del Atlántico","alt":["Altos del Atlantico"],"lon":-79.87081,"lat":9.33345,"pop":0},{"id":12252831,"name":"Altos del Barrero","lon":-80.12681,"lat":8.54292,"pop":0},{"id":3714023,"name":"Altos del Bayano","alt":["Boca del Mamoni","Boca del Mamoní"],"lon":-79.05646,"lat":9.12814,"pop":0},{"id":12275561,"name":"Altos del Castillo","lon":-79.41389,"lat":9.22715,"pop":0},{"id":12237453,"name":"Altos del Congal","lon":-80.04853,"lat":9.18139,"pop":0},{"id":12227069,"name":"Altos del Espavé","alt":["Altos del Espave"],"lon":-81.06629,"lat":8.5448,"pop":0},{"id":3714769,"name":"Altos del Golf","lon":-79.50394,"lat":9.00109,"pop":0},{"id":3711505,"name":"Altos del Higo","alt":["Alto del Higo","El Alto del Higo","El Higo"],"lon":-80.49077,"lat":8.62481,"pop":0},{"id":12210894,"name":"Altos del Higo","lon":-80.49074,"lat":8.62472,"pop":0},{"id":12247934,"name":"Altos del Lago","lon":-79.57592,"lat":9.19459,"pop":0},{"id":12279183,"name":"Altos del Lago","alt":["Alto del Lago"],"lon":-79.22909,"lat":9.15702,"pop":0},{"id":3706776,"name":"Altos del Llano","alt":["La Puente","Terable"],"lon":-78.97143,"lat":9.2278,"pop":0},{"id":12252732,"name":"Altos del María","alt":["Altos del Maria"],"lon":-80.03766,"lat":8.63679,"pop":0},{"id":12245832,"name":"Altos del Milagro","lon":-79.5741,"lat":9.11963,"pop":0},{"id":12185830,"name":"Altos del Río","alt":["Altos del Rio"],"lon":-82.41554,"lat":8.41642,"pop":0},{"id":12280265,"name":"Altos del Romeral","lon":-79.47753,"lat":9.02685,"pop":0},{"id":12281608,"name":"Altos del Sol","lon":-78.98488,"lat":9.26688,"pop":0},{"id":12242779,"name":"Altos del Tecal","lon":-79.70196,"lat":8.90037,"pop":0},{"id":12275568,"name":"Altos del Torreón","alt":["Altos del Torreon"],"lon":-79.41115,"lat":9.20947,"pop":0},{"id":12204267,"name":"Altos del Valle","lon":-82.18434,"lat":8.80724,"pop":0},{"id":12252706,"name":"Altos del Valle","lon":-80.10188,"lat":8.59777,"pop":0},{"id":12275565,"name":"Altos del Vigía","alt":["Alto del Vigia","Alto del Vigía","Altos del Vigia"],"lon":-79.40651,"lat":9.21464,"pop":0},{"id":12275560,"name":"Altos Fortín","alt":["Altos Fortin"],"lon":-79.41057,"lat":9.22977,"pop":0},{"id":10206731,"name":"Ambroya","lon":-78.57077,"lat":8.92793,"pop":0},{"id":3714742,"name":"Ana María","alt":["Ana Maria"],"lon":-80.60911,"lat":8.61345,"pop":0},{"id":3714744,"name":"Anachukuna","alt":["Anachucuna","Esnasucun","Sukun"],"lon":-77.54766,"lat":8.73194,"pop":0},{"id":3714734,"name":"Ancón","alt":["Ancon"],"lon":-79.5514,"lat":8.96015,"pop":20706},{"id":3714735,"name":"Ancón","alt":["Ancon","El Ancon","El Ancón","Oleo"],"lon":-79.5503,"lat":8.78878,"pop":0},{"id":3714731,"name":"Andariel","lon":-80.66818,"lat":8.45043,"pop":22},{"id":3714726,"name":"Angostura","lon":-80.17797,"lat":8.56914,"pop":0},{"id":3712168,"name":"Angostura de Cochea Arriba","alt":["Angostura","Cochea Arriba","Cochea Arriba Angostura"],"lon":-82.37627,"lat":8.5412,"pop":615},{"id":12227337,"name":"Anguatari","lon":-81.8154,"lat":8.7751,"pop":0},{"id":3714724,"name":"Angulito","lon":-80.96931,"lat":7.67345,"pop":82},{"id":3714721,"name":"Angulón","alt":["Angulo","Angulon","Ángulo"],"lon":-80.9682,"lat":7.69125,"pop":0},{"id":3714642,"name":"Anonal","alt":["Aronal"],"lon":-80.30951,"lat":7.88529,"pop":0},{"id":3714715,"name":"Anonal","lon":-80.31667,"lat":7.88333,"pop":0},{"id":3714710,"name":"Antón","alt":["Anton"],"lon":-80.26499,"lat":8.39677,"pop":6851},{"id":3709826,"name":"Anton Valley","alt":["El Valle de Anton"],"lon":-80.13114,"lat":8.60173,"pop":0},{"id":3714705,"name":"Antonio Bal","lon":-81.3031,"lat":7.9651,"pop":0},{"id":3714696,"name":"Arana","lon":-80.07952,"lat":7.65411,"pop":0},{"id":3714695,"name":"Arañagatal","alt":["Araganatal","Aragañatal","Aranagatal"],"lon":-80.05838,"lat":8.99326,"pop":0},{"id":12204208,"name":"Árbol de Pan","alt":["Arbol de Pan"],"lon":-82.0883,"lat":8.92111,"pop":0},{"id":3714690,"name":"Arbolito","lon":-80.06061,"lat":7.57502,"pop":0},{"id":12202590,"name":"Arco Iris","lon":-82.42672,"lat":8.80789,"pop":0},{"id":3708172,"name":"Arena","alt":["La Arena"],"lon":-81.59014,"lat":7.91808,"pop":0},{"id":12203903,"name":"Arena","lon":-82.03387,"lat":8.83725,"pop":0},{"id":3714679,"name":"Arenal","lon":-80.89283,"lat":8.51341,"pop":0},{"id":3714680,"name":"Arenal","lon":-81.37825,"lat":8.17701,"pop":0},{"id":3714681,"name":"Arenal","lon":-80.4,"lat":7.7,"pop":0},{"id":12236690,"name":"Arenal","lon":-80.66784,"lat":8.97116,"pop":0},{"id":12241833,"name":"Arenal","lon":-80.1066,"lat":7.69228,"pop":0},{"id":12268403,"name":"Arenal","lon":-79.97559,"lat":8.75551,"pop":0},{"id":12209932,"name":"Arenal Grande","lon":-80.48527,"lat":8.91307,"pop":0},{"id":3714672,"name":"Arenas","lon":-80.85949,"lat":7.37003,"pop":97},{"id":3714665,"name":"Arenas Blancas","lon":-80.38321,"lat":8.29168,"pop":0},{"id":12259784,"name":"Arenas Blancas","lon":-80.05656,"lat":8.86733,"pop":0},{"id":3714662,"name":"Arenilla","lon":-80.91531,"lat":8.04227,"pop":0},{"id":12252772,"name":"Arenilla","lon":-80.11482,"lat":8.51563,"pop":0},{"id":12255672,"name":"Arenilla","lon":-80.10146,"lat":8.72494,"pop":0},{"id":12269383,"name":"Arenita","lon":-78.26797,"lat":8.78629,"pop":0},{"id":12241881,"name":"Argón","alt":["Argon"],"lon":-79.7387,"lat":8.94613,"pop":0},{"id":3714652,"name":"Arguea","lon":-82.36667,"lat":8.5,"pop":0},{"id":12245762,"name":"Arionda","lon":-81.58179,"lat":8.83676,"pop":0},{"id":12271300,"name":"Arizona","lon":-78.37075,"lat":8.60316,"pop":0},{"id":3714648,"name":"Armado","lon":-81.98774,"lat":8.4796,"pop":0},{"id":3714646,"name":"Armila","alt":["Armila Numero Dos","Armila Número Dos"],"lon":-77.45142,"lat":8.66269,"pop":637},{"id":3714641,"name":"Arosemena","alt":["Quebrada Grande"],"lon":-79.96527,"lat":8.97343,"pop":127},{"id":3714639,"name":"Arquití","lon":-78.03091,"lat":8.94329,"pop":0},{"id":12297307,"name":"Arrabache","lon":-77.6385,"lat":8.16836,"pop":0},{"id":3714637,"name":"Arraiján","alt":["Arraijan"],"lon":-79.64038,"lat":8.9398,"pop":76815},{"id":3714638,"name":"Arraiján","alt":["Arraijan","Arrijan"],"lon":-80.88283,"lat":7.75805,"pop":0},{"id":12258739,"name":"Arrecifal","lon":-80.07118,"lat":9.03228,"pop":0},{"id":3714631,"name":"Arreife Bruno","lon":-81.73333,"lat":9.03333,"pop":0},{"id":3714630,"name":"Arretí","alt":["Arreti"],"lon":-78.08006,"lat":8.54592,"pop":201},{"id":12209487,"name":"Arriba del Chorro","lon":-80.46609,"lat":9.08421,"pop":0},{"id":3705534,"name":"Arribeños","alt":["Arribenos"],"lon":-81.13938,"lat":7.90857,"pop":91},{"id":3714618,"name":"Arridup","alt":["Arritupo","Arritupo Numero Dos","Arritupo Número Dos","Isla Iguana"],"lon":-78.90461,"lat":9.49096,"pop":0},{"id":12192305,"name":"Arriera","lon":-81.80499,"lat":8.47047,"pop":0},{"id":12192461,"name":"Arriera","lon":-81.83062,"lat":8.44591,"pop":0},{"id":3714625,"name":"Arrieral","lon":-80.2,"lat":9.16667,"pop":0},{"id":3714620,"name":"Arrimadero","lon":-81.30954,"lat":7.66003,"pop":44},{"id":12215268,"name":"Arrimadero","lon":-81.12222,"lat":7.54913,"pop":0},{"id":3714619,"name":"Arritupu","alt":["Arritupo","Arritupo Numero Uno","Arritupo Número Uno","Isla Iguana"],"lon":-79.02654,"lat":9.50117,"pop":0},{"id":3714650,"name":"Arrizal","alt":["Arizal"],"lon":-78.12262,"lat":8.32008,"pop":0},{"id":3714614,"name":"Aruza","alt":["Arusa"],"lon":-77.61651,"lat":8.09079,"pop":0},{"id":12299344,"name":"Aruza Abajo","lon":-77.93812,"lat":8.36183,"pop":0},{"id":12299331,"name":"Aruza Arriba","lon":-77.93787,"lat":8.40571,"pop":0},{"id":12299340,"name":"Aruza del Medio","alt":["Pueblo Nuevo"],"lon":-77.93878,"lat":8.37873,"pop":0},{"id":12230053,"name":"Asajal","lon":-80.98834,"lat":8.01281,"pop":0},{"id":3709572,"name":"Asentamiento Almendro","alt":["Finca Almendro"],"lon":-82.87293,"lat":8.42864,"pop":0},{"id":12215186,"name":"Asentamiento El Barrero","lon":-81.27977,"lat":7.93786,"pop":0},{"id":10181565,"name":"Asentamiento Superación Campesina","alt":["Asentamiento Superacion Campesina","Superacion Campesina","Superación Campesina"],"lon":-79.14859,"lat":9.1643,"pop":0},{"id":3714611,"name":"Aserrío de Gariché","alt":["Aserria","Aserrio","Aserrio de Gariche","Aserrío","San Antonio"],"lon":-82.78932,"lat":8.48641,"pop":1804},{"id":3714608,"name":"Asiento Bonita","alt":["Asiento Bonito","Las Mendozas","Los Mendozas"],"lon":-81.18052,"lat":8.22037,"pop":0},{"id":3714609,"name":"Asiento Bonito","alt":["Siento Bonito"],"lon":-81.24972,"lat":8.02366,"pop":116},{"id":12252791,"name":"Asiento Viejo","lon":-80.02187,"lat":8.56258,"pop":0},{"id":3714598,"name":"Atalaya","lon":-80.92482,"lat":8.04358,"pop":2686},{"id":10202390,"name":"Atalaya","lon":-78.25575,"lat":7.9973,"pop":0},{"id":3714593,"name":"Atalayita","alt":["Atalayita Numero Dos","Atalayita Número Dos"],"lon":-80.57306,"lat":7.82778,"pop":0},{"id":3714594,"name":"Atalayita","alt":["Atalayita Numero Uno","Atalayita Número Uno"],"lon":-80.53371,"lat":7.87077,"pop":21},{"id":12229108,"name":"Atravesado","lon":-80.85045,"lat":8.335,"pop":0},{"id":3714591,"name":"Atré","alt":["Atre"],"lon":-80.24288,"lat":8.67342,"pop":0},{"id":3714587,"name":"Atré Abajo","alt":["Atre Abajo"],"lon":-80.28469,"lat":8.70328,"pop":0},{"id":3714586,"name":"Atré Arriba","lon":-80.22471,"lat":8.65097,"pop":18},{"id":12210147,"name":"Atré Dos","alt":["Atre 2","Atre Dos","Atré 2"],"lon":-80.26361,"lat":8.69535,"pop":0},{"id":3714579,"name":"Ave María","alt":["Ave Maria"],"lon":-80.45361,"lat":7.32481,"pop":120},{"id":3714551,"name":"Babita de Perro","lon":-78.83333,"lat":9.16667,"pop":0},{"id":3714547,"name":"Bachiller","alt":["Parque Alegre"],"lon":-79.49579,"lat":9.11743,"pop":0},{"id":3711480,"name":"Baco","alt":["El Baco"],"lon":-82.87544,"lat":8.08112,"pop":172},{"id":3714543,"name":"Bágala","alt":["Bagala"],"lon":-82.52688,"lat":8.46711,"pop":910},{"id":12192330,"name":"Bagla","lon":-81.755,"lat":8.44466,"pop":0},{"id":3714538,"name":"Bahía Azul","alt":["Bahia Azul"],"lon":-81.89425,"lat":9.14176,"pop":379},{"id":12299928,"name":"Bahía de Escribanos","alt":["Bahia de Escribano","Bahia de Escribanos","Bahía de Escribano"],"lon":-79.16469,"lat":9.55478,"pop":0},{"id":12199249,"name":"Bahía de Loma Azul","alt":["Bahia de Loma Azul"],"lon":-82.33226,"lat":9.19326,"pop":0},{"id":12214550,"name":"Bahía de Río Hondo","alt":["Bahia de Rio Hondo"],"lon":-80.31718,"lat":8.51898,"pop":0},{"id":12226874,"name":"Bahía Escondida","alt":["Bahia Escondida"],"lon":-81.82758,"lat":9.06627,"pop":0},{"id":3714131,"name":"Bahía Grande","alt":["Bahia Grande","Big Bight","Ensenada Grande","Puerto Laurel"],"lon":-82.28964,"lat":9.244,"pop":175},{"id":10212566,"name":"Bahía Grande","alt":["Bahia Grande"],"lon":-81.82054,"lat":9.02491,"pop":252},{"id":3703900,"name":"Bahía Honda","alt":["Bahia Honda","New Guinea","Nueva Guinea"],"lon":-82.1565,"lat":9.31606,"pop":0},{"id":3714534,"name":"Bahía Honda","lon":-80.68,"lat":7.85,"pop":144},{"id":3714535,"name":"Bahía Honda","alt":["Bahia Honda","La Punta"],"lon":-81.51704,"lat":7.75244,"pop":216},{"id":3714536,"name":"Bahía Honda","alt":["Bahia Honda"],"lon":-80.45139,"lat":7.70901,"pop":131},{"id":12219425,"name":"Bahía Honda Abajo","alt":["Bahia Honda Abajo"],"lon":-80.45193,"lat":7.73175,"pop":0},{"id":3714529,"name":"Bahía Honda Arriba","lon":-80.70007,"lat":7.84717,"pop":0},{"id":3709771,"name":"Bahía La Ballena","alt":["Bahia La Ballena","Ballena","Ensenada Ballena","La Promesa"],"lon":-82.07802,"lat":8.9226,"pop":0},{"id":12203582,"name":"Bahía Roja","alt":["Bahia Roja"],"lon":-82.17501,"lat":9.33534,"pop":0},{"id":3714526,"name":"Baila Mono","alt":["Bailamond","Bailamonos"],"lon":-79.74964,"lat":9.04798,"pop":0},{"id":12258714,"name":"Bailamonos","lon":-80.12525,"lat":9.14922,"pop":0},{"id":12189525,"name":"Baitún Abajo","alt":["Baitun Abajo"],"lon":-82.78636,"lat":8.6452,"pop":0},{"id":3714521,"name":"Baitún Arriba","alt":["Baitun","Baitun Arriba","Baitún"],"lon":-82.77976,"lat":8.65311,"pop":0},{"id":10401976,"name":"Bajada de Campana","lon":-79.87477,"lat":8.71072,"pop":209},{"id":3714518,"name":"Bajada de La Cruz","lon":-81.49491,"lat":8.16842,"pop":0},{"id":12281571,"name":"Bajería","alt":["Bajeria"],"lon":-78.78973,"lat":9.31795,"pop":0},{"id":3715082,"name":"Bajo Aguacate","alt":["Aguacate"],"lon":-81.66626,"lat":8.47009,"pop":0},{"id":12228456,"name":"Bajo Aguacate","lon":-80.80496,"lat":8.53343,"pop":0},{"id":12228627,"name":"Bajo Alto","lon":-80.79085,"lat":8.43109,"pop":0},{"id":3714514,"name":"Bajo Bonito","alt":["Abajo Bonito"],"lon":-80.57073,"lat":7.50787,"pop":56},{"id":11398391,"name":"Bajo Bonito","lon":-80.05801,"lat":8.71771,"pop":373},{"id":12250183,"name":"Bajo Bonito","lon":-79.54197,"lat":9.51501,"pop":0},{"id":12258787,"name":"Bajo Bonito","lon":-80.12087,"lat":9.10208,"pop":0},{"id":12271335,"name":"Bajo Bonito","lon":-78.32119,"lat":8.56859,"pop":0},{"id":12282895,"name":"Bajo Bonito","lon":-78.91528,"lat":8.99914,"pop":0},{"id":12283790,"name":"Bajo Bonito","lon":-78.93351,"lat":9.15447,"pop":0},{"id":12299434,"name":"Bajo Bonito","lon":-77.97136,"lat":8.62419,"pop":0},{"id":3714513,"name":"Bajo Boquete","lon":-82.43306,"lat":8.77058,"pop":2257},{"id":12220121,"name":"Bajo Cabuya","lon":-81.58726,"lat":8.49613,"pop":0},{"id":12192431,"name":"Bajo Cacicón","alt":["Bajo Cacicon"],"lon":-81.89472,"lat":8.42703,"pop":0},{"id":12192455,"name":"Bajo Cacicón","alt":["Bajo Cacicon"],"lon":-81.96488,"lat":8.44694,"pop":0},{"id":12198945,"name":"Bajo Caisán","alt":["Bajo Caisan"],"lon":-82.78102,"lat":8.72892,"pop":0},{"id":12194463,"name":"Bajo Calabazal","lon":-82.18692,"lat":8.20917,"pop":0},{"id":12208520,"name":"Bajo Cañazas","alt":["Bajo Canazas"],"lon":-81.76608,"lat":8.3107,"pop":0},{"id":3714496,"name":"Bajo Canoas","alt":["Bajo de Rio Piedra","Bajo de la Canoa"],"lon":-82.60813,"lat":8.46677,"pop":0},{"id":12219469,"name":"Bajo Capacho","lon":-81.64649,"lat":8.46344,"pop":0},{"id":12203822,"name":"Bajo Cedro Arriba","lon":-82.30578,"lat":9.09525,"pop":0},{"id":10347246,"name":"Bajo Cerrón","alt":["Bajo Cerron"],"lon":-82.86369,"lat":8.74397,"pop":152},{"id":12212098,"name":"Bajo Chico","lon":-80.95907,"lat":7.6328,"pop":0},{"id":3714508,"name":"Bajo Chiquito","alt":["Trabajadero"],"lon":-78.15137,"lat":8.39581,"pop":0},{"id":10194887,"name":"Bajo Chiquito","lon":-77.67888,"lat":8.45705,"pop":0},{"id":3714507,"name":"Bajo Chirigagua","lon":-82.5271,"lat":8.41719,"pop":0},{"id":10347247,"name":"Bajo Chiriquí","alt":["Bajo Chiriqui"],"lon":-82.85189,"lat":8.73085,"pop":0},{"id":3711468,"name":"Bajo Chitra","alt":["El Bajo Chitra"],"lon":-80.91302,"lat":8.51933,"pop":0},{"id":12192274,"name":"Bajo Chivire","lon":-81.85632,"lat":8.3447,"pop":0},{"id":12185913,"name":"Bajo Chorcha","lon":-82.18914,"lat":8.47033,"pop":0},{"id":3714499,"name":"Bajo Corozal","alt":["Bajo de Corozal"],"lon":-80.02317,"lat":8.49097,"pop":0},{"id":12220337,"name":"Bajo Corozal","lon":-81.59293,"lat":8.35509,"pop":0},{"id":3714504,"name":"Bajo Corral","lon":-80.25857,"lat":7.60637,"pop":192},{"id":12199336,"name":"Bajo Culubre","alt":["Bajo Colubre"],"lon":-82.52794,"lat":9.09646,"pop":0},{"id":3714500,"name":"Bajo de Agua Buena","lon":-79.6,"lat":9.11667,"pop":0},{"id":10348006,"name":"Bajo de Cerro Iglesias","lon":-81.56294,"lat":8.29017,"pop":0},{"id":12218710,"name":"Bajo de Cerro Negro","lon":-81.61218,"lat":8.3222,"pop":0},{"id":12198599,"name":"Bajo de Cerro Pita","lon":-81.89447,"lat":8.54305,"pop":0},{"id":3714498,"name":"Bajo de Jerónimo","alt":["Bajo de Geronimo","Bajo de Jeronimo"],"lon":-81.45194,"lat":7.89556,"pop":17},{"id":3707186,"name":"Bajo de La Concepción","alt":["Bajo de La Concepcion","La Melinga","La Milinga"],"lon":-81.3167,"lat":8.26658,"pop":0},{"id":3714495,"name":"Bajo de La Cruz","lon":-80.10019,"lat":8.53598,"pop":0},{"id":3714494,"name":"Bajo de la Mata","lon":-79.95103,"lat":8.66512,"pop":0},{"id":12241847,"name":"Bajo de La Palma","lon":-80.18377,"lat":7.70345,"pop":0},{"id":3714493,"name":"Bajo de la Pava","lon":-79.24563,"lat":9.23744,"pop":0},{"id":12252388,"name":"Bajo de Las Bateas","lon":-80.03669,"lat":8.49342,"pop":0},{"id":3714492,"name":"Bajo de Las Huacas","lon":-81.53333,"lat":8.16667,"pop":0},{"id":3714491,"name":"Bajo de Las Tinajas","alt":["Bajo de la Tinajas","Bajo de las Tinajas"],"lon":-79.95817,"lat":8.59332,"pop":0},{"id":12220382,"name":"Bajo de Las Trancas","lon":-81.63668,"lat":8.33422,"pop":0},{"id":12211177,"name":"Bajo de Los González","alt":["Bajo de Los Gonzalez"],"lon":-81.62866,"lat":8.08818,"pop":0},{"id":12220122,"name":"Bajo de Los Reyes","lon":-81.58806,"lat":8.48805,"pop":0},{"id":12252779,"name":"Bajo del Aguacate","lon":-80.04305,"lat":8.56644,"pop":0},{"id":3714490,"name":"Bajo del Cajeto","lon":-80.63771,"lat":7.69795,"pop":0},{"id":3714489,"name":"Bajo del Cerro","lon":-82.63762,"lat":8.53148,"pop":133},{"id":12211868,"name":"Bajo del Cobre","lon":-81.37256,"lat":8.17815,"pop":0},{"id":3714488,"name":"Bajo del Culantral","lon":-80.04252,"lat":8.58218,"pop":0},{"id":3714487,"name":"Bajo del Higo","lon":-80.02868,"lat":8.6505,"pop":0},{"id":12252389,"name":"Bajo del Infiernillo","lon":-80.02052,"lat":8.49407,"pop":0},{"id":3710578,"name":"Bajo del Jobo","alt":["El Jobo"],"lon":-80.00191,"lat":8.58771,"pop":0},{"id":3714486,"name":"Bajo del Jobo","lon":-80.03461,"lat":8.44239,"pop":0},{"id":12252778,"name":"Bajo del Pixvae","lon":-80.0355,"lat":8.57326,"pop":0},{"id":3714482,"name":"Bajo del Pueblo","lon":-80.03179,"lat":8.43835,"pop":37},{"id":3714480,"name":"Bajo del Río","alt":["Bajo del Rio","Bajos del Rio","Bajos del Río"],"lon":-79.9565,"lat":8.63748,"pop":0},{"id":3714481,"name":"Bajo del Río","alt":["Bajo del Rio"],"lon":-80.37922,"lat":7.69967,"pop":0},{"id":12215130,"name":"Bajo del Río Utira","alt":["Bajo del Rio Utira"],"lon":-81.25075,"lat":7.97682,"pop":0},{"id":12252787,"name":"Bajo del Roble","lon":-80.01738,"lat":8.52161,"pop":0},{"id":3714478,"name":"Bajo del Tigre","lon":-80.04055,"lat":8.57708,"pop":0},{"id":3711461,"name":"Bajo El Burro","alt":["El Bajo del Burro"],"lon":-82.2789,"lat":9.07886,"pop":0},{"id":3711460,"name":"Bajo El Cedro Abajo","alt":["El Bajo del Cedro","El Cedro Abajo","Quebrada del Cerro"],"lon":-82.29458,"lat":9.10564,"pop":0},{"id":12252717,"name":"Bajo El Jobo","lon":-80.08668,"lat":8.59637,"pop":0},{"id":12202641,"name":"Bajo El Mango","lon":-82.29806,"lat":8.68876,"pop":0},{"id":3714483,"name":"Bajo El Piro","alt":["Bajo del Piro"],"lon":-79.2827,"lat":9.1686,"pop":0},{"id":12208678,"name":"Bajo El Poste","lon":-81.16849,"lat":8.31643,"pop":0},{"id":3711466,"name":"Bajo Escárrea","alt":["Bajo Escarrea","El Bajo de Escarrea","El Bajo de Escárrea"],"lon":-82.6229,"lat":8.47886,"pop":0},{"id":3714475,"name":"Bajo Frío","lon":-82.65574,"lat":8.64137,"pop":73},{"id":12219468,"name":"Bajo Gago","lon":-81.63061,"lat":8.46483,"pop":0},{"id":12199314,"name":"Bajo Gavilán","alt":["Bajo Gavilan"],"lon":-82.50227,"lat":9.27146,"pop":0},{"id":3714467,"name":"Bajo Grande","lon":-79.89495,"lat":8.88069,"pop":0},{"id":3714468,"name":"Bajo Grande","lon":-82.55392,"lat":8.85789,"pop":301},{"id":3714469,"name":"Bajo Grande","lon":-79.9298,"lat":8.67089,"pop":68},{"id":3714470,"name":"Bajo Grande","lon":-80.66206,"lat":8.59194,"pop":0},{"id":3714471,"name":"Bajo Grande","lon":-78.15408,"lat":8.38014,"pop":0},{"id":3714472,"name":"Bajo Grande","lon":-78.15,"lat":8.38333,"pop":0},{"id":10203162,"name":"Bajo Grande","lon":-77.59696,"lat":8.00563,"pop":0},{"id":12192399,"name":"Bajo Grande","lon":-81.88023,"lat":8.34256,"pop":0},{"id":12212094,"name":"Bajo Grande","lon":-80.88553,"lat":7.63903,"pop":0},{"id":12224946,"name":"Bajo Grande","lon":-81.17719,"lat":8.73094,"pop":0},{"id":12229604,"name":"Bajo Grande","lon":-80.8361,"lat":8.18031,"pop":0},{"id":12252800,"name":"Bajo Grande","lon":-80.21682,"lat":8.54078,"pop":0},{"id":12255576,"name":"Bajo Grande","lon":-80.10578,"lat":8.78873,"pop":0},{"id":12299930,"name":"Bajo Grande","lon":-79.17739,"lat":9.53022,"pop":0},{"id":3714463,"name":"Bajo Gualaca","lon":-82.25786,"lat":8.48272,"pop":12},{"id":12218702,"name":"Bajo Guayabal","lon":-81.66205,"lat":8.52687,"pop":0},{"id":3708743,"name":"Bajo Hato Corrales","alt":["Hato Corrales"],"lon":-82.1617,"lat":8.38796,"pop":0},{"id":12220312,"name":"Bajo Higuerón","alt":["Bajo Higueron"],"lon":-81.5473,"lat":8.39095,"pop":0},{"id":3714455,"name":"Bajo Hondo","lon":-82.38029,"lat":8.66835,"pop":0},{"id":3714456,"name":"Bajo Hondo","lon":-82.67044,"lat":8.60287,"pop":0},{"id":3714457,"name":"Bajo Hondo","lon":-82.3,"lat":8.55,"pop":0},{"id":3714458,"name":"Bajo Hondo","lon":-82.72767,"lat":8.44653,"pop":0},{"id":3714459,"name":"Bajo Hondo","lon":-81.65573,"lat":8.39376,"pop":0},{"id":3714461,"name":"Bajo Hondo","alt":["La Corocita"],"lon":-81.58039,"lat":8.2021,"pop":0},{"id":12232213,"name":"Bajo Hondo","lon":-80.9511,"lat":7.72436,"pop":0},{"id":3714460,"name":"Bajo Hondo de Culebra","alt":["Bajo Hondo"],"lon":-81.607,"lat":8.28802,"pop":0},{"id":12186467,"name":"Bajo Hornito","lon":-82.81778,"lat":8.64663,"pop":0},{"id":3714454,"name":"Bajo Jacoy","lon":-81.88862,"lat":8.23835,"pop":0},{"id":3714497,"name":"Bajo La Arena","alt":["Bajo de la Arena"],"lon":-82.58909,"lat":8.47948,"pop":166},{"id":12203880,"name":"Bajo La Estrella","lon":-82.32088,"lat":9.06449,"pop":0},{"id":12198928,"name":"Bajo La Mina","lon":-82.8157,"lat":8.7197,"pop":0},{"id":12190820,"name":"Bajo La Palma","lon":-82.33296,"lat":8.54184,"pop":0},{"id":12191743,"name":"Bajo La Peña","alt":["Bajo La Pena"],"lon":-82.26553,"lat":8.64163,"pop":0},{"id":12236897,"name":"Bajo La Pita","lon":-80.59846,"lat":8.61045,"pop":0},{"id":12202504,"name":"Bajo La Pome","lon":-82.6527,"lat":8.76309,"pop":0},{"id":10347239,"name":"Bajo La Unión","alt":["Bajo La Union"],"lon":-82.86894,"lat":8.8277,"pop":412},{"id":12228626,"name":"Bajo Lajas","lon":-80.78188,"lat":8.41922,"pop":0},{"id":3714453,"name":"Bajo Largo","lon":-82.28539,"lat":8.69722,"pop":4},{"id":12215237,"name":"Bajo Largo","lon":-81.18649,"lat":7.56164,"pop":0},{"id":3714452,"name":"Bajo León","lon":-81.59989,"lat":8.33589,"pop":0},{"id":12202688,"name":"Bajo León","alt":["Bajo Leon"],"lon":-82.25908,"lat":8.71261,"pop":0},{"id":10203163,"name":"Bajo Lepe","lon":-77.60376,"lat":7.99615,"pop":0},{"id":3714485,"name":"Bajo Limón","alt":["Bajo Limon","Bajo del Limon","Bajo del Limón"],"lon":-80.90826,"lat":8.53325,"pop":0},{"id":12192272,"name":"Bajo Limón","alt":["Bajo Limon"],"lon":-81.8562,"lat":8.35285,"pop":0},{"id":12241236,"name":"Bajo Limón","alt":["Bajo Limon"],"lon":-81.18331,"lat":8.35982,"pop":0},{"id":12283871,"name":"Bajo Limpio","lon":-78.9417,"lat":9.01862,"pop":0},{"id":3714449,"name":"Bajo Lino","alt":["Lino"],"lon":-82.44115,"lat":8.79452,"pop":271},{"id":3705816,"name":"Bajo Lirí","alt":["Bajo Liri"],"lon":-81.56292,"lat":8.13698,"pop":0},{"id":12192339,"name":"Bajo Loro","lon":-81.84362,"lat":8.45647,"pop":0},{"id":12241189,"name":"Bajo Los Hatillos","lon":-81.00034,"lat":8.35995,"pop":0},{"id":12220356,"name":"Bajo Macho","lon":-81.74214,"lat":8.36738,"pop":0},{"id":12192281,"name":"Bajo Maíz","alt":["Bajo Maiz"],"lon":-81.83663,"lat":8.35153,"pop":0},{"id":12220366,"name":"Bajo Maraca","lon":-81.74753,"lat":8.36231,"pop":0},{"id":3714448,"name":"Bajo Méndez","lon":-82.34263,"lat":8.64235,"pop":77},{"id":12249958,"name":"Bajo Mesa","lon":-79.73506,"lat":9.44816,"pop":0},{"id":12220281,"name":"Bajo Mina","lon":-81.55602,"lat":8.46595,"pop":0},{"id":3714445,"name":"Bajo Mono","lon":-82.46667,"lat":8.8,"pop":0},{"id":12192408,"name":"Bajo Mono","lon":-81.89184,"lat":8.39586,"pop":0},{"id":12218705,"name":"Bajo Mono","lon":-81.64074,"lat":8.5254,"pop":0},{"id":12220135,"name":"Bajo Mono","lon":-81.59844,"lat":8.44823,"pop":0},{"id":10347517,"name":"Bajo Mosquito","lon":-81.62859,"lat":8.40433,"pop":175},{"id":12199417,"name":"Bajo Nance","lon":-82.71056,"lat":9.5228,"pop":0},{"id":3714444,"name":"Bajo Negro","lon":-82.28072,"lat":8.55581,"pop":0},{"id":12220493,"name":"Bajo Noro","lon":-81.70995,"lat":8.62496,"pop":0},{"id":12220128,"name":"Bajo Nubes","lon":-81.55076,"lat":8.46696,"pop":0},{"id":12299936,"name":"Bajo Obispo","lon":-79.21392,"lat":9.52684,"pop":0},{"id":3703038,"name":"Bajo Perico","alt":["Perico"],"lon":-80.457,"lat":8.6303,"pop":0},{"id":12192267,"name":"Bajo Pilón","alt":["Bajo Pilon"],"lon":-81.85675,"lat":8.3926,"pop":0},{"id":3714442,"name":"Bajo Quiel","lon":-82.45392,"lat":8.80344,"pop":0},{"id":12202725,"name":"Bajo Rovira","lon":-82.46638,"lat":8.71316,"pop":0},{"id":12219615,"name":"Bajo San Pablo","lon":-81.26852,"lat":8.14512,"pop":0},{"id":3714432,"name":"Bajo Seco","lon":-82.66288,"lat":8.55181,"pop":0},{"id":12218722,"name":"Bajo Simet","lon":-81.60458,"lat":8.31216,"pop":0},{"id":10347864,"name":"Bajo Solís","alt":["Bajo Solis"],"lon":-81.53306,"lat":8.32708,"pop":0},{"id":3714431,"name":"Bajo Teta","lon":-80.02283,"lat":8.57059,"pop":0},{"id":12202514,"name":"Bajo Tisingal","lon":-82.68546,"lat":8.80338,"pop":0},{"id":12227108,"name":"Bajo Venao","lon":-81.01801,"lat":8.51452,"pop":0},{"id":3714430,"name":"Bajo Verde","lon":-80.00391,"lat":8.62908,"pop":0},{"id":3714429,"name":"Bajo Viejo","alt":["Bajo Viejo de Santa Maria","Bajo Viejo de Santa María"],"lon":-81.03471,"lat":8.2371,"pop":42},{"id":12228325,"name":"Bajo Viejo","lon":-80.86212,"lat":8.43928,"pop":0},{"id":12220377,"name":"Bajos de Cacicón","alt":["Bajos de Cacicon"],"lon":-81.72141,"lat":8.34749,"pop":0},{"id":12220367,"name":"Bajos de Fonseca","lon":-81.74081,"lat":8.35769,"pop":0},{"id":3714439,"name":"Bajos de Güera","alt":["Bajo de Guera","Bajo de Güera","Bajos de Guera","El Bajo de Guera","El Bajo de Güera"],"lon":-80.62623,"lat":7.54424,"pop":0},{"id":3705512,"name":"Bajos de Higuí","alt":["Bajos de Higui","Bajos de Rio Higui","Bajos de Río Higuí","Los Bajos del Rio Higui","Los Bajos del Río Higuí"],"lon":-81.153,"lat":8.40403,"pop":0},{"id":3714437,"name":"Bajos de Iglesia","lon":-78.06667,"lat":8.53333,"pop":0},{"id":10194900,"name":"Bajos de Iglesias","lon":-78.01265,"lat":8.3958,"pop":0},{"id":3714436,"name":"Bajos de La Honda","alt":["Bajos La Honda"],"lon":-80.97538,"lat":8.27787,"pop":0},{"id":3711458,"name":"Bajos de Los Cholitos","alt":["El Bajo de Los Cholitos","Los Cholitos"],"lon":-81.40281,"lat":8.13074,"pop":0},{"id":3714433,"name":"Bajos de Oria","lon":-80.13384,"lat":7.44793,"pop":0},{"id":3714477,"name":"Bajos de San Juan","alt":["Bajo de San Juan"],"lon":-81.06166,"lat":8.48837,"pop":0},{"id":3705516,"name":"Bajos del Cobre","alt":["Los Bajos del Cobre"],"lon":-81.30857,"lat":8.04919,"pop":57},{"id":3714434,"name":"Bajos del Naranjo","lon":-80.7,"lat":7.7,"pop":31},{"id":3705514,"name":"Bajos del Palmeño","alt":["Bajos del Palmeno","Los Bajos del Palmeno","Los Bajos del Palmeño"],"lon":-81.50313,"lat":7.91266,"pop":0},{"id":12224970,"name":"Bajos del San Pablo","lon":-81.30046,"lat":8.00647,"pop":0},{"id":12228452,"name":"Bajos Las Ollas","lon":-80.81252,"lat":8.54045,"pop":0},{"id":12202351,"name":"Balas Pit","lon":-82.52161,"lat":9.40681,"pop":0},{"id":12202348,"name":"Balas Pit Rural","lon":-82.52581,"lat":9.39491,"pop":0},{"id":12179934,"name":"Balaspit","lon":-82.90124,"lat":8.36009,"pop":0},{"id":3714426,"name":"Balboa","alt":["BLB","Bal'boa","ba bo ya","balboa","balbwa  panama","Бальбоа","بالبوا، پاناما","ბალბოა","巴波亞"],"lon":-79.56672,"lat":8.94814,"pop":807},{"id":3714421,"name":"Balboa Heights","lon":-79.55,"lat":8.95,"pop":0},{"id":3714417,"name":"Balbuena","lon":-80.89428,"lat":8.00778,"pop":77},{"id":12231607,"name":"Balbuenita","lon":-80.8794,"lat":7.97861,"pop":0},{"id":3714411,"name":"Balilla","alt":["Batilla","Bavilla"],"lon":-81.35717,"lat":8.2146,"pop":0},{"id":3714408,"name":"Balita","alt":["Balitas","Las Balita"],"lon":-82.45264,"lat":8.53488,"pop":228},{"id":3714409,"name":"Balita","lon":-82.08419,"lat":8.39931,"pop":48},{"id":12215869,"name":"Balital","lon":-80.51296,"lat":7.84602,"pop":0},{"id":12250147,"name":"Ballestilla","lon":-79.59679,"lat":9.594,"pop":0},{"id":12198505,"name":"Balmito Suiche","lon":-81.79136,"lat":8.53945,"pop":0},{"id":3714399,"name":"Balsa","alt":["Bolsa"],"lon":-79.8,"lat":8.68333,"pop":0},{"id":12269482,"name":"Balsa","lon":-78.64022,"lat":8.78569,"pop":0},{"id":3714393,"name":"Balsa Número Dos","alt":["Balsa Numero 2","Balsa Numero Dos","Balsa Número 2"],"lon":-82.86309,"lat":8.08584,"pop":0},{"id":12228729,"name":"Baltazar","lon":-80.8853,"lat":8.45334,"pop":0},{"id":3714387,"name":"Bambito","lon":-82.61014,"lat":8.83788,"pop":431},{"id":12237427,"name":"Bambito","lon":-80.23745,"lat":9.17629,"pop":0},{"id":12202350,"name":"Bambú","alt":["Bambu"],"lon":-82.50466,"lat":9.40097,"pop":0},{"id":12227041,"name":"Bambú","alt":["Bambu"],"lon":-81.20267,"lat":8.64562,"pop":0},{"id":3714380,"name":"Banazo Abajo","lon":-80.3293,"lat":8.81887,"pop":0},{"id":12210020,"name":"Banazo Arriba","lon":-80.29793,"lat":8.80868,"pop":0},{"id":3714381,"name":"Banazo Centro","alt":["Banazo"],"lon":-80.30336,"lat":8.83695,"pop":69},{"id":12276581,"name":"Banedup Bipi","lon":-78.86207,"lat":9.56523,"pop":0},{"id":12276580,"name":"Banedup Dummad","alt":["Isla Tijereta Grande"],"lon":-78.86106,"lat":9.56632,"pop":0},{"id":12237064,"name":"Baraña","alt":["Barana"],"lon":-80.73429,"lat":8.47638,"pop":0},{"id":12229603,"name":"Barbarena","lon":-80.84623,"lat":8.18265,"pop":0},{"id":12282891,"name":"Barbudera","lon":-78.99498,"lat":8.98841,"pop":0},{"id":3714357,"name":"Barbusal","lon":-80.01667,"lat":9.05,"pop":0},{"id":12252696,"name":"Barcelo Playa Blanca","lon":-80.14805,"lat":8.35308,"pop":0},{"id":3714350,"name":"Barniz","lon":-81.67982,"lat":8.26302,"pop":69},{"id":3711428,"name":"Barnizal","alt":["El Barnizal"],"lon":-80.12639,"lat":9.09755,"pop":0},{"id":3711429,"name":"Barnizal","alt":["El Barnizal"],"lon":-80.97,"lat":8.3157,"pop":0},{"id":3714347,"name":"Barnizal","lon":-80.77765,"lat":8.4046,"pop":74},{"id":12252805,"name":"Barnizal","lon":-80.22118,"lat":8.51845,"pop":0},{"id":12250941,"name":"Barnizal Arriba","lon":-80.12698,"lat":9.07848,"pop":0},{"id":12250885,"name":"Barnizal Número Uno","alt":["Barnizal Numero 1","Barnizal Numero Uno","Barnizal Número 1"],"lon":-80.20045,"lat":9.04617,"pop":0},{"id":12186977,"name":"Barra Cuarenta y Cuatro","alt":["Barra 44"],"lon":-82.46424,"lat":9.48498,"pop":0},{"id":3714340,"name":"Barranca","lon":-82.40009,"lat":8.24422,"pop":0},{"id":12228796,"name":"Barranca Mala","lon":-80.83702,"lat":8.38191,"pop":0},{"id":3714336,"name":"Barranco","alt":["Riverside"],"lon":-82.70424,"lat":9.51984,"pop":1398},{"id":3714339,"name":"Barranco","alt":["Barranca","Caboy"],"lon":-81.94637,"lat":8.38243,"pop":0},{"id":12198608,"name":"Barranco","lon":-81.89288,"lat":8.50557,"pop":0},{"id":12224555,"name":"Barranco","lon":-81.33959,"lat":8.67122,"pop":0},{"id":12228632,"name":"Barranco","lon":-80.78423,"lat":8.44302,"pop":0},{"id":12236621,"name":"Barranco","lon":-80.54396,"lat":9.09221,"pop":0},{"id":12245789,"name":"Barranco","lon":-81.59011,"lat":8.55859,"pop":0},{"id":10211200,"name":"Barranco Adentro","lon":-82.72867,"lat":9.53163,"pop":1349},{"id":10211199,"name":"Barranco Afuera","lon":-82.72271,"lat":9.53277,"pop":0},{"id":3714334,"name":"Barranco Colorado","lon":-80.63673,"lat":8.38777,"pop":52},{"id":12290752,"name":"Barranco Pelao","lon":-77.58776,"lat":8.05649,"pop":0},{"id":3714332,"name":"Barrancón","alt":["Barrancon"],"lon":-80.57217,"lat":7.45783,"pop":0},{"id":12221529,"name":"Barrancón","alt":["Barrancon"],"lon":-81.52794,"lat":8.80824,"pop":0},{"id":3714330,"name":"Barranquilla","lon":-79.96157,"lat":8.63933,"pop":59},{"id":3714331,"name":"Barranquilla","lon":-80.16977,"lat":8.54389,"pop":79},{"id":3714329,"name":"Barranquilla Número Tres","alt":["Barranquila","Barranquilla","Barranquilla Numero 3","Barranquilla Numero Dos","Barranquilla Numero Tres","Barranquilla Número 3","Barranquilla Número Dos"],"lon":-82.19572,"lat":8.91912,"pop":0},{"id":12204225,"name":"Barranquilla Número Uno","alt":["Barranquilla Numero 1","Barranquilla Numero Uno","Barranquilla Número 1"],"lon":-82.08892,"lat":8.86295,"pop":0},{"id":12299794,"name":"Barranquillita","lon":-77.58724,"lat":8.36602,"pop":0},{"id":3714327,"name":"Barrasín","alt":["Barrasin"],"lon":-81.02639,"lat":7.81285,"pop":0},{"id":12268451,"name":"Barraza","lon":-79.91333,"lat":8.74334,"pop":0},{"id":11398365,"name":"Barraza Final","alt":["San Isidro"],"lon":-79.92326,"lat":8.74652,"pop":0},{"id":12268450,"name":"Barraza Número Dos","alt":["Barraza Numero 2","Barraza Numero Dos","Barraza Número 2"],"lon":-79.91565,"lat":8.73914,"pop":0},{"id":12227975,"name":"Barrera","lon":-80.95694,"lat":8.7941,"pop":0},{"id":3714325,"name":"Barrerillo","lon":-81.11946,"lat":8.25015,"pop":0},{"id":12229637,"name":"Barrerillo","lon":-80.80178,"lat":8.25365,"pop":0},{"id":12228719,"name":"Barrerito","lon":-80.91013,"lat":8.48353,"pop":0},{"id":3714323,"name":"Barrero","lon":-82.57194,"lat":8.48796,"pop":0},{"id":12220335,"name":"Barrero","lon":-81.61306,"lat":8.35702,"pop":0},{"id":3714304,"name":"Barrero Amarillo","lon":-80.82414,"lat":7.67351,"pop":0},{"id":12228728,"name":"Barrero Grande","lon":-80.89322,"lat":8.45166,"pop":0},{"id":12219536,"name":"Barrerón","alt":["Barreron"],"lon":-81.27572,"lat":8.05765,"pop":0},{"id":12245841,"name":"Barriada 1 de Mayo","alt":["Barriada Primero de Mayo"],"lon":-79.55805,"lat":9.10963,"pop":0},{"id":12245825,"name":"Barriada 11 de Octubre","alt":["Barriada Once de Octubre"],"lon":-79.57223,"lat":9.12225,"pop":0},{"id":12245552,"name":"Barriada 12 de Julio","alt":["Barriada Doce de Julio"],"lon":-79.5372,"lat":9.08337,"pop":0},{"id":12282858,"name":"Barriada 20 de Diciembre","alt":["Barriada Veinte de Diciembre"],"lon":-78.89053,"lat":9.22349,"pop":0},{"id":12241929,"name":"Barriada 2000","lon":-79.66685,"lat":8.9683,"pop":0},{"id":10180084,"name":"Barriada 24 de Diciembre","alt":["Barriada Veinticuatro de Diciembre","Veinticuatro de Diciembre"],"lon":-79.36293,"lat":9.09582,"pop":0},{"id":11979088,"name":"Barriada 26 de Noviembre","lon":-80.9672,"lat":8.0978,"pop":0},{"id":12241895,"name":"Barriada 28 de Junio","alt":["Barriada Veintiocho de Junio"],"lon":-79.69598,"lat":8.97609,"pop":0},{"id":12268452,"name":"Barriada 31 de Octubre","alt":["Barriada Treinta y Uno de Octubre"],"lon":-79.92161,"lat":8.74169,"pop":0},{"id":12280079,"name":"Barriada 8 de Diciembre","alt":["Barriada Ocho de Diciembre"],"lon":-79.25554,"lat":9.12453,"pop":0},{"id":12202305,"name":"Barriada Administración","alt":["Barriada Administracion"],"lon":-82.6108,"lat":9.49038,"pop":0},{"id":12199272,"name":"Barriada Aeropuerto","lon":-82.40479,"lat":9.29433,"pop":0},{"id":11979276,"name":"Barriada Alto Alfaro","lon":-80.97504,"lat":8.10953,"pop":0},{"id":12242711,"name":"Barriada Alto de Miramar","lon":-79.6162,"lat":8.90217,"pop":0},{"id":12219867,"name":"Barriada Altos de La Feria","lon":-80.40991,"lat":7.92939,"pop":0},{"id":11979190,"name":"Barriada Altos de Santa Ines","lon":-80.98598,"lat":8.08653,"pop":0},{"id":12280138,"name":"Barriada Altos de Tocumen","lon":-79.383,"lat":9.10506,"pop":0},{"id":12280163,"name":"Barriada Altos de Villalobos","lon":-79.44718,"lat":9.09104,"pop":0},{"id":12219228,"name":"Barriada Ana","lon":-80.27066,"lat":7.77256,"pop":0},{"id":12245991,"name":"Barriada Ancón","alt":["Barriada Ancon"],"lon":-79.52941,"lat":9.02648,"pop":0},{"id":11979272,"name":"Barriada Arcoiris","lon":-80.98347,"lat":8.11171,"pop":0},{"id":12280093,"name":"Barriada Arnulfo Arias Madrid","lon":-79.32481,"lat":9.10743,"pop":0},{"id":12280078,"name":"Barriada Arnulfo Escalona","lon":-79.25236,"lat":9.12347,"pop":0},{"id":12258794,"name":"Barriada Aurora","lon":-79.88553,"lat":8.5984,"pop":0},{"id":11979263,"name":"Barriada Bajada de Los Chorros","lon":-80.98811,"lat":8.10241,"pop":0},{"id":12202599,"name":"Barriada Bajo Boquete","lon":-82.4242,"lat":8.75689,"pop":0},{"id":12219714,"name":"Barriada Bella Aurora","lon":-80.46023,"lat":7.97377,"pop":0},{"id":12241931,"name":"Barriada Bella Brisa","lon":-79.66186,"lat":8.9631,"pop":0},{"id":10347323,"name":"Barriada Bella Vista","lon":-82.43088,"lat":8.3726,"pop":0},{"id":12219726,"name":"Barriada Bella Vista","lon":-80.42505,"lat":7.98419,"pop":0},{"id":12219864,"name":"Barriada Bella Vista","lon":-80.40708,"lat":7.93002,"pop":0},{"id":12222158,"name":"Barriada Bella Vista","lon":-80.55174,"lat":7.7289,"pop":0},{"id":12242706,"name":"Barriada Bello Horizonte","lon":-79.61483,"lat":8.90081,"pop":0},{"id":12219231,"name":"Barriada Boulevar","lon":-80.26962,"lat":7.779,"pop":0},{"id":12280080,"name":"Barriada Brisas del Río","alt":["Barriada Brisas del Rio"],"lon":-79.25568,"lat":9.13031,"pop":0},{"id":12258793,"name":"Barriada Brisas del Sol","lon":-79.88459,"lat":8.60876,"pop":0},{"id":12219715,"name":"Barriada Brisas del Valle","lon":-80.46334,"lat":7.97463,"pop":0},{"id":11979282,"name":"Barriada Buena Vista","lon":-80.9754,"lat":8.1216,"pop":0},{"id":12199415,"name":"Barriada Cable Noventa","alt":["Barriada Cable 90"],"lon":-82.71801,"lat":9.52745,"pop":0},{"id":12241308,"name":"Barriada Calle Arenas","lon":-80.02402,"lat":7.54563,"pop":0},{"id":12219914,"name":"Barriada Camino al Cangrejal","lon":-80.41461,"lat":7.97077,"pop":0},{"id":12280094,"name":"Barriada Caminos de Omar","lon":-79.32111,"lat":9.10801,"pop":0},{"id":12242705,"name":"Barriada Cancún","alt":["Barriada Cancun"],"lon":-79.61454,"lat":8.89837,"pop":0},{"id":12199416,"name":"Barriada Catorce de Abril","alt":["Barriada 14 de Abril"],"lon":-82.71574,"lat":9.52976,"pop":0},{"id":12226802,"name":"Barriada Coco Village","lon":-80.27913,"lat":8.40643,"pop":0},{"id":11979180,"name":"Barriada Condado del Sur","lon":-80.97664,"lat":8.09286,"pop":0},{"id":12211116,"name":"Barriada Cuarto Centenario","lon":-80.33746,"lat":8.5112,"pop":0},{"id":12202325,"name":"Barriada Cuatro de Abril","alt":["Barriada 4 de Abril"],"lon":-82.51725,"lat":9.48304,"pop":0},{"id":12219204,"name":"Barriada de Los Ángeles","alt":["Barriada de Los Angeles"],"lon":-80.27725,"lat":7.77434,"pop":0},{"id":12219858,"name":"Barriada Diez de Noviembre","alt":["Barriada 10 de Noviembre"],"lon":-80.40752,"lat":7.92569,"pop":0},{"id":11979093,"name":"Barriada Don Bosco","lon":-80.9743,"lat":8.0993,"pop":0},{"id":12219918,"name":"Barriada Doña Isabel","alt":["Barriada Dona Isabel"],"lon":-80.40591,"lat":7.99084,"pop":0},{"id":11979280,"name":"Barriada Dos Mares","lon":-80.97696,"lat":8.11374,"pop":0},{"id":12219767,"name":"Barriada El Achiote","lon":-80.43091,"lat":7.96676,"pop":0},{"id":12229930,"name":"Barriada El Arranque Número Uno","alt":["Barriada El Arranque Numero 1","Barriada El Arranque Numero Uno","Barriada El Arranque Número 1"],"lon":-80.55978,"lat":8.24429,"pop":0},{"id":12219878,"name":"Barriada El Balo","lon":-80.41717,"lat":7.94131,"pop":0},{"id":3712944,"name":"Barriada El Campesino","alt":["Casas Viejas"],"lon":-82.14121,"lat":8.95497,"pop":0},{"id":12202322,"name":"Barriada El Cangrejo","lon":-82.51147,"lat":9.47299,"pop":0},{"id":11979267,"name":"Barriada El Carmen","lon":-80.98484,"lat":8.10579,"pop":0},{"id":12242787,"name":"Barriada El Carmen","lon":-79.7161,"lat":8.87572,"pop":0},{"id":12219713,"name":"Barriada El Ciruelito","lon":-80.46757,"lat":7.97266,"pop":0},{"id":12222150,"name":"Barriada El Coco","lon":-80.54963,"lat":7.74287,"pop":0},{"id":12275701,"name":"Barriada El Coposo","lon":-78.14065,"lat":8.40402,"pop":0},{"id":12229762,"name":"Barriada El Crisol","lon":-80.661,"lat":8.11573,"pop":0},{"id":12219727,"name":"Barriada El Encanto","lon":-80.42733,"lat":7.98569,"pop":0},{"id":12229953,"name":"Barriada El Gallo","lon":-80.51983,"lat":8.21844,"pop":0},{"id":12219704,"name":"Barriada El Guayabo","lon":-80.45292,"lat":7.95565,"pop":0},{"id":12282855,"name":"Barriada El Irhe","lon":-78.88648,"lat":9.18436,"pop":0},{"id":12219862,"name":"Barriada El Jazmín","alt":["Barriada El Jazmin"],"lon":-80.4001,"lat":7.931,"pop":0},{"id":12280140,"name":"Barriada El Lago","lon":-79.37764,"lat":9.10797,"pop":0},{"id":12245110,"name":"Barriada El Límite","alt":["Barriada El Limite"],"lon":-79.84538,"lat":9.36065,"pop":0},{"id":12245183,"name":"Barriada El Maestro","lon":-79.80783,"lat":9.3405,"pop":0},{"id":12202355,"name":"Barriada El Mayor ”B”","alt":["Barriada El Mayor B"],"lon":-82.5235,"lat":9.40955,"pop":0},{"id":12226804,"name":"Barriada El Mirador","lon":-80.27214,"lat":8.41141,"pop":0},{"id":12245172,"name":"Barriada El Nazareno","lon":-79.86659,"lat":9.3417,"pop":0},{"id":12280077,"name":"Barriada El Nazareno","lon":-79.25768,"lat":9.12071,"pop":0},{"id":12229759,"name":"Barriada El Pollo","lon":-80.70521,"lat":8.12393,"pop":0},{"id":11979275,"name":"Barriada El Progreso","lon":-80.97755,"lat":8.1095,"pop":0},{"id":12242808,"name":"Barriada El Progreso Número Cuatro","alt":["Barriada El Progreso Numero 4","Barriada El Progreso Numero Cuatro","Barriada El Progreso Número 4"],"lon":-79.7429,"lat":8.85929,"pop":0},{"id":12242809,"name":"Barriada El Progreso Número Tres","alt":["Barriada El Progreso Numero 3","Barriada El Progreso Numero Tres","Barriada El Progreso Número 3"],"lon":-79.74719,"lat":8.86221,"pop":0},{"id":12229920,"name":"Barriada El Refugio","lon":-80.57268,"lat":8.25798,"pop":0},{"id":12245089,"name":"Barriada El Río","alt":["Barriada El Rio"],"lon":-79.79605,"lat":9.37177,"pop":0},{"id":12229763,"name":"Barriada El Sol","lon":-80.67073,"lat":8.11692,"pop":0},{"id":12242752,"name":"Barriada Esperanza Número Dos","alt":["Barriada Esperanza Numero 2","Barriada Esperanza Numero Dos","Barriada Esperanza Número 2"],"lon":-79.62844,"lat":8.89094,"pop":0},{"id":10347285,"name":"Barriada Flor de Lima","lon":-82.85738,"lat":8.29488,"pop":0},{"id":12219861,"name":"Barriada Fuente de La Villa","lon":-80.39677,"lat":7.93019,"pop":0},{"id":12256036,"name":"Barriada Fuentes del Chase","lon":-79.75971,"lat":8.88731,"pop":0},{"id":12219879,"name":"Barriada Gadeci","lon":-80.41528,"lat":7.939,"pop":0},{"id":12280141,"name":"Barriada Génesis","alt":["Barriada Genesis"],"lon":-79.39549,"lat":9.11012,"pop":0},{"id":12219880,"name":"Barriada Guadalupe","lon":-80.417,"lat":7.93975,"pop":0},{"id":12280076,"name":"Barriada Hugo Spadafora","lon":-79.26218,"lat":9.11968,"pop":0},{"id":12245162,"name":"Barriada Ibeorgun","lon":-79.85046,"lat":9.34364,"pop":0},{"id":12219853,"name":"Barriada Jesús Nazareno","alt":["Barriada Jesus Nazareno"],"lon":-80.41928,"lat":7.92863,"pop":0},{"id":3711660,"name":"Barriada Juan Demóstenes Arosemena","alt":["Barriada Juan Demostenes Arosemena","Demostenes Arosemena","Demóstenes Arosemena"],"lon":-79.62527,"lat":9.23668,"pop":0},{"id":3714301,"name":"Barriada Juan Demóstenes Arosemena","alt":["Barriada Juan Demostenes Arosemena"],"lon":-79.63123,"lat":9.23077,"pop":0},{"id":10180045,"name":"Barriada Kuna Nega","alt":["Kuna Nega"],"lon":-79.56004,"lat":9.05946,"pop":0},{"id":12230633,"name":"Barriada La Amistad","lon":-80.94067,"lat":8.05859,"pop":0},{"id":12242788,"name":"Barriada La Amistad","lon":-79.71575,"lat":8.87826,"pop":0},{"id":10860632,"name":"Barriada La Arboleda","lon":-80.98173,"lat":8.08349,"pop":0},{"id":12219728,"name":"Barriada La Dormidera","lon":-80.42316,"lat":7.98044,"pop":0},{"id":12219202,"name":"Barriada La Ermita","lon":-80.27958,"lat":7.77074,"pop":0},{"id":12229928,"name":"Barriada La Esmeralda","lon":-80.5332,"lat":8.25268,"pop":0},{"id":11979279,"name":"Barriada La Española","lon":-80.97843,"lat":8.11121,"pop":0},{"id":12203826,"name":"Barriada La Fé","alt":["Barriada La Fe"],"lon":-82.31267,"lat":9.16374,"pop":0},{"id":11979188,"name":"Barriada La Felicidad","lon":-80.9823,"lat":8.0891,"pop":0},{"id":11979187,"name":"Barriada La Gloria","lon":-80.98186,"lat":8.0911,"pop":0},{"id":12211137,"name":"Barriada La Granja","lon":-80.37043,"lat":8.51474,"pop":0},{"id":12202295,"name":"Barriada La Juventud","lon":-82.56135,"lat":9.43508,"pop":0},{"id":12230004,"name":"Barriada La Luz","lon":-80.9619,"lat":8.10924,"pop":0},{"id":12219910,"name":"Barriada La Marañonera","alt":["Barriada La Maranonera"],"lon":-80.40694,"lat":7.96435,"pop":0},{"id":12222159,"name":"Barriada La Nestlé","alt":["Barriada La Nestle"],"lon":-80.55564,"lat":7.72922,"pop":0},{"id":12219242,"name":"Barriada La Pacheca","lon":-80.27102,"lat":7.82523,"pop":0},{"id":12241950,"name":"Barriada La Paz","lon":-79.63786,"lat":8.94176,"pop":0},{"id":12245966,"name":"Barriada La Paz","lon":-79.56026,"lat":9.06167,"pop":0},{"id":12237112,"name":"Barriada La Placita","lon":-80.49794,"lat":8.43175,"pop":0},{"id":10179343,"name":"Barriada La Playita","alt":["La Playita"],"lon":-80.41628,"lat":7.98582,"pop":0},{"id":12219223,"name":"Barriada La Primavera","lon":-80.2675,"lat":7.77134,"pop":0},{"id":12245848,"name":"Barriada La Providencia","lon":-79.54259,"lat":9.11364,"pop":0},{"id":12275699,"name":"Barriada La Puntita","lon":-78.13798,"lat":8.39911,"pop":0},{"id":12219874,"name":"Barriada La Rabelo","lon":-80.41658,"lat":7.93661,"pop":0},{"id":12202300,"name":"Barriada La Reina","lon":-82.55634,"lat":9.42632,"pop":0},{"id":12258796,"name":"Barriada La Soberana","lon":-79.89138,"lat":8.5944,"pop":0},{"id":11979194,"name":"Barriada La Tronosa","lon":-80.98643,"lat":8.08975,"pop":0},{"id":12219220,"name":"Barriada La Tronoza","lon":-80.27498,"lat":7.76204,"pop":0},{"id":11978995,"name":"Barriada La Union","lon":-80.9259,"lat":8.0805,"pop":0},{"id":12219920,"name":"Barriada La Unión","alt":["Barriada La Union"],"lon":-80.40405,"lat":7.99367,"pop":0},{"id":12229922,"name":"Barriada La Unión","alt":["Barriada La Union"],"lon":-80.55956,"lat":8.25088,"pop":0},{"id":12219859,"name":"Barriada La Zona","lon":-80.4051,"lat":7.92605,"pop":0},{"id":11979087,"name":"Barriada Las Acacias","lon":-80.96523,"lat":8.09639,"pop":0},{"id":12199411,"name":"Barriada Las Brisas","lon":-82.74273,"lat":9.54954,"pop":0},{"id":12280090,"name":"Barriada Las Colinas","lon":-79.28774,"lat":9.08807,"pop":0},{"id":12202592,"name":"Barriada Las Flores","lon":-82.4379,"lat":8.79371,"pop":0},{"id":12219890,"name":"Barriada Las Flores","lon":-80.412,"lat":7.9641,"pop":0},{"id":11979270,"name":"Barriada Las Margaritas","lon":-80.98065,"lat":8.10399,"pop":0},{"id":10194326,"name":"Barriada Las Mercedes","alt":["Las Mercedes"],"lon":-78.14393,"lat":8.40201,"pop":0},{"id":12219710,"name":"Barriada Las Palmiras","lon":-80.47121,"lat":7.96618,"pop":0},{"id":12229766,"name":"Barriada Las Pampas","lon":-80.67383,"lat":8.11342,"pop":0},{"id":12219850,"name":"Barriada Las Peñitas Número Dos","alt":["Barriada Las Penitas Numero 2","Barriada Las Penitas Numero Dos","Barriada Las Peñitas Número 2"],"lon":-80.42184,"lat":7.95557,"pop":0},{"id":12202511,"name":"Barriada Las Perlas","lon":-82.6467,"lat":8.79154,"pop":0},{"id":12222151,"name":"Barriada Las Plumas Negras","lon":-80.54929,"lat":7.7405,"pop":0},{"id":12199273,"name":"Barriada Las Vegas","lon":-82.39898,"lat":9.29528,"pop":0},{"id":12245180,"name":"Barriada Límite","alt":["Barriada Limite"],"lon":-79.86538,"lat":9.33373,"pop":0},{"id":10860625,"name":"Barriada Linda","lon":-80.97795,"lat":8.09849,"pop":0},{"id":12219232,"name":"Barriada Linda Vista","lon":-80.27161,"lat":7.78091,"pop":0},{"id":12245144,"name":"Barriada Lo Nuestro","lon":-79.79551,"lat":9.3447,"pop":0},{"id":12199270,"name":"Barriada Loma Brava","lon":-82.39801,"lat":9.29877,"pop":0},{"id":12229937,"name":"Barriada Los Ángeles","alt":["Barriada Los Angeles"],"lon":-80.52659,"lat":8.24913,"pop":0},{"id":12226816,"name":"Barriada Los Destiladeros","lon":-80.04648,"lat":7.47037,"pop":0},{"id":12215819,"name":"Barriada Los Milagros","lon":-80.60983,"lat":7.90589,"pop":0},{"id":12280313,"name":"Barriada Los Nogales","lon":-79.41187,"lat":9.08057,"pop":0},{"id":12219203,"name":"Barriada Los Pinos","lon":-80.27829,"lat":7.77203,"pop":0},{"id":12219872,"name":"Barriada Los Pinos","lon":-80.40989,"lat":7.93405,"pop":0},{"id":12242751,"name":"Barriada Los Pinos","lon":-79.62918,"lat":8.89377,"pop":0},{"id":12245820,"name":"Barriada Los Pinos","lon":-79.55172,"lat":9.16465,"pop":0},{"id":12204198,"name":"Barriada Lucas del Cid","lon":-82.17584,"lat":8.92603,"pop":0},{"id":12229961,"name":"Barriada Malambo","lon":-80.55411,"lat":8.24709,"pop":0},{"id":12258792,"name":"Barriada Malambo","lon":-79.88757,"lat":8.60626,"pop":0},{"id":12252763,"name":"Barriada Mariagar","lon":-80.13345,"lat":8.60778,"pop":0},{"id":12222148,"name":"Barriada Medalla Milagrosa","lon":-80.54453,"lat":7.73542,"pop":0},{"id":12280075,"name":"Barriada Mireya","lon":-79.26655,"lat":9.11727,"pop":0},{"id":12258808,"name":"Barriada Mivi","lon":-79.88117,"lat":8.58132,"pop":0},{"id":12242801,"name":"Barriada Montelimar","lon":-79.74399,"lat":8.9039,"pop":0},{"id":12219871,"name":"Barriada Monteza","lon":-80.40829,"lat":7.93228,"pop":0},{"id":12222165,"name":"Barriada Nazareno","lon":-80.55085,"lat":7.72348,"pop":0},{"id":12208488,"name":"Barriada Nueva","lon":-81.87806,"lat":8.28353,"pop":0},{"id":12202323,"name":"Barriada Nueva Esperanza","lon":-82.50832,"lat":9.47504,"pop":0},{"id":12219237,"name":"Barriada Nueva Esperanza","lon":-80.25531,"lat":7.791,"pop":0},{"id":12247886,"name":"Barriada Nueva Esperanza Número Dos","alt":["Barriada Nueva Esperanza Numero 2","Barriada Nueva Esperanza Numero Dos","Barriada Nueva Esperanza Número 2"],"lon":-79.7135,"lat":9.28327,"pop":0},{"id":12219913,"name":"Barriada Nueva Generación","alt":["Barriada Nueva Generacion"],"lon":-80.41216,"lat":7.97027,"pop":0},{"id":12219919,"name":"Barriada Nueva Soberanía","alt":["Barriada Nueva Soberania"],"lon":-80.40655,"lat":7.9927,"pop":0},{"id":10347286,"name":"Barriada Nuevo Amanecer","lon":-82.85442,"lat":8.28515,"pop":0},{"id":12280156,"name":"Barriada Nuevo Amanecer","lon":-79.4101,"lat":9.09752,"pop":0},{"id":12250243,"name":"Barriada Nuevo Arco Iris","lon":-79.8767,"lat":9.32655,"pop":0},{"id":12282860,"name":"Barriada Nuevo Horizonte","lon":-78.89028,"lat":9.21816,"pop":0},{"id":11979277,"name":"Barriada Nuevo San Juan","lon":-80.98063,"lat":8.11363,"pop":0},{"id":12219217,"name":"Barriada Omar Torrijos","lon":-80.26806,"lat":7.76369,"pop":0},{"id":12219870,"name":"Barriada Once de Noviembre","alt":["Barriada 11 de Noviembre"],"lon":-80.40449,"lat":7.93697,"pop":0},{"id":3710793,"name":"Barriada Once de Octubre","alt":["Barriada 12 de Octubre","Barriada Doce de Octubre","El Guabo"],"lon":-80.55571,"lat":7.71925,"pop":0},{"id":10179342,"name":"Barriada Once de Octubre","lon":-80.55666,"lat":7.71324,"pop":0},{"id":10179756,"name":"Barriada Once de Octubre","alt":["Barriada 11 de Octubre","Once de Octubre"],"lon":-79.84013,"lat":9.36931,"pop":0},{"id":11398369,"name":"Barriada Panamá","alt":["Barriada Panama"],"lon":-79.61542,"lat":8.89569,"pop":0},{"id":12202324,"name":"Barriada Paraíso","alt":["Barriada Paraiso"],"lon":-82.5095,"lat":9.47763,"pop":0},{"id":11979271,"name":"Barriada Paritilla","lon":-80.97982,"lat":8.10914,"pop":0},{"id":11979269,"name":"Barriada Paso Las Tablas","lon":-80.98176,"lat":8.10576,"pop":0},{"id":12252500,"name":"Barriada Playa del Sol","lon":-80.02161,"lat":8.4276,"pop":0},{"id":12229838,"name":"Barriada Poder Popular","lon":-80.513,"lat":8.00082,"pop":0},{"id":12219852,"name":"Barriada Pozo del Obispo","lon":-80.42314,"lat":7.92666,"pop":0},{"id":12219869,"name":"Barriada Pueblo Nuevo","lon":-80.41264,"lat":7.93128,"pop":0},{"id":12229943,"name":"Barriada Pueblo Nuevo","lon":-80.61695,"lat":8.22611,"pop":0},{"id":12219780,"name":"Barriada Rayo de Luz","lon":-80.43243,"lat":7.95746,"pop":0},