[{"id":11776198,"name":"7 de Mayo","lon":-76.01114,"lat":-9.28096,"pop":0},{"id":3969913,"name":"A. H. Nueve de Octubre","lon":-78.13556,"lat":-10.10306,"pop":0},{"id":9878665,"name":"A.H. Horacio Zevallos","lon":-76.83633,"lat":-12.01297,"pop":0},{"id":9878613,"name":"A.H. Huaycan","lon":-76.82059,"lat":-12.01014,"pop":0},{"id":9890927,"name":"A.H. Rosales","lon":-77.00513,"lat":-11.95622,"pop":0},{"id":6381965,"name":"Aaycha","lon":-74.5597,"lat":-13.95771,"pop":0},{"id":3948642,"name":"Abancay","alt":["Abancai","Abancaius","Abankaj","Abankajus","Abankay","Avan'kai","Awankay","a ban kai","abangkai","abankai","abankay","awankayy","Αβανκάι","Абанкай","آبانکای","اوانکائی","აბანკაი","アバンカイ","阿班凯","아방카이"],"lon":-72.88139,"lat":-13.63389,"pop":72277},{"id":3948640,"name":"Abas Chacra","lon":-73.49634,"lat":-15.42569,"pop":0},{"id":11512554,"name":"Abeja","lon":-69.39262,"lat":-11.41495,"pop":0},{"id":3948639,"name":"Abisinia","lon":-75.7,"lat":-13.98333,"pop":0},{"id":11558355,"name":"Abra Huchuy","lon":-69.22289,"lat":-14.48614,"pop":0},{"id":6564173,"name":"Abra Los Mellizos","lon":-75.17994,"lat":-10.71235,"pop":0},{"id":9875335,"name":"Abra Machungo","lon":-76.2844,"lat":-6.69789,"pop":0},{"id":11558330,"name":"Abra Maróncunca","alt":["Abra Maroncunca"],"lon":-69.195,"lat":-14.19075,"pop":0},{"id":3948635,"name":"Abracala","lon":-71.73405,"lat":-16.11408,"pop":0},{"id":3948634,"name":"Abrahuillque","alt":["Abra de Huillque"],"lon":-72.38722,"lat":-13.44722,"pop":0},{"id":8662417,"name":"Abransopampa","lon":-74.78364,"lat":-12.7927,"pop":0},{"id":3742985,"name":"Abrojal","lon":-79.42791,"lat":-6.64516,"pop":0},{"id":3820090,"name":"Abrojal","lon":-79.80213,"lat":-6.37397,"pop":0},{"id":3699889,"name":"Abujao","lon":-73.76667,"lat":-8.18333,"pop":0},{"id":3699885,"name":"Aburgos","lon":-78.18333,"lat":-8.31667,"pop":0},{"id":3965161,"name":"Acabara","lon":-73.94756,"lat":-13.11638,"pop":0},{"id":3948630,"name":"Acachare","lon":-76.2,"lat":-12.28333,"pop":0},{"id":6674939,"name":"Acachayo","lon":-75.28739,"lat":-11.9847,"pop":0},{"id":8651453,"name":"Acachuas","lon":-74.48781,"lat":-12.97853,"pop":0},{"id":3948624,"name":"Acain","lon":-76.80083,"lat":-10.89333,"pop":133},{"id":3948623,"name":"Acalcane","lon":-72.44947,"lat":-15.04103,"pop":0},{"id":3948622,"name":"Acallario","lon":-74.52632,"lat":-13.86037,"pop":0},{"id":6304549,"name":"Acalle","lon":-75.65,"lat":-12.35472,"pop":0},{"id":3948621,"name":"Acanane","lon":-69.3364,"lat":-15.41318,"pop":0},{"id":3958722,"name":"Acancocha","lon":-75.75778,"lat":-11.02611,"pop":206},{"id":3957065,"name":"Acanuari","lon":-71.68007,"lat":-14.796,"pop":0},{"id":8664231,"name":"Acao","lon":-74.852,"lat":-12.30374,"pop":72},{"id":3948619,"name":"Acapampa","lon":-70.06667,"lat":-15.36667,"pop":0},{"id":3818120,"name":"Acapulco","lon":-80.77785,"lat":-3.74514,"pop":0},{"id":6394165,"name":"Acapulco","lon":-77.1375,"lat":-4.72333,"pop":99},{"id":3948615,"name":"Acaray","alt":["Acaray Hacienda","Hacienda Acaray"],"lon":-77.54859,"lat":-11.05348,"pop":313},{"id":6303592,"name":"Acarca","lon":-75.84389,"lat":-12.19972,"pop":0},{"id":3948613,"name":"Acarí","alt":["Acari"],"lon":-74.61361,"lat":-15.42393,"pop":4445},{"id":3948610,"name":"Acaricocha","alt":["Acancocha"],"lon":-75.76667,"lat":-11.15,"pop":0},{"id":3948608,"name":"Acas","lon":-77.32729,"lat":-10.45778,"pop":449},{"id":6674674,"name":"Acashalaco","lon":-75.36029,"lat":-11.82488,"pop":0},{"id":3948605,"name":"Acathuta","lon":-69.7218,"lat":-17.31939,"pop":0},{"id":6671304,"name":"Acaya","lon":-75.59817,"lat":-11.80221,"pop":138},{"id":3953839,"name":"Acce Punco","lon":-71.29583,"lat":-14.25691,"pop":0},{"id":3955969,"name":"Accepata","lon":-71.33781,"lat":-15.21525,"pop":0},{"id":3956591,"name":"Accerane","lon":-71.92559,"lat":-14.6349,"pop":0},{"id":3948602,"name":"Accha","lon":-71.82667,"lat":-13.97389,"pop":0},{"id":3948601,"name":"Acchabamba","alt":["Acchabamba Hacienda"],"lon":-72.08269,"lat":-13.84672,"pop":0},{"id":6670331,"name":"Acchacas","lon":-76.32409,"lat":-9.79462,"pop":16},{"id":3951119,"name":"Acchanca","lon":-72.56138,"lat":-15.73743,"pop":2},{"id":3948599,"name":"Acchapuna","lon":-72.94538,"lat":-15.47814,"pop":53},{"id":8677391,"name":"Acchemachay","lon":-74.94698,"lat":-13.03288,"pop":0},{"id":8664432,"name":"Acchi","lon":-74.60628,"lat":-12.49478,"pop":0},{"id":8662631,"name":"Acchicuchopampa","lon":-74.87372,"lat":-12.765,"pop":0},{"id":8678138,"name":"Acchihuachanan","lon":-74.90694,"lat":-13.42085,"pop":0},{"id":3948596,"name":"Acchimachay","lon":-74.79486,"lat":-13.36247,"pop":7},{"id":3699883,"name":"Acchupata","lon":-78.02841,"lat":-7.30437,"pop":0},{"id":3950472,"name":"Accitinquina","lon":-71.75638,"lat":-15.57745,"pop":0},{"id":3948594,"name":"Accmay","lon":-73.96265,"lat":-13.75754,"pop":29},{"id":3699882,"name":"Acco","lon":-77.1,"lat":-9.06667,"pop":0},{"id":3953427,"name":"Acco","lon":-71.43583,"lat":-14.20194,"pop":0},{"id":3955816,"name":"Acco","lon":-72.89421,"lat":-15.10435,"pop":2},{"id":3955822,"name":"Acco","lon":-72.8931,"lat":-15.16215,"pop":0},{"id":6309106,"name":"Acco","lon":-73.05644,"lat":-13.64924,"pop":200},{"id":6309306,"name":"Acco","lon":-73.02761,"lat":-13.93818,"pop":11},{"id":6368733,"name":"Acco","lon":-75.30083,"lat":-13.59361,"pop":80},{"id":8647808,"name":"Acco","lon":-74.02667,"lat":-12.92914,"pop":709},{"id":8673732,"name":"Acco","alt":["Hacienda Acco"],"lon":-74.0742,"lat":-13.22384,"pop":310},{"id":3957087,"name":"Acco Rana","lon":-71.25556,"lat":-15.39944,"pop":0},{"id":3956587,"name":"Acco Sututo","lon":-71.91808,"lat":-14.61387,"pop":0},{"id":6309307,"name":"Accobambas","lon":-73.02092,"lat":-13.94551,"pop":0},{"id":3948590,"name":"Accocancha Alto","lon":-75.43998,"lat":-12.18437,"pop":0},{"id":3948586,"name":"Accoccasa","lon":-75.18455,"lat":-13.89486,"pop":0},{"id":3948587,"name":"Accoccasa","lon":-74.06667,"lat":-13.58333,"pop":0},{"id":3948588,"name":"Accoccasa","lon":-74.33333,"lat":-13.53333,"pop":0},{"id":8662875,"name":"Accoccasha","lon":-74.91821,"lat":-12.66698,"pop":0},{"id":3948582,"name":"Accocerca","lon":-74.95509,"lat":-13.1334,"pop":0},{"id":3948579,"name":"Accocucho","lon":-74.70592,"lat":-13.25963,"pop":0},{"id":3948580,"name":"Accocucho","lon":-74.61448,"lat":-13.17826,"pop":0},{"id":3948490,"name":"Accocunca","alt":["Acco Cunca","Aco","Acoccunca","Acocunca"],"lon":-71.25417,"lat":-14.76944,"pop":247},{"id":3948578,"name":"Accocunca","lon":-74.01667,"lat":-13.88333,"pop":7},{"id":3955203,"name":"Accocunta","lon":-71.68689,"lat":-15.20809,"pop":0},{"id":8661917,"name":"Accoera","lon":-74.64132,"lat":-12.57977,"pop":0},{"id":3956771,"name":"Accohuasa","lon":-71.50489,"lat":-14.92294,"pop":0},{"id":3948577,"name":"Accohuaycco","lon":-74.24901,"lat":-15.13946,"pop":0},{"id":8677160,"name":"Accolla","lon":-74.91515,"lat":-13.32413,"pop":0},{"id":3951512,"name":"Accoma","lon":-71.37026,"lat":-15.74711,"pop":0},{"id":8662032,"name":"Accomachay","lon":-74.60124,"lat":-12.76592,"pop":42},{"id":3948574,"name":"Accomarca","lon":-73.90343,"lat":-13.80029,"pop":639},{"id":3948573,"name":"Accomocco","lon":-74.2,"lat":-13.58333,"pop":0},{"id":6309265,"name":"Accomocco","lon":-73.09944,"lat":-13.88861,"pop":0},{"id":6391786,"name":"Accomocco","lon":-72.345,"lat":-13.74778,"pop":0},{"id":3951608,"name":"Accontaña","lon":-71.32907,"lat":-15.53359,"pop":0},{"id":3948572,"name":"Accopampa","lon":-74.93173,"lat":-13.07774,"pop":14},{"id":3948570,"name":"Accopata","lon":-74.63123,"lat":-13.32712,"pop":2},{"id":3948571,"name":"Accopata","lon":-74.83401,"lat":-13.29191,"pop":19},{"id":3956705,"name":"Accopata","lon":-71.35548,"lat":-15.3495,"pop":0},{"id":8679353,"name":"Accopata","lon":-74.65304,"lat":-13.21175,"pop":0},{"id":11792842,"name":"Accopata","lon":-69.47748,"lat":-15.36817,"pop":90},{"id":3955958,"name":"Accopiñata","lon":-71.38414,"lat":-15.18977,"pop":0},{"id":6670130,"name":"Accopite","lon":-76.42345,"lat":-9.81092,"pop":0},{"id":3957196,"name":"Accopunco","lon":-71.82552,"lat":-14.93699,"pop":9},{"id":3948567,"name":"Accopuquío","lon":-74.38333,"lat":-13.18333,"pop":7},{"id":3948564,"name":"Accorane","lon":-71.39261,"lat":-15.23143,"pop":0},{"id":6309029,"name":"Accos Puquio","lon":-73.17951,"lat":-13.59495,"pop":0},{"id":3948562,"name":"Accosanqui","lon":-73.78798,"lat":-15.0977,"pop":7},{"id":3948561,"name":"Accositanga","lon":-73.18715,"lat":-15.20445,"pop":0},{"id":3956244,"name":"Accosora","lon":-71.31445,"lat":-15.22704,"pop":0},{"id":3948560,"name":"Accota","lon":-72.49082,"lat":-15.66701,"pop":0},{"id":3955257,"name":"Accotaña","lon":-71.88599,"lat":-15.27307,"pop":5},{"id":3948559,"name":"Accotira","lon":-71.24027,"lat":-15.10003,"pop":0},{"id":3955978,"name":"Accoytanca","lon":-71.25996,"lat":-15.19986,"pop":0},{"id":3948555,"name":"Accsahua","lon":-74.89553,"lat":-13.14577,"pop":0},{"id":3948554,"name":"Accuata","lon":-70.91694,"lat":-15.08889,"pop":0},{"id":8677385,"name":"Accurupampa","lon":-74.99601,"lat":-13.03453,"pop":0},{"id":3948412,"name":"Accy","alt":["Acoy"],"lon":-72.48482,"lat":-16.02039,"pop":0},{"id":6368235,"name":"Aceitepampa","lon":-78.20611,"lat":-8.82,"pop":0},{"id":6670206,"name":"Aceitiyoc","lon":-76.25638,"lat":-9.86016,"pop":0},{"id":6675480,"name":"Acejar Punta","lon":-76.95073,"lat":-9.21771,"pop":0},{"id":3948550,"name":"Acéquia Alta","lon":-71.54319,"lat":-16.35609,"pop":0},{"id":3967093,"name":"Acerca","lon":-76.69861,"lat":-11.09583,"pop":0},{"id":6392246,"name":"Acero","lon":-72.12167,"lat":-13.91028,"pop":0},{"id":3948549,"name":"Acero Patjata","lon":-69.13893,"lat":-16.2553,"pop":0},{"id":6308403,"name":"Aceroccocha","lon":-73.40568,"lat":-13.74449,"pop":0},{"id":3957152,"name":"Aceroccollo","lon":-71.79165,"lat":-14.8002,"pop":0},{"id":6308622,"name":"Aceropata","lon":-73.26139,"lat":-13.99222,"pop":0},{"id":6665947,"name":"Achac","lon":-76.71568,"lat":-9.69294,"pop":0},{"id":3948548,"name":"Achacala","lon":-70.35108,"lat":-16.72303,"pop":0},{"id":3948547,"name":"Achacalane","lon":-70.58035,"lat":-16.69128,"pop":0},{"id":3948546,"name":"Achacana","lon":-74.97861,"lat":-13.62833,"pop":0},{"id":3948545,"name":"Achacarca","lon":-69.55238,"lat":-15.035,"pop":0},{"id":3955073,"name":"Achacco","lon":-71.62098,"lat":-15.15312,"pop":0},{"id":3948544,"name":"Achachorcro","lon":-71.76207,"lat":-15.3347,"pop":0},{"id":3948541,"name":"Achaco","lon":-72.45601,"lat":-15.37465,"pop":0},{"id":3948542,"name":"Achaco","lon":-72.48296,"lat":-15.22432,"pop":0},{"id":3948543,"name":"Achaco","alt":["Achaco Bajo","Achaco Hacienda"],"lon":-74.98333,"lat":-14.83333,"pop":0},{"id":3953450,"name":"Achaco","lon":-72.42153,"lat":-15.25379,"pop":0},{"id":8677821,"name":"Achaco","lon":-74.85477,"lat":-13.3183,"pop":0},{"id":3948539,"name":"Achacota","alt":["Achacota Hacienda"],"lon":-71.43358,"lat":-15.57274,"pop":0},{"id":3948537,"name":"Achacpujo","lon":-70.10209,"lat":-16.85002,"pop":0},{"id":3699881,"name":"Achacuas","lon":-78.03163,"lat":-9.11741,"pop":0},{"id":3948535,"name":"Achacune","lon":-71.05152,"lat":-16.05513,"pop":0},{"id":6392816,"name":"Achacune","lon":-69.73309,"lat":-17.35321,"pop":0},{"id":6392969,"name":"Achacune","lon":-69.60183,"lat":-17.19917,"pop":0},{"id":3957535,"name":"Achacutaña","lon":-71.15535,"lat":-15.50183,"pop":0},{"id":3811917,"name":"Achaguay Alto","lon":-78.48664,"lat":-5.59165,"pop":151},{"id":3762280,"name":"Achaguay Bajo","lon":-78.51263,"lat":-5.60338,"pop":90},{"id":3811916,"name":"Achaguay Medio","lon":-78.49432,"lat":-5.59715,"pop":0},{"id":3956965,"name":"Achahue","lon":-71.66309,"lat":-14.77739,"pop":0},{"id":3957067,"name":"Achahue","lon":-71.69042,"lat":-14.79028,"pop":0},{"id":3956819,"name":"Achajrane","lon":-71.5491,"lat":-14.96295,"pop":0},{"id":3948533,"name":"Achalaca","lon":-71.3931,"lat":-15.30124,"pop":4},{"id":3957090,"name":"Achaluke","lon":-71.68143,"lat":-14.71297,"pop":0},{"id":3948532,"name":"Achamocco","lon":-69.6,"lat":-16.41667,"pop":0},{"id":3948531,"name":"Achancayra","lon":-72.23333,"lat":-13.85,"pop":0},{"id":6308222,"name":"Achanchi","lon":-73.42371,"lat":-13.58337,"pop":0},{"id":3948529,"name":"Achanizo","lon":-73.96694,"lat":-15.80611,"pop":352},{"id":3962786,"name":"Achao","lon":-76.70194,"lat":-11.00222,"pop":0},{"id":6664815,"name":"Achao","lon":-77.21663,"lat":-10.29829,"pop":0},{"id":8662685,"name":"Achapata","lon":-74.86515,"lat":-12.70496,"pop":205},{"id":3956898,"name":"Achapicuta","lon":-71.60599,"lat":-14.71685,"pop":0},{"id":8664525,"name":"Achaque","lon":-74.74019,"lat":-12.13015,"pop":0},{"id":3948528,"name":"Achara","lon":-76.21667,"lat":-12.06667,"pop":0},{"id":3948527,"name":"Acharrape","lon":-71.85269,"lat":-15.24398,"pop":0},{"id":3948523,"name":"Achatayhua","lon":-73.83091,"lat":-15.45625,"pop":0},{"id":3948522,"name":"Achaya","lon":-70.15,"lat":-15.26667,"pop":117},{"id":3948521,"name":"Achaypiña","lon":-69.82332,"lat":-16.37318,"pop":0},{"id":6308423,"name":"Achcacorral","lon":-73.43759,"lat":-13.76296,"pop":0},{"id":3948520,"name":"Achcahuasi","lon":-74.67123,"lat":-13.3782,"pop":0},{"id":6379833,"name":"Ache","lon":-77.86833,"lat":-9.00667,"pop":0},{"id":6304753,"name":"Achicayacu","lon":-75.47889,"lat":-10.48083,"pop":0},{"id":3948518,"name":"Achico","lon":-74.82527,"lat":-13.19099,"pop":0},{"id":8661999,"name":"Achijasa","lon":-74.67104,"lat":-12.77022,"pop":0},{"id":3960576,"name":"Achimpa","lon":-76.46617,"lat":-10.03652,"pop":0},{"id":6303793,"name":"Achín","lon":-75.87694,"lat":-12.43778,"pop":76},{"id":6302838,"name":"Achin Molle Grande","lon":-74.16806,"lat":-11.16806,"pop":0},{"id":3699880,"name":"Achinamisa","alt":["Yarina"],"lon":-75.90297,"lat":-6.48465,"pop":0},{"id":7541357,"name":"Achinamiza","lon":-76.06164,"lat":-6.54967,"pop":0},{"id":3948514,"name":"Achipina","lon":-71.32788,"lat":-15.21962,"pop":0},{"id":3761250,"name":"Achira","lon":-79.66514,"lat":-5.69983,"pop":0},{"id":3699878,"name":"Achiras","lon":-76.53333,"lat":-8.65,"pop":0},{"id":3699879,"name":"Achiras","lon":-77.12324,"lat":-7.72829,"pop":0},{"id":8650672,"name":"Achitayoc","lon":-74.32858,"lat":-12.80321,"pop":0},{"id":3948512,"name":"Acho","lon":-72.30843,"lat":-15.65925,"pop":42},{"id":3948513,"name":"Acho","lon":-75.76564,"lat":-12.95172,"pop":0},{"id":3959775,"name":"Achoacorral","lon":-73.71417,"lat":-14.31278,"pop":0},{"id":11792798,"name":"Achocallane","lon":-69.30855,"lat":-15.2128,"pop":27},{"id":11792786,"name":"Achocallani","lon":-69.34724,"lat":-15.1849,"pop":14},{"id":8661969,"name":"Achocana","lon":-74.59889,"lat":-12.73187,"pop":0},{"id":11558963,"name":"Achoccallani","lon":-69.63836,"lat":-13.89153,"pop":0},{"id":3948510,"name":"Achoma","lon":-71.70083,"lat":-15.66083,"pop":0},{"id":3955839,"name":"Achombi","lon":-72.8175,"lat":-15.20306,"pop":0},{"id":3820098,"name":"Achotal","lon":-79.79876,"lat":-6.39139,"pop":0},{"id":6309264,"name":"Achotalo","lon":-73.10649,"lat":-13.8846,"pop":171},{"id":3948508,"name":"Achoucco","lon":-69.79704,"lat":-16.26873,"pop":0},{"id":6278887,"name":"Achual","lon":-71.23028,"lat":-3.81,"pop":88},{"id":3742787,"name":"Achucala","lon":-79.26107,"lat":-6.31962,"pop":109},{"id":3948507,"name":"Achuchata","lon":-74.03333,"lat":-13.26667,"pop":0},{"id":6303635,"name":"Achucura","lon":-75.85583,"lat":-12.28083,"pop":1},{"id":3948506,"name":"Achullane","lon":-69.53251,"lat":-15.01158,"pop":0},{"id":3948505,"name":"Achumane","lon":-71.46563,"lat":-15.11794,"pop":2},{"id":3954093,"name":"Achumoyo","lon":-71.06028,"lat":-14.42694,"pop":0},{"id":3948501,"name":"Achupallane","lon":-71.55111,"lat":-15.13417,"pop":0},{"id":6374406,"name":"Achupapata","lon":-73.93098,"lat":-13.70728,"pop":0},{"id":6379390,"name":"Achupas","lon":-77.91545,"lat":-6.7837,"pop":78},{"id":3956508,"name":"Achuranja","lon":-71.13278,"lat":-15.29861,"pop":0},{"id":6674638,"name":"Achuscullo","lon":-75.42284,"lat":-11.9031,"pop":0},{"id":6392965,"name":"Achuta","lon":-69.57744,"lat":-17.17839,"pop":0},{"id":6310242,"name":"Achutaachutapatja","lon":-69.26485,"lat":-16.82609,"pop":0},{"id":3955977,"name":"Achutaña","lon":-71.27407,"lat":-15.20373,"pop":1},{"id":3955224,"name":"Achuyo","lon":-71.61861,"lat":-15.20639,"pop":0},{"id":6671183,"name":"Aciacocha","lon":-75.89409,"lat":-11.74177,"pop":0},{"id":6671120,"name":"Acirumi","lon":-75.78527,"lat":-11.69693,"pop":0},{"id":6380478,"name":"Aclla","lon":-77.525,"lat":-9.45917,"pop":90},{"id":3948498,"name":"Acllacancha","lon":-74.30348,"lat":-14.60756,"pop":0},{"id":3948497,"name":"Acllahuasi","lon":-74.18333,"lat":-13,"pop":129},{"id":8661569,"name":"Acllahuasi","lon":-74.52459,"lat":-12.54209,"pop":53},{"id":3948494,"name":"Acmanupampa","alt":["Acmanunpata"],"lon":-70.16667,"lat":-15.28333,"pop":0},{"id":3948493,"name":"Acno","lon":-75.58901,"lat":-12.46458,"pop":0},{"id":3699873,"name":"Aco","lon":-77.88333,"lat":-8.53333,"pop":284},{"id":3948489,"name":"Aco","lon":-72.48245,"lat":-15.70306,"pop":1},{"id":3948491,"name":"Aco","lon":-75.36996,"lat":-11.95707,"pop":0},{"id":3948492,"name":"Aco","lon":-77.24149,"lat":-10.49718,"pop":418},{"id":3951356,"name":"Aco","lon":-72.6325,"lat":-15.86278,"pop":4},{"id":3956607,"name":"Aco","lon":-71.14239,"lat":-15.33795,"pop":0},{"id":3968761,"name":"Aco","lon":-76.81222,"lat":-11.43111,"pop":0},{"id":6380504,"name":"Aco","lon":-77.56457,"lat":-9.36801,"pop":322},{"id":8663671,"name":"Aco Cruz","lon":-74.8905,"lat":-12.01547,"pop":0},{"id":3954633,"name":"Aco Pucro","lon":-71.26898,"lat":-15.158,"pop":0},{"id":3699872,"name":"Acobamba","alt":["Acobamba Hacienda"],"lon":-77.01667,"lat":-8.95,"pop":0},{"id":3948481,"name":"Acobamba","alt":["Acobamba Hacienda"],"lon":-72.2,"lat":-14.25,"pop":0},{"id":3948482,"name":"Acobamba","lon":-72.76667,"lat":-13.45,"pop":0},{"id":3948483,"name":"Acobamba","lon":-71.8,"lat":-13.08333,"pop":0},{"id":3948484,"name":"Acobamba","lon":-74.56667,"lat":-12.86667,"pop":0},{"id":3948485,"name":"Acobamba","lon":-76.49889,"lat":-11.55,"pop":379},{"id":3948486,"name":"Acobamba","lon":-75.66211,"lat":-11.35252,"pop":0},{"id":3962965,"name":"Acobamba","lon":-76.26787,"lat":-10.26406,"pop":0},{"id":3963559,"name":"Acobamba","lon":-76.18888,"lat":-10.45126,"pop":0},{"id":3967422,"name":"Acobamba","lon":-76.67778,"lat":-11.17722,"pop":0},{"id":6306591,"name":"Acobamba","lon":-75.85056,"lat":-10.26528,"pop":0},{"id":6309410,"name":"Acobamba","lon":-73.24694,"lat":-13.30417,"pop":0},{"id":6380196,"name":"Acobamba","lon":-77.74128,"lat":-9.14365,"pop":685},{"id":6393358,"name":"Acobamba","lon":-72.46667,"lat":-13.47861,"pop":0},{"id":6665963,"name":"Acobamba","lon":-76.67613,"lat":-9.70625,"pop":0},{"id":6670175,"name":"Acobamba","lon":-76.43219,"lat":-9.98977,"pop":21},{"id":6675696,"name":"Acobamba","lon":-76.91441,"lat":-9.05944,"pop":3},{"id":8651510,"name":"Acobamba","lon":-74.45717,"lat":-12.76622,"pop":0},{"id":8663907,"name":"Acobamba","lon":-74.87127,"lat":-12.07757,"pop":0},{"id":8664493,"name":"Acobamba","lon":-74.7712,"lat":-12.19943,"pop":232},{"id":3948473,"name":"Acobambilla","alt":["Sallca Acobambilla"],"lon":-75.38333,"lat":-12.65,"pop":0},{"id":3948474,"name":"Acobambilla","lon":-74.98333,"lat":-12.61667,"pop":0},{"id":3962563,"name":"Acobambilla","lon":-76.25833,"lat":-10.18552,"pop":133},{"id":6670310,"name":"Acobambilla","lon":-76.27757,"lat":-9.97675,"pop":60},{"id":3948464,"name":"Acochaca","lon":-71.12694,"lat":-15.89833,"pop":0},{"id":3948465,"name":"Acochaca","lon":-76.61194,"lat":-11.43639,"pop":0},{"id":3948462,"name":"Acochupa","lon":-70.25,"lat":-15.6,"pop":0},{"id":6392996,"name":"Acocita","lon":-69.65136,"lat":-17.35956,"pop":0},{"id":3962499,"name":"Acococha","lon":-76.39502,"lat":-10.17875,"pop":14},{"id":6669302,"name":"Acococha","lon":-76.40739,"lat":-11.01565,"pop":13},{"id":3948461,"name":"Acocollo","lon":-70.98738,"lat":-15.30529,"pop":0},{"id":3957148,"name":"Acocollo","lon":-71.8268,"lat":-14.80374,"pop":0},{"id":3948460,"name":"Acocollocucho","lon":-70.81212,"lat":-15.58047,"pop":0},{"id":3948458,"name":"Acocoto","lon":-77.33333,"lat":-10.78333,"pop":0},{"id":3948457,"name":"Acocra","lon":-75,"lat":-12.16667,"pop":0},{"id":3950760,"name":"Acocra","lon":-72.65753,"lat":-15.82088,"pop":7},{"id":3948456,"name":"Acocro","lon":-74.04198,"lat":-13.21912,"pop":543},{"id":3948455,"name":"Acocunca","alt":["Acocunea"],"lon":-69.41523,"lat":-15.42954,"pop":0},{"id":3948453,"name":"Acohuarma","alt":["Acomarca"],"lon":-74.98333,"lat":-12.78333,"pop":0},{"id":3948452,"name":"Acohuito","lon":-71.26813,"lat":-15.79682,"pop":3},{"id":3956370,"name":"Acohuito","lon":-71.38461,"lat":-15.26918,"pop":5},{"id":6308637,"name":"Acoicha","lon":-73.21922,"lat":-13.97238,"pop":0},{"id":3948450,"name":"Acoita","lon":-70.8202,"lat":-15.83677,"pop":0},{"id":3948449,"name":"Acola","lon":-74.19295,"lat":-14.65364,"pop":100},{"id":3948448,"name":"Acolla","lon":-75.54634,"lat":-11.73193,"pop":6805},{"id":6665818,"name":"Acollán","lon":-76.79623,"lat":-9.59039,"pop":0},{"id":3968361,"name":"Acomachay","lon":-76.61667,"lat":-11.33028,"pop":1},{"id":3968367,"name":"Acomachay","lon":-76.60583,"lat":-11.36556,"pop":0},{"id":3951490,"name":"Acomani","lon":-71.23778,"lat":-15.84389,"pop":0},{"id":6671230,"name":"Acomanta","lon":-75.57834,"lat":-11.78322,"pop":19},{"id":3699871,"name":"Acomayo","lon":-76.07194,"lat":-9.80105,"pop":0},{"id":3948443,"name":"Acomayo","lon":-71.23687,"lat":-15.81144,"pop":0},{"id":3948444,"name":"Acomayo","lon":-71.68111,"lat":-13.91667,"pop":0},{"id":3948445,"name":"Acomayo","lon":-75.36667,"lat":-13.45,"pop":0},{"id":3953273,"name":"Acomayo","lon":-71.43775,"lat":-14.39404,"pop":0},{"id":7544143,"name":"Acomayo","lon":-76.6482,"lat":-7.09082,"pop":0},{"id":11003685,"name":"Acomayo","lon":-75.71792,"lat":-14.06639,"pop":0},{"id":3948440,"name":"Acomayopata","lon":-74.12829,"lat":-13.47238,"pop":0},{"id":3948439,"name":"Acomeríne","lon":-70.24607,"lat":-15.50967,"pop":0},{"id":3948438,"name":"Acón","alt":["Acon","Acos"],"lon":-73.86667,"lat":-12.1,"pop":0},{"id":3967001,"name":"Acoñaguin","lon":-76.80194,"lat":-11.00972,"pop":0},{"id":3948435,"name":"Acongollo","lon":-70.59132,"lat":-17.52453,"pop":0},{"id":6674936,"name":"Acopalca","lon":-75.10193,"lat":-11.9876,"pop":584},{"id":3954878,"name":"Acopallpa","lon":-72.49302,"lat":-15.66558,"pop":53},{"id":3699870,"name":"Acopampa","alt":["Acco-Pampa"],"lon":-77.62271,"lat":-9.29425,"pop":865},{"id":3948434,"name":"Acopampa","lon":-70.5,"lat":-13.9,"pop":0},{"id":8650320,"name":"Acopampa","lon":-74.2589,"lat":-12.83163,"pop":0},{"id":11040102,"name":"Acopampa","lon":-73.32304,"lat":-15.34796,"pop":0},{"id":3948432,"name":"Acopara","lon":-76.985,"lat":-11.09861,"pop":0},{"id":3954016,"name":"Acopata","lon":-71.18861,"lat":-14.46722,"pop":0},{"id":3962685,"name":"Acopata","lon":-76.74876,"lat":-10.6848,"pop":0},{"id":3951637,"name":"Acopecho","lon":-71.24889,"lat":-15.68611,"pop":0},{"id":3948430,"name":"Acopía","alt":["Acopia"],"lon":-71.49307,"lat":-14.05793,"pop":0},{"id":3956371,"name":"Acopiñata","lon":-71.37442,"lat":-15.27514,"pop":3},{"id":3955866,"name":"Acopucllo","lon":-72.6325,"lat":-15.33722,"pop":0},{"id":6303796,"name":"Acopucro","lon":-75.835,"lat":-12.44306,"pop":0},{"id":3954328,"name":"Acopugio","lon":-71.23778,"lat":-14.23833,"pop":0},{"id":3948428,"name":"Acopunco","lon":-72.13333,"lat":-14.26667,"pop":0},{"id":3951587,"name":"Acopunco","lon":-71.38389,"lat":-15.6475,"pop":0},{"id":6671191,"name":"Acopuqquio","lon":-75.86508,"lat":-11.72757,"pop":0},{"id":3948427,"name":"Acoquipa","alt":["Acoquipe"],"lon":-73.42533,"lat":-15.25852,"pop":0},{"id":3948425,"name":"Acora","lon":-69.79742,"lat":-15.9739,"pop":0},{"id":3948426,"name":"Acora","lon":-75.36833,"lat":-13.78917,"pop":0},{"id":6308348,"name":"Acoragra","lon":-73.48671,"lat":-13.6727,"pop":0},{"id":6304254,"name":"Acoranra","lon":-75.65306,"lat":-12.04167,"pop":0},{"id":3948420,"name":"Acoria","lon":-74.88333,"lat":-12.61667,"pop":0},{"id":3948416,"name":"Acos","lon":-73.77039,"lat":-15.12002,"pop":375},{"id":3948417,"name":"Acos","lon":-75.03258,"lat":-14.21599,"pop":0},{"id":3948418,"name":"Acos","alt":["Acos Pueblo"],"lon":-71.73857,"lat":-13.95064,"pop":759},{"id":3948419,"name":"Acos","lon":-76.82061,"lat":-11.27406,"pop":507},{"id":8661548,"name":"Acos","lon":-74.54424,"lat":-12.54545,"pop":201},{"id":3948415,"name":"Acospampa","lon":-73.88333,"lat":-13.4,"pop":0},{"id":3948414,"name":"Acostambo","lon":-75.05747,"lat":-12.36554,"pop":901},{"id":3948413,"name":"Acosvinchos","lon":-74.09718,"lat":-13.10885,"pop":0},{"id":3953815,"name":"Acota","lon":-71.23708,"lat":-14.2812,"pop":0},{"id":6412211,"name":"Acotama","lon":-77.06167,"lat":-11.13917,"pop":194},{"id":3951504,"name":"Acotera","lon":-71.48972,"lat":-15.81611,"pop":0},{"id":3955510,"name":"Acotira","lon":-71.52639,"lat":-15.46528,"pop":1},{"id":3956923,"name":"Acotira","lon":-71.09528,"lat":-15.3775,"pop":0},{"id":3948411,"name":"Acoya","lon":-74.28179,"lat":-13.17051,"pop":0},{"id":10866426,"name":"Acoya","lon":-75.88613,"lat":-13.14683,"pop":21},{"id":6379906,"name":"Acoyo","lon":-77.80333,"lat":-9.18861,"pop":215},{"id":3948409,"name":"Acoyra","lon":-72.08617,"lat":-13.99103,"pop":0},{"id":3948408,"name":"Acoyto","lon":-72.21667,"lat":-14.38333,"pop":0},{"id":3948556,"name":"Acpitán","alt":["Accpitan","Accpitán","Acpitan"],"lon":-72.41605,"lat":-13.84264,"pop":563},{"id":3962166,"name":"Acracocha","lon":-75.69779,"lat":-11.30907,"pop":339},{"id":8669876,"name":"Acraybamba","alt":["Hacienda Acraybamba"],"lon":-74.29936,"lat":-13.17901,"pop":205},{"id":3960337,"name":"Acrocancha","lon":-75.8,"lat":-11.22444,"pop":0},{"id":6303540,"name":"Acroyhuachana","lon":-75.85139,"lat":-12.13028,"pop":0},{"id":3948406,"name":"Acsamachay","alt":["Acsamacha"],"lon":-73.85185,"lat":-13.09408,"pop":0},{"id":6666265,"name":"Acshacoto","lon":-76.51324,"lat":-9.9151,"pop":124},{"id":3968347,"name":"Acshomachay","lon":-76.66194,"lat":-11.34778,"pop":0},{"id":3958954,"name":"Acsuchacra","lon":-75.5975,"lat":-11.14472,"pop":0},{"id":3951594,"name":"Actapata","lon":-71.34528,"lat":-15.60056,"pop":2},{"id":8677271,"name":"Actomarca","lon":-74.96414,"lat":-13.12656,"pop":0},{"id":3691340,"name":"Actual Tipishca","alt":["Achual Tipisca","Tipishca"],"lon":-75.81535,"lat":-5.45301,"pop":0},{"id":3948404,"name":"Acuay","lon":-74.68976,"lat":-13.0474,"pop":0},{"id":3948403,"name":"Acucancha","lon":-75.33043,"lat":-12.44802,"pop":0},{"id":3948463,"name":"Acuchacra","alt":["Acochacra"],"lon":-75.83882,"lat":-13.17223,"pop":0},{"id":6379771,"name":"Acuchapampa","lon":-77.99269,"lat":-9.49478,"pop":76},{"id":3962138,"name":"Acuchay","lon":-75.70194,"lat":-11.50167,"pop":0},{"id":3968017,"name":"Acuisho","lon":-76.29,"lat":-11.54944,"pop":4},{"id":3948401,"name":"Acumayo","lon":-74.16667,"lat":-13.53333,"pop":0},{"id":3948400,"name":"Acuñaya","lon":-70.77697,"lat":-15.81409,"pop":0},{"id":3959171,"name":"Acupacha","lon":-75.78556,"lat":-12.91657,"pop":0},{"id":3959295,"name":"Acupampa","lon":-75.90427,"lat":-12.7921,"pop":0},{"id":3962788,"name":"Acupata","lon":-76.70389,"lat":-11.00222,"pop":0},{"id":3699868,"name":"Acurucay","lon":-75.5,"lat":-4.95,"pop":0},{"id":6664187,"name":"Acusha","lon":-77.48593,"lat":-10.40854,"pop":7},{"id":6304280,"name":"Acushchuri","lon":-75.53972,"lat":-12.06833,"pop":0},{"id":3967824,"name":"Acushica","lon":-76.41833,"lat":-11.69389,"pop":0},{"id":3948397,"name":"Acutaña","lon":-70.73333,"lat":-15.35,"pop":0},{"id":6564004,"name":"Acuzazú","alt":["Acuzazu"],"lon":-75.41139,"lat":-10.52086,"pop":197},{"id":6374871,"name":"Acyahuasi","lon":-73.67585,"lat":-13.51978,"pop":0},{"id":3699867,"name":"Aczo","lon":-76.98925,"lat":-9.15193,"pop":464},{"id":11792144,"name":"Adattuyani","lon":-69.41006,"lat":-14.73387,"pop":0},{"id":8651547,"name":"Adaymarca","lon":-74.48841,"lat":-12.58132,"pop":0},{"id":6395744,"name":"Adita","lon":-74.44278,"lat":-11.47444,"pop":0},{"id":3742572,"name":"Adope","lon":-79.18824,"lat":-6.57303,"pop":0},{"id":3699866,"name":"Adriana","lon":-79.40587,"lat":-7.73322,"pop":0},{"id":3699865,"name":"Afiladera","lon":-79.63333,"lat":-5.4,"pop":30},{"id":9255358,"name":"Afilador","lon":-75.99029,"lat":-9.33195,"pop":0},{"id":3959688,"name":"Afilayocc","lon":-73.78339,"lat":-14.29015,"pop":0},{"id":6403492,"name":"Agaliquin","lon":-76.57611,"lat":-10.30611,"pop":0},{"id":3699861,"name":"Agallpampa","lon":-78.54827,"lat":-7.9855,"pop":580},{"id":3940579,"name":"Agchapa","alt":["Hacienda Agchapa"],"lon":-74.13327,"lat":-13.12576,"pop":0},{"id":3948390,"name":"Agchi","lon":-73.84118,"lat":-14.5548,"pop":0},{"id":10908485,"name":"Agcochiuche","lon":-74.09632,"lat":-15.65719,"pop":0},{"id":3968070,"name":"Agocancha","lon":-76.16222,"lat":-11.72528,"pop":0},{"id":6664653,"name":"Agocancha","lon":-77.20558,"lat":-10.05864,"pop":0},{"id":3743702,"name":"Agocasa","lon":-77.97148,"lat":-7.72978,"pop":0},{"id":3962564,"name":"Agochinchán","lon":-76.26938,"lat":-10.2055,"pop":0},{"id":6675604,"name":"Agohuay","lon":-76.76975,"lat":-9.39831,"pop":0},{"id":3743444,"name":"Agopampa","lon":-79.14934,"lat":-6.0177,"pop":0},{"id":6666166,"name":"Agopampa","lon":-76.93034,"lat":-9.89301,"pop":0},{"id":6403554,"name":"Agopullo","lon":-76.51583,"lat":-10.44111,"pop":0},{"id":3968071,"name":"Agoshusha Pampa","lon":-76.17361,"lat":-11.72833,"pop":0},{"id":6664407,"name":"Agran","lon":-77.4829,"lat":-10.09216,"pop":0},{"id":3948382,"name":"Agrio","lon":-74.21667,"lat":-15.21667,"pop":0},{"id":6403282,"name":"Agruco","lon":-76.6575,"lat":-10.06306,"pop":21},{"id":3958901,"name":"Agua","lon":-75.82803,"lat":-12.90027,"pop":0},{"id":3966818,"name":"Agua","lon":-76.23194,"lat":-11.835,"pop":0},{"id":8665223,"name":"Agua","lon":-73.90872,"lat":-13.20786,"pop":0},{"id":3699857,"name":"Agua Azul","lon":-79.65,"lat":-5.38333,"pop":0},{"id":9114259,"name":"Agua Azul","lon":-76.74648,"lat":-7.00171,"pop":12},{"id":11512940,"name":"Agua Azul","lon":-69.59948,"lat":-11.05781,"pop":0},{"id":3699853,"name":"Agua Blanca","lon":-78.44005,"lat":-7.61346,"pop":421},{"id":3699854,"name":"Agua Blanca","alt":["Agua Blanca Hacienda"],"lon":-79.06061,"lat":-7.04626,"pop":466},{"id":3699855,"name":"Agua Blanca","alt":["Agua Bianca","Yurac Yacu"],"lon":-76.69643,"lat":-6.72343,"pop":0},{"id":3743173,"name":"Agua Blanca","lon":-79.02252,"lat":-6.30264,"pop":451},{"id":3948379,"name":"Agua Blanca","lon":-70.80981,"lat":-16.68062,"pop":0},{"id":3948380,"name":"Agua Blanca","lon":-77.14289,"lat":-10.56588,"pop":0},{"id":3960728,"name":"Agua Blanca","lon":-76.23834,"lat":-10.09412,"pop":0},{"id":6383393,"name":"Agua Blanca","lon":-77.67119,"lat":-6.301,"pop":2},{"id":6402842,"name":"Agua Blanca","lon":-76.98028,"lat":-10.45778,"pop":0},{"id":6564118,"name":"Agua Blanca","lon":-75.27127,"lat":-10.80121,"pop":7},{"id":3948372,"name":"Agua Buena","lon":-71.31577,"lat":-16.55687,"pop":131},{"id":3949210,"name":"Agua Caliente","lon":-71.70738,"lat":-16.22448,"pop":0},{"id":11514996,"name":"Agua Clara","lon":-69.1988,"lat":-12.3041,"pop":0},{"id":3699848,"name":"Agua Colorada","lon":-78.30493,"lat":-8.07981,"pop":0},{"id":3743061,"name":"Agua Colorada","lon":-79.27513,"lat":-6.49809,"pop":38},{"id":3753244,"name":"Agua Colorada","lon":-78.19147,"lat":-6.96013,"pop":1},{"id":3752900,"name":"Agua Dulce","lon":-78.25806,"lat":-6.85694,"pop":0},{"id":3754797,"name":"Agua Dulce","lon":-80.3486,"lat":-4.57669,"pop":0},{"id":3948348,"name":"Agua Dulce","lon":-71.42189,"lat":-16.38788,"pop":0},{"id":6254794,"name":"Agua Dulce","lon":-77.30333,"lat":-11.51167,"pop":0},{"id":8689209,"name":"Agua Dulce","lon":-73.53011,"lat":-12.98186,"pop":255},{"id":11512983,"name":"Agua Dulce","lon":-69.55639,"lat":-11.24795,"pop":0},{"id":11514817,"name":"Agua Dulce","lon":-69.59849,"lat":-10.97824,"pop":0},{"id":11515000,"name":"Agua Dulce","lon":-69.19965,"lat":-12.27917,"pop":0},{"id":12291527,"name":"Agua Dulce","lon":-73.92937,"lat":-12.34014,"pop":0},{"id":11012644,"name":"Agua La Leche","lon":-80.89505,"lat":-4.64696,"pop":0},{"id":3948337,"name":"Agua Milagro","lon":-69.19194,"lat":-16.79111,"pop":0},{"id":6310279,"name":"Agua Milagro","lon":-69.45806,"lat":-16.53111,"pop":0},{"id":6310311,"name":"Agua Milagro","lon":-69.19944,"lat":-16.76472,"pop":0},{"id":3814541,"name":"Agua Salada","lon":-80.87472,"lat":-4.12028,"pop":0},{"id":3948330,"name":"Agua Salada","alt":["Agua Salada Hacienda"],"lon":-75.23333,"lat":-14.76667,"pop":0},{"id":11076417,"name":"Agua Salada","lon":-71.42544,"lat":-16.40109,"pop":17},{"id":3699837,"name":"Agua Santa","lon":-79.79867,"lat":-5.93871,"pop":142},{"id":3948322,"name":"Agua Santa","alt":["Desmontadora Agua Santa"],"lon":-76.14754,"lat":-13.6611,"pop":6},{"id":3954870,"name":"Agua Santa","lon":-72.49056,"lat":-15.69218,"pop":0},{"id":3957608,"name":"Agua Santa","lon":-75.00603,"lat":-14.83722,"pop":10},{"id":6379198,"name":"Agua Santa","lon":-77.91788,"lat":-6.51163,"pop":0},{"id":8669845,"name":"Aguac","lon":-74.34971,"lat":-13.2586,"pop":0},{"id":3966739,"name":"Aguacancha","lon":-76.21139,"lat":-12,"pop":0},{"id":3962141,"name":"Aguachini","lon":-74.9179,"lat":-10.50846,"pop":0},{"id":6666196,"name":"Aguactinco","lon":-76.7246,"lat":-9.93364,"pop":0},{"id":3948368,"name":"Aguada","lon":-72.32181,"lat":-15.19503,"pop":12},{"id":3948369,"name":"Aguada","lon":-74.58333,"lat":-14.93333,"pop":0},{"id":3948370,"name":"Aguada","lon":-75.41964,"lat":-13.97997,"pop":0},{"id":10796854,"name":"Aguada","lon":-74.76919,"lat":-14.93859,"pop":0},{"id":11046995,"name":"Aguada","lon":-73.02187,"lat":-15.36768,"pop":0},{"id":11558365,"name":"Aguada","lon":-69.14699,"lat":-14.28965,"pop":0},{"id":3948359,"name":"Aguada de la Zorra","lon":-74.03867,"lat":-15.95994,"pop":0},{"id":3948358,"name":"Aguada de Lomas","alt":["Aquada de Lomas"],"lon":-74.79851,"lat":-15.50747,"pop":0},{"id":3948349,"name":"Aguada Palos","alt":["Agua de Palos","Aguada de Palos"],"lon":-75.6763,"lat":-14.31049,"pop":0},{"id":11003659,"name":"Aguado","lon":-75.73646,"lat":-14.07797,"pop":0},{"id":3948346,"name":"Aguajal","lon":-69.26435,"lat":-12.27911,"pop":0},{"id":11511491,"name":"Aguajal","lon":-69.23238,"lat":-11.59535,"pop":0},{"id":11527934,"name":"Aguajal","lon":-69.45406,"lat":-13.41777,"pop":0},{"id":11514265,"name":"Aguajal Dos","lon":-69.60483,"lat":-11.41714,"pop":0},{"id":11515932,"name":"Aguajalito","lon":-69.08186,"lat":-12.53163,"pop":0},{"id":3948344,"name":"Agualani","lon":-69.7,"lat":-14.1,"pop":0},{"id":3948343,"name":"Agualegua","lon":-72.06498,"lat":-15.62052,"pop":0},{"id":3948340,"name":"Aguallane","lon":-69.96033,"lat":-15.4131,"pop":344},{"id":6379307,"name":"Agualoca","lon":-77.7943,"lat":-6.68185,"pop":0},{"id":6385026,"name":"Aguambuco","lon":-77.46611,"lat":-8.21389,"pop":0},{"id":3966232,"name":"Aguana Cancha","lon":-69.9162,"lat":-14.42038,"pop":0},{"id":9179752,"name":"Aguanana","lon":-76.15006,"lat":-6.61107,"pop":0},{"id":3699843,"name":"Aguanana Muyuna","alt":["Aguana Muyuna","Aguano Muyuna"],"lon":-76.16808,"lat":-6.61601,"pop":0},{"id":9260852,"name":"Aguanana Muyuna","lon":-76.087,"lat":-6.57704,"pop":0},{"id":6308059,"name":"Aguanegra","lon":-72.66806,"lat":-11.04486,"pop":0},{"id":3956446,"name":"Aguapichuana","lon":-71.9129,"lat":-14.58656,"pop":0},{"id":3699840,"name":"Aguaquita","lon":-78.16667,"lat":-8.9,"pop":0},{"id":3948332,"name":"Aguar","lon":-76.98435,"lat":-10.83349,"pop":222},{"id":8677069,"name":"Aguardiente","lon":-74.91267,"lat":-13.4136,"pop":0},{"id":3699836,"name":"Aguas Blanca","lon":-78.05885,"lat":-7.24122,"pop":0},{"id":3699835,"name":"Aguas Calientes","alt":["Agua Caliente","Aguas Caliente"],"lon":-74.72094,"lat":-8.81197,"pop":0},{"id":7536123,"name":"Aguas Calientes","lon":-72.52264,"lat":-13.15517,"pop":0},{"id":3948317,"name":"Aguas Muertas","lon":-70.90689,"lat":-17.16976,"pop":70},{"id":3699833,"name":"Aguas Negras","lon":-75.34005,"lat":-0.43799,"pop":0},{"id":11515001,"name":"Aguas Negras","lon":-69.20083,"lat":-12.25863,"pop":11},{"id":11515852,"name":"Aguas Negras","lon":-69.42512,"lat":-12.66557,"pop":40},{"id":6560917,"name":"Aguas Niéve","lon":-75.32417,"lat":-11.30702,"pop":0},{"id":3699832,"name":"Aguas Verdes","lon":-80.245,"lat":-3.48139,"pop":9106},{"id":3948329,"name":"Aguasalada","lon":-71.77862,"lat":-16.29326,"pop":0},{"id":6270393,"name":"Aguasalada","lon":-73.07515,"lat":-12.63815,"pop":0},{"id":3948320,"name":"Aguasbamba","lon":-72.04145,"lat":-13.8983,"pop":0},{"id":6664883,"name":"Aguashcocha","lon":-77.21767,"lat":-10.04356,"pop":0},{"id":3967138,"name":"Aguashuarco","lon":-76.83889,"lat":-11.08139,"pop":0},{"id":3948315,"name":"Aguaylla","lon":-73.93333,"lat":-13.03333,"pop":0},{"id":8661482,"name":"Aguaypa","lon":-74.53631,"lat":-12.66492,"pop":0},{"id":3948314,"name":"Aguaytane","lon":-72.53333,"lat":-13.96667,"pop":0},{"id":3699831,"name":"Aguaytía","alt":["Aguaytia","Puente Aguaytia","Puente Aguaytía"],"lon":-75.50906,"lat":-9.03778,"pop":0},{"id":3962750,"name":"Aguen","lon":-76.82111,"lat":-10.89528,"pop":0},{"id":3967058,"name":"Aguila","lon":-76.69556,"lat":-11.06333,"pop":0},{"id":7544138,"name":"Aguilar","lon":-76.65239,"lat":-7.07037,"pop":0},{"id":3699827,"name":"Aguirre","lon":-70.95,"lat":-3.6,"pop":0},{"id":3699826,"name":"Agupampa","alt":["Agupampa Hacienda"],"lon":-79.4029,"lat":-5.35623,"pop":300},{"id":6675703,"name":"Agupuquio","lon":-76.9646,"lat":-9.11566,"pop":0},{"id":3948307,"name":"Ahuac","lon":-75.35,"lat":-12.06667,"pop":0},{"id":6671218,"name":"Ahuac","lon":-75.534,"lat":-11.74314,"pop":0},{"id":3948306,"name":"Ahuajo","lon":-73.96328,"lat":-13.4568,"pop":0},{"id":11559006,"name":"Ahualani","lon":-69.5419,"lat":-13.94745,"pop":20},{"id":3948305,"name":"Ahuancata","lon":-71.28333,"lat":-14.86667,"pop":0},{"id":6393633,"name":"Ahuanmarca","lon":-72.12583,"lat":-13.28944,"pop":143},{"id":6670202,"name":"Ahuas Chico","lon":-76.35776,"lat":-9.98368,"pop":0},{"id":6670199,"name":"Ahuas Grande","lon":-76.35621,"lat":-9.84984,"pop":0},{"id":3763265,"name":"Ahuashiyacu","lon":-76.33358,"lat":-6.5059,"pop":0},{"id":6675540,"name":"Ahuaspampa","lon":-76.81338,"lat":-9.45989,"pop":0},{"id":6303562,"name":"Ahuay","lon":-75.89583,"lat":-12.17306,"pop":2},{"id":6664487,"name":"Ahuayán","lon":-77.36739,"lat":-10.16582,"pop":0},{"id":8664053,"name":"Ahuaycha","lon":-74.89195,"lat":-12.40827,"pop":794},{"id":6303938,"name":"Ahuicho","lon":-75.82472,"lat":-12.34639,"pop":1},{"id":6665970,"name":"Ahuicuna","lon":-76.63945,"lat":-9.72373,"pop":0},{"id":6392024,"name":"Ahuinpuquio","lon":-72.18694,"lat":-13.57944,"pop":0},{"id":3961605,"name":"Ahuituyoc","lon":-75.97884,"lat":-11.33419,"pop":0},{"id":3966681,"name":"Aicagranga","lon":-76.13222,"lat":-11.83417,"pop":0},{"id":3948292,"name":"Aichamarca","lon":-74.63894,"lat":-13.87645,"pop":0},{"id":6674784,"name":"Aichanlalaco","lon":-75.01455,"lat":-11.73829,"pop":0},{"id":3948290,"name":"Aichune","lon":-74.01918,"lat":-15.51581,"pop":0},{"id":3948289,"name":"Aichuta Chico","lon":-69.73275,"lat":-17.35057,"pop":0},{"id":3948288,"name":"Aichuta Grande","alt":["Achuta"],"lon":-69.72586,"lat":-17.34816,"pop":0},{"id":3951629,"name":"Aihuarinca","lon":-71.24722,"lat":-15.61639,"pop":0},{"id":3699821,"name":"Aija","lon":-77.60973,"lat":-9.78099,"pop":843},{"id":3962680,"name":"Aijadero","lon":-76.71911,"lat":-10.72636,"pop":0},{"id":6310282,"name":"Aillo","lon":-69.2075,"lat":-16.7975,"pop":0},{"id":3948285,"name":"Aillo Ccollana","lon":-70.33333,"lat":-14.73333,"pop":0},{"id":3948284,"name":"Aillo Sillata","alt":["Aillo Silluta"],"lon":-70.38333,"lat":-14.68333,"pop":0},{"id":6369123,"name":"Aipante","lon":-75.17167,"lat":-13.88778,"pop":0},{"id":3948282,"name":"Aiparipa","lon":-74.37212,"lat":-15.82013,"pop":0},{"id":3699819,"name":"Aipena","alt":["Boca de Aipena"],"lon":-75.65,"lat":-5.1,"pop":0},{"id":3948280,"name":"Airabamba","alt":["Airabamba Hacienda","Hacienda Airabamba"],"lon":-73.82889,"lat":-13.49139,"pop":0},{"id":11008810,"name":"Airampuycc","lon":-73.917,"lat":-15.37697,"pop":0},{"id":3948276,"name":"Airampuycco","lon":-73.91667,"lat":-15.61667,"pop":0},{"id":3964412,"name":"Airijas","lon":-73.80087,"lat":-10.68409,"pop":0},{"id":6304639,"name":"Airinca","lon":-75.57806,"lat":-12.40167,"pop":0},{"id":3948272,"name":"Airiputi","alt":["Ayripute"],"lon":-69.54937,"lat":-16.01253,"pop":0},{"id":11792833,"name":"Airisane","lon":-69.49222,"lat":-15.36902,"pop":28},{"id":3948270,"name":"Airoca","lon":-73.49856,"lat":-15.44457,"pop":0},{"id":3948269,"name":"Aisan","lon":-70.38391,"lat":-15.40928,"pop":0},{"id":6674981,"name":"Aiscorbe","lon":-75.46377,"lat":-11.7438,"pop":0},{"id":3961324,"name":"Aiza","alt":["Arza"],"lon":-75.84881,"lat":-12.75602,"pop":214},{"id":3948268,"name":"Aja","alt":["Aja Hacienda"],"lon":-74.95607,"lat":-14.81333,"pop":0},{"id":10796935,"name":"Aja Alto","lon":-74.92818,"lat":-14.81402,"pop":94},{"id":6391255,"name":"Ajachín","lon":-77.49,"lat":-4.34417,"pop":0},{"id":3948263,"name":"Ajalle","lon":-74.66234,"lat":-13.48188,"pop":0},{"id":3948261,"name":"Ajana","lon":-70.99553,"lat":-16.24499,"pop":6},{"id":3948262,"name":"Ajana","lon":-70.6273,"lat":-15.52062,"pop":0},{"id":3966118,"name":"Ajapata","lon":-69.61535,"lat":-14.44411,"pop":1},{"id":3948291,"name":"Ajchi","alt":["Aichi"],"lon":-75.91011,"lat":-13.14869,"pop":0},{"id":3956609,"name":"Ajepata","lon":-71.1634,"lat":-15.32177,"pop":0},{"id":3699817,"name":"Ají","lon":-76.69079,"lat":-8.31323,"pop":0},{"id":3948258,"name":"Ajicata","lon":-72.22583,"lat":-15.25794,"pop":0},{"id":6392634,"name":"Ajipincucho","lon":-69.86795,"lat":-17.0398,"pop":0},{"id":11792909,"name":"Ajjerani","lon":-69.40587,"lat":-15.31944,"pop":48},{"id":3948256,"name":"Ajla Huito","alt":["Ajlahuito"],"lon":-74.45933,"lat":-15.08799,"pop":0},{"id":3948254,"name":"Ajo","alt":["Hacienda Ajo"],"lon":-74.31111,"lat":-13.18388,"pop":0},{"id":8663605,"name":"Ajo Cancha","lon":-74.94683,"lat":-12.14916,"pop":0},{"id":3965916,"name":"Ajo Cunca","lon":-69.98851,"lat":-14.24076,"pop":0},{"id":3966171,"name":"Ajo Cunca","lon":-69.73372,"lat":-14.47716,"pop":0},{"id":3961415,"name":"Ajobamaba","lon":-75.86412,"lat":-12.72861,"pop":0},{"id":3948253,"name":"Ajocancha","lon":-70.17099,"lat":-15.87027,"pop":0},{"id":6671344,"name":"Ajocancha","lon":-75.99844,"lat":-11.84252,"pop":0},{"id":8662457,"name":"Ajocancha","lon":-74.74596,"lat":-12.91199,"pop":0},{"id":3948250,"name":"Ajoccasa","lon":-74.27989,"lat":-13.35797,"pop":0},{"id":3948247,"name":"Ajocucho","lon":-70.17881,"lat":-15.68882,"pop":0},{"id":8664732,"name":"Ajocucho","lon":-74.65278,"lat":-12.4325,"pop":0},{"id":11792234,"name":"Ajojani","lon":-69.27143,"lat":-14.75314,"pop":0},{"id":8662017,"name":"Ajojasa","lon":-74.65761,"lat":-12.79343,"pop":0},{"id":3948243,"name":"Ajolla","lon":-73.84337,"lat":-14.93997,"pop":0},{"id":6374497,"name":"Ajolla","lon":-73.90315,"lat":-13.98466,"pop":0},{"id":3948241,"name":"Ajolmayo","lon":-74.66469,"lat":-13.11177,"pop":0},{"id":3948240,"name":"Ajomachay","lon":-74.39702,"lat":-13.25779,"pop":0},{"id":6366033,"name":"Ajonicio","lon":-74.64222,"lat":-13.5375,"pop":0},{"id":3948236,"name":"Ajopampa","lon":-74.69608,"lat":-13.03871,"pop":0},{"id":3955894,"name":"Ajopata","lon":-72.90834,"lat":-15.25118,"pop":0},{"id":8664557,"name":"Ajopata","lon":-74.77342,"lat":-12.18304,"pop":0},{"id":3959818,"name":"Ajopita","lon":-73.88222,"lat":-14.35278,"pop":0},{"id":8651522,"name":"Ajopitec","lon":-74.45754,"lat":-12.72719,"pop":0},{"id":8650030,"name":"Ajopito","lon":-74.22047,"lat":-12.86051,"pop":0},{"id":3948235,"name":"Ajopucro","lon":-74.75543,"lat":-13.09766,"pop":18},{"id":8650277,"name":"Ajopucro","lon":-74.23832,"lat":-12.71023,"pop":0},{"id":3953460,"name":"Ajopujro","lon":-72.31654,"lat":-15.10593,"pop":0},{"id":8662322,"name":"Ajopunco","lon":-74.78678,"lat":-12.54408,"pop":0},{"id":8662383,"name":"Ajopuquio","lon":-74.81011,"lat":-12.73268,"pop":0},{"id":6304001,"name":"Ajos Correl","lon":-75.67667,"lat":-12.31694,"pop":0},{"id":6368673,"name":"Ajoscancha","lon":-75.39694,"lat":-13.54611,"pop":0},{"id":3948232,"name":"Ajoscca","alt":["Ajoscca Hacienda"],"lon":-73.83333,"lat":-14.98333,"pop":0},{"id":6308290,"name":"Ajoscca","lon":-73.41611,"lat":-13.65806,"pop":0},{"id":3742825,"name":"Ajosmayo","lon":-79.17025,"lat":-6.84864,"pop":37},{"id":6365142,"name":"Ajospampa","lon":-74.79222,"lat":-13.55667,"pop":0},{"id":3948231,"name":"Ajotanapata","lon":-74.74467,"lat":-13.07658,"pop":25},{"id":3948230,"name":"Ajotapampa","lon":-69.9,"lat":-15.96667,"pop":0},{"id":6671166,"name":"Ajovado","lon":-75.96188,"lat":-11.71754,"pop":0},{"id":6369082,"name":"Ajovilla","lon":-75.00472,"lat":-13.9775,"pop":0},{"id":3956905,"name":"Ajoyane","lon":-71.16825,"lat":-15.36353,"pop":4},{"id":3948226,"name":"Ajoyani","lon":-70.2,"lat":-14.1,"pop":0},{"id":8679467,"name":"Ajoylla","lon":-74.69625,"lat":-13.10605,"pop":0},{"id":3948225,"name":"Ajpi","lon":-72.0888,"lat":-15.62461,"pop":0},{"id":3948224,"name":"Ajrata","lon":-69.94327,"lat":-15.97527,"pop":0},{"id":6671165,"name":"Ajruipampa","lon":-75.9623,"lat":-11.74118,"pop":0},{"id":3948223,"name":"Ajtapa","alt":["Acctapa"],"lon":-74.29651,"lat":-14.46779,"pop":0},{"id":6671267,"name":"Ajucancha","lon":-75.97406,"lat":-11.7498,"pop":0},{"id":3955427,"name":"Ajuyoccota","lon":-71.75743,"lat":-15.36554,"pop":0},{"id":6666023,"name":"Alac","lon":-76.84777,"lat":-9.80373,"pop":0},{"id":6403331,"name":"Alaca","lon":-76.61861,"lat":-10.1,"pop":0},{"id":3948219,"name":"Alachay","lon":-71.39222,"lat":-16.89694,"pop":0},{"id":3743735,"name":"Alacoto","lon":-77.54916,"lat":-7.85377,"pop":112},{"id":6368667,"name":"Alacsacincha","lon":-75.41611,"lat":-13.56889,"pop":0},{"id":6675624,"name":"Alacyacu","lon":-76.99125,"lat":-9.39635,"pop":0},{"id":11751098,"name":"Alajcuyo","lon":-69.3778,"lat":-15.51228,"pop":0},{"id":6310516,"name":"Alajuyo","lon":-69.16666,"lat":-16.60126,"pop":0},{"id":6304508,"name":"Alalac","lon":-75.56639,"lat":-12.28917,"pop":0},{"id":6664669,"name":"Alalac Machay","lon":-77.28433,"lat":-10.17538,"pop":0},{"id":6369244,"name":"Alalaccmachay","lon":-75.17361,"lat":-13.75028,"pop":0},{"id":8662802,"name":"Alalaya","lon":-74.96315,"lat":-12.5045,"pop":0},{"id":6674897,"name":"Alalpata","lon":-75.04445,"lat":-11.62068,"pop":0},{"id":6674593,"name":"Alamachay","lon":-75.17994,"lat":-11.89253,"pop":0},{"id":3958167,"name":"Alamatín","lon":-75.90111,"lat":-11.04583,"pop":0},{"id":3952274,"name":"Alameda","lon":-70.51372,"lat":-17.42304,"pop":0},{"id":6674941,"name":"Alameda","lon":-75.31842,"lat":-11.9105,"pop":0},{"id":6674957,"name":"Alameda","lon":-75.4299,"lat":-11.84048,"pop":0},{"id":6267359,"name":"Álamo","alt":["Alamo"],"lon":-76.86677,"lat":-5.92233,"pop":0},{"id":3699813,"name":"Alamor","lon":-80.39884,"lat":-4.47953,"pop":511},{"id":6304578,"name":"Alampa","lon":-75.52167,"lat":-12.36556,"pop":0},{"id":3752502,"name":"Alan","lon":-78.4796,"lat":-6.66274,"pop":345},{"id":3948206,"name":"Alancana","alt":["Alaucana"],"lon":-74.78333,"lat":-14.53333,"pop":0},{"id":3962824,"name":"Alania Machay","lon":-76.58111,"lat":-10.65917,"pop":0},{"id":3948205,"name":"Alantaya","lon":-69.25059,"lat":-16.77955,"pop":86},{"id":3752935,"name":"Alanya","lon":-78.24283,"lat":-6.88188,"pop":0},{"id":3948204,"name":"Alanya","lon":-74.11667,"lat":-13.2,"pop":115},{"id":10642330,"name":"Alanya","lon":-74.51472,"lat":-14.60661,"pop":2},{"id":3699812,"name":"Alao","lon":-76.71667,"lat":-6.5,"pop":0},{"id":6674900,"name":"Alapampa","lon":-75.09241,"lat":-11.59061,"pop":54},{"id":6365852,"name":"Alarco","lon":-74.64,"lat":-13.76028,"pop":0},{"id":6369269,"name":"Alaseyhua","lon":-75.20417,"lat":-13.69,"pop":0},{"id":6660239,"name":"Alata","lon":-71.57585,"lat":-16.43803,"pop":0},{"id":6369442,"name":"Alatu","lon":-75.0975,"lat":-13.56389,"pop":0},{"id":6674610,"name":"Alayo","lon":-75.29934,"lat":-11.88606,"pop":616},{"id":3699811,"name":"Alaypampa","lon":-78.01139,"lat":-8.41533,"pop":129},{"id":3699810,"name":"Albacas","lon":-80.60361,"lat":-4.51532,"pop":0},{"id":3948201,"name":"Albaja","alt":["Albaja Hacienda"],"lon":-71.76667,"lat":-17.08333,"pop":0},{"id":3699809,"name":"Alberca","lon":-79.81667,"lat":-5.38333,"pop":0},{"id":6394350,"name":"Albergue","lon":-73.09465,"lat":-3.53131,"pop":0},{"id":11515930,"name":"Albergue Turístico Cuzco Amazónico","alt":["Albergue Turistico Cusco Amazonico","Albergue Turistico Cuzco Amazonico","Albergue Turístico Cusco Amazónico"],"lon":-69.05422,"lat":-12.54171,"pop":0},{"id":11515939,"name":"Albergue Turístico Tambolodge","alt":["Albergue","Albergue Turistico Tambolodge"],"lon":-69.07806,"lat":-12.59816,"pop":0},{"id":6303044,"name":"Alberta","lon":-74.62333,"lat":-11.21049,"pop":0},{"id":3812433,"name":"Alberto Fujimori","lon":-79.58818,"lat":-7.10893,"pop":0},{"id":3948198,"name":"Alca","lon":-72.76472,"lat":-15.13472,"pop":481},{"id":6310199,"name":"Alcaaque","lon":-69.4029,"lat":-16.96961,"pop":0},{"id":3948196,"name":"Alcacocha","alt":["Atacocha","Atacocha-Lalaguia"],"lon":-76.33333,"lat":-10.6,"pop":175},{"id":3958166,"name":"Alcacocha","lon":-75.90209,"lat":-11.0513,"pop":6},{"id":3958186,"name":"Alcacocha","lon":-75.91227,"lat":-11.06878,"pop":10},{"id":3948626,"name":"Alcacoto","alt":["Acacoto"],"lon":-76.85964,"lat":-11.69363,"pop":111},{"id":3962818,"name":"Alcahuarinan","lon":-76.5099,"lat":-10.62183,"pop":0},{"id":3948194,"name":"Alcahuito","lon":-71.41007,"lat":-15.74389,"pop":0},{"id":10866623,"name":"Alcamachay","lon":-75.79801,"lat":-13.14073,"pop":0},{"id":3948192,"name":"Alcamarine","lon":-69.54283,"lat":-16.98346,"pop":0},{"id":3954437,"name":"Alcamarine","lon":-71.05639,"lat":-14.07139,"pop":0},{"id":3965969,"name":"Alcamarine","lon":-69.96526,"lat":-14.33649,"pop":0},{"id":3948191,"name":"Alcamarine Muto","lon":-71.14863,"lat":-15.08851,"pop":0},{"id":6310538,"name":"Alcamarineccucho","lon":-69.12614,"lat":-16.53479,"pop":0},{"id":3948190,"name":"Alcamarini","lon":-70.95062,"lat":-15.62285,"pop":0},{"id":3948188,"name":"Alcamenca","lon":-74.10615,"lat":-13.66138,"pop":0},{"id":3951750,"name":"Alcaña","lon":-71.26893,"lat":-15.5828,"pop":0},{"id":3948187,"name":"Alcania","lon":-71.95815,"lat":-15.12173,"pop":0},{"id":3948186,"name":"Alcantarilla","alt":["Alcantarilla Hacienda","Hacienda Alcantarilla"],"lon":-77.55,"lat":-11.08333,"pop":170},{"id":3970024,"name":"Alcantarilla Lomas","lon":-77.57028,"lat":-11.08389,"pop":0},{"id":11558914,"name":"Alcarini","lon":-69.82992,"lat":-13.97448,"pop":0},{"id":3948185,"name":"Alcata","lon":-71.71608,"lat":-15.42959,"pop":2},{"id":6675510,"name":"Alcayan","lon":-76.90967,"lat":-9.24077,"pop":290},{"id":3948182,"name":"Alccamarine","lon":-70.91421,"lat":-15.56138,"pop":0},{"id":8662748,"name":"Alccohuasi","lon":-74.87262,"lat":-12.6021,"pop":0},{"id":3948180,"name":"Alco-Llacta","lon":-72.54917,"lat":-15.48611,"pop":0},{"id":11792076,"name":"Alcón de Oro","alt":["Alcon de Oro"],"lon":-69.41138,"lat":-14.59694,"pop":12},{"id":6258557,"name":"Alcuzama","lon":-72.60883,"lat":-12.79,"pop":0},{"id":3948179,"name":"Aldabas","lon":-71.12002,"lat":-16.15701,"pop":0},{"id":6278862,"name":"Aldo Manzur","lon":-71.47694,"lat":-3.87778,"pop":0},{"id":3948178,"name":"Alegoma Hacienda","lon":-70.85964,"lat":-17.08708,"pop":0},{"id":3948177,"name":"Alegría","alt":["Alegria"],"lon":-69.11964,"lat":-12.11939,"pop":708},{"id":6307073,"name":"Alegría","lon":-74.83616,"lat":-11.67673,"pop":0},{"id":6307373,"name":"Alegría","lon":-74.66567,"lat":-11.73175,"pop":0},{"id":11515918,"name":"Alejandro Toledo","lon":-69.15936,"lat":-12.58061,"pop":34},{"id":6310372,"name":"Alejcarotpia","lon":-69.18485,"lat":-16.73029,"pop":0},{"id":3948176,"name":"Alejo Pata","lon":-73.51229,"lat":-13.65773,"pop":56},{"id":6374944,"name":"Alejo Pata","lon":-73.51278,"lat":-13.65722,"pop":0},{"id":6369328,"name":"Aleluya","lon":-75.13639,"lat":-13.66694,"pop":0},{"id":3948175,"name":"Aleluyoc","lon":-76.70201,"lat":-10.99695,"pop":0},{"id":3811934,"name":"Alenya","alt":["Peca Palacios"],"lon":-78.48916,"lat":-5.66881,"pop":449},{"id":3811940,"name":"Alenya","lon":-78.48079,"lat":-5.6871,"pop":0},{"id":3811939,"name":"Alenya Palacios","lon":-78.49266,"lat":-5.68089,"pop":0},{"id":3699798,"name":"Alerta","lon":-75.18688,"lat":-0.16144,"pop":0},{"id":3948173,"name":"Alerta","alt":["ALD"],"lon":-69.23546,"lat":-11.6584,"pop":986},{"id":3948174,"name":"Alerta","alt":["Aleria"],"lon":-71.78905,"lat":-10.74695,"pop":0},{"id":3948172,"name":"Alfachayoc","lon":-74.61667,"lat":-14.7,"pop":0},{"id":8661957,"name":"Alfacuchu","lon":-74.63848,"lat":-12.68868,"pop":0},{"id":3761905,"name":"Alfalfia","lon":-79.3807,"lat":-5.56502,"pop":0},{"id":3742762,"name":"Alfalfilla","lon":-79.09389,"lat":-6.90472,"pop":0},{"id":8663173,"name":"Alfapata","lon":-74.98144,"lat":-12.49318,"pop":167},{"id":3948170,"name":"Alfarillo","lon":-71.03333,"lat":-17.85,"pop":0},{"id":6389261,"name":"Alfarillo","lon":-77.005,"lat":-6.1025,"pop":144},{"id":3746964,"name":"Alfaro","lon":-70.91126,"lat":-3.97152,"pop":231},{"id":3948166,"name":"Alfayoc","lon":-74.23588,"lat":-15.12254,"pop":0},{"id":8645879,"name":"Alfonso Cobran","lon":-76.80554,"lat":-11.98253,"pop":0},{"id":3735080,"name":"Alfonso Ugarte","lon":-74.82838,"lat":-7.823,"pop":572},{"id":3810889,"name":"Alfonso Ugarte","lon":-80.32996,"lat":-4.7489,"pop":0},{"id":6394168,"name":"Alfonso Ugarte","lon":-77.26833,"lat":-4.75778,"pop":199},{"id":11558329,"name":"Alfonso Ugarte","lon":-69.25675,"lat":-14.1785,"pop":110},{"id":6400536,"name":"Alfónso Ugarte","lon":-70.245,"lat":-18.0425,"pop":0},{"id":8677449,"name":"Alfonsohuyocc","lon":-74.89428,"lat":-13.17238,"pop":0},{"id":6403570,"name":"Algahuayin","lon":-76.59917,"lat":-10.44972,"pop":0},{"id":6308828,"name":"Algalasi","lon":-73.32889,"lat":-13.7925,"pop":0},{"id":3699797,"name":"Algamarca","alt":["Algamarca Hacienda","Algamarce Hacienda"],"lon":-78.2454,"lat":-7.60706,"pop":532},{"id":6403217,"name":"Algaragra","lon":-76.63667,"lat":-10.00139,"pop":0},{"id":6671074,"name":"Algarpaaraco","lon":-75.9196,"lat":-11.64474,"pop":0},{"id":3699786,"name":"Algarrobal","lon":-78.21035,"lat":-9.13423,"pop":0},{"id":3699787,"name":"Algarrobal","lon":-78.95792,"lat":-7.5281,"pop":48},{"id":3699788,"name":"Algarrobal","lon":-79.44111,"lat":-6.70056,"pop":0},{"id":3699789,"name":"Algarrobal","lon":-79.88333,"lat":-6.75,"pop":0},{"id":3699790,"name":"Algarrobal","lon":-80.93333,"lat":-4.71667,"pop":0},{"id":3699791,"name":"Algarrobal","lon":-80.2,"lat":-4.71667,"pop":0},{"id":3742987,"name":"Algarrobal","lon":-79.4439,"lat":-6.65899,"pop":0},{"id":6412096,"name":"Algarrobal","lon":-77.49028,"lat":-11.09667,"pop":0},{"id":6559993,"name":"Algarrobal","lon":-78.17795,"lat":-9.1275,"pop":8},{"id":10958770,"name":"Algarrobal","lon":-79.60494,"lat":-6.78084,"pop":0},{"id":3699783,"name":"Algarrobillo","lon":-80.37666,"lat":-4.50791,"pop":4},{"id":3743403,"name":"Algarrobito","lon":-79.16977,"lat":-6.0537,"pop":0},{"id":3697444,"name":"Algarrobo","alt":["Algarrabo","El Algarrobo"],"lon":-80.28022,"lat":-3.45207,"pop":0},{"id":3699779,"name":"Algarrobo","lon":-79.76357,"lat":-4.75455,"pop":0},{"id":3699780,"name":"Algarrobo","alt":["Aigarrobo"],"lon":-81.16152,"lat":-4.53159,"pop":0},{"id":7544119,"name":"Algarrobo","lon":-76.53574,"lat":-7.0393,"pop":0},{"id":11007272,"name":"Algarrobo Cuchara","lon":-79.4898,"lat":-7.14122,"pop":0},{"id":3699776,"name":"Algarrobo Grande","lon":-79.57618,"lat":-6.25545,"pop":170},{"id":3699782,"name":"Algarrovillo","alt":["Algarrobillo"],"lon":-80.73781,"lat":-4.55572,"pop":0},{"id":6666230,"name":"Algarumi","lon":-76.65377,"lat":-9.9214,"pop":36},{"id":6403542,"name":"Algaycancha","lon":-76.64167,"lat":-10.42139,"pop":0},{"id":6666198,"name":"Algayhuachan","lon":-76.72341,"lat":-9.92394,"pop":0},{"id":6669329,"name":"Algayshampo","lon":-76.27217,"lat":-11.14967,"pop":8},{"id":3744475,"name":"Algodón","lon":-77.65194,"lat":-7.87667,"pop":0},{"id":3699774,"name":"Algodona","lon":-79.65331,"lat":-5.8567,"pop":0},{"id":3699771,"name":"Algodonal","lon":-80.33369,"lat":-4.57424,"pop":17},{"id":3699772,"name":"Algodonal","lon":-80.7814,"lat":-4.52491,"pop":0},{"id":3699773,"name":"Algodonal","lon":-72.88333,"lat":-4.18333,"pop":0},{"id":3810667,"name":"Algodonal","lon":-79.55674,"lat":-6.77315,"pop":0},{"id":3812911,"name":"Algodonal","lon":-79.35099,"lat":-7.7488,"pop":0},{"id":10866913,"name":"Algodonal","lon":-75.9064,"lat":-13.33573,"pop":8},{"id":3699770,"name":"Algodonales","alt":["Algodonal"],"lon":-79.91839,"lat":-5.15206,"pop":0},{"id":3699767,"name":"Algodonalillo","alt":["Algodoncillo"],"lon":-80.66057,"lat":-4.46377,"pop":13},{"id":3948163,"name":"Algohuain","lon":-76.54871,"lat":-10.03459,"pop":0},{"id":3948161,"name":"Alhacone","lon":-73.5573,"lat":-14.80481,"pop":0},{"id":3962652,"name":"Alhua","lon":-76.92386,"lat":-10.60187,"pop":2},{"id":6674677,"name":"Alhuanyaco","lon":-75.3376,"lat":-11.83242,"pop":135},{"id":3699765,"name":"Ali","lon":-76.51667,"lat":-8.63333,"pop":0},{"id":3948160,"name":"Aliaga","alt":["Aliaga Hacienda"],"lon":-77.06667,"lat":-12.01667,"pop":0},{"id":3699761,"name":"Alianza","lon":-75.3,"lat":-6.25,"pop":0},{"id":3699762,"name":"Alianza","lon":-73.75,"lat":-5.61667,"pop":0},{"id":3699763,"name":"Alianza","lon":-74.23333,"lat":-5.58333,"pop":0},{"id":3699764,"name":"Alianza","lon":-78.15,"lat":-4.66667,"pop":0},{"id":6303001,"name":"Alianza","lon":-74.72804,"lat":-11.28444,"pop":0},{"id":6307848,"name":"Alianza","lon":-73.04019,"lat":-4.10072,"pop":138},{"id":10865732,"name":"Alianza","lon":-76.69392,"lat":-6.74042,"pop":0},{"id":11512578,"name":"Alianza","lon":-69.28699,"lat":-11.45802,"pop":0},{"id":11514268,"name":"Alianza","lon":-69.55754,"lat":-11.464,"pop":0},{"id":3752737,"name":"Alianza Cristiana","lon":-76.43444,"lat":-3.47528,"pop":471},{"id":3699760,"name":"Alican Chico","alt":["Alican"],"lon":-79.78675,"lat":-6.82467,"pop":0},{"id":6671263,"name":"Alicancha","lon":-75.92659,"lat":-11.78189,"pop":0},{"id":3699757,"name":"Alicia","lon":-79.78,"lat":-5.80639,"pop":0},{"id":11558964,"name":"Alicia","lon":-69.62706,"lat":-13.89922,"pop":26},{"id":3948157,"name":"Alicta","lon":-71.16667,"lat":-12.98333,"pop":0},{"id":3948155,"name":"Aliluyane","lon":-69.9,"lat":-16.08333,"pop":0},{"id":6674684,"name":"Aliolo","lon":-75.28336,"lat":-11.8423,"pop":0},{"id":3948154,"name":"Alipadja","lon":-69.75879,"lat":-15.97496,"pop":0},{"id":3948153,"name":"Alis","alt":["Alip"],"lon":-75.78694,"lat":-12.27861,"pop":198},{"id":3699755,"name":"Alisal","lon":-79.25077,"lat":-5.32269,"pop":0},{"id":3699754,"name":"Aliso","lon":-78.21687,"lat":-6.6428,"pop":0},{"id":6389145,"name":"Aliso","lon":-77.35194,"lat":-6.44917,"pop":0},{"id":6385561,"name":"Aliso Pampa","lon":-77.42556,"lat":-8.2975,"pop":0},{"id":3699753,"name":"Alisopat","alt":["Aliso-Pata"],"lon":-78,"lat":-7.3,"pop":0},{"id":3699752,"name":"Alisopata","lon":-78.45688,"lat":-7.04983,"pop":0},{"id":3699751,"name":"Alisos","lon":-79.91384,"lat":-4.80603,"pop":0},{"id":6384775,"name":"Alisos","lon":-77.44583,"lat":-8.03278,"pop":0},{"id":3948149,"name":"Alito","lon":-70.71826,"lat":-16.77136,"pop":0},{"id":3699750,"name":"Alizal","lon":-78.35166,"lat":-7.5849,"pop":0},{"id":3743781,"name":"Alizar","lon":-77.67745,"lat":-7.97103,"pop":0},{"id":6385002,"name":"Alizar","lon":-77.30136,"lat":-8.21938,"pop":216},{"id":3762201,"name":"Alizo","lon":-79.43709,"lat":-5.99759,"pop":0},{"id":3948148,"name":"Alizo","lon":-77.46545,"lat":-10.05738,"pop":3},{"id":6368068,"name":"Alizo","lon":-78.0075,"lat":-8.95444,"pop":0},{"id":6368125,"name":"Alizo","lon":-78.15861,"lat":-8.89028,"pop":0},{"id":6368140,"name":"Alizo","lon":-78.10944,"lat":-8.92694,"pop":0},{"id":6368263,"name":"Alizo","lon":-78.1925,"lat":-8.78417,"pop":5},{"id":3948147,"name":"Allacas","lon":-73.64281,"lat":-14.58004,"pop":0},{"id":3948146,"name":"Allachay","lon":-72.25696,"lat":-15.52413,"pop":0},{"id":3948145,"name":"Allacoracca","lon":-73.16556,"lat":-15.20722,"pop":0},{"id":3948144,"name":"Allacro","lon":-73.73629,"lat":-13.53018,"pop":0},{"id":3951523,"name":"Allactaocpata","lon":-71.22386,"lat":-15.77018,"pop":0},{"id":3961231,"name":"Allacurán","lon":-75.89028,"lat":-11.23083,"pop":0},{"id":3948143,"name":"Allahuay","lon":-72.87633,"lat":-15.24936,"pop":0},{"id":3948140,"name":"Allanca","lon":-75.44779,"lat":-13.78593,"pop":1},{"id":3948139,"name":"Allancay","lon":-73.04814,"lat":-15.25516,"pop":43},{"id":3948137,"name":"Allapata","lon":-73.83082,"lat":-13.33534,"pop":0},{"id":6671125,"name":"Allarac","lon":-75.81158,"lat":-11.68526,"pop":0},{"id":3948136,"name":"Allarpo","lon":-74.51667,"lat":-13.05,"pop":241},{"id":3948135,"name":"Allasura","lon":-71.31523,"lat":-15.45858,"pop":0},{"id":3948134,"name":"Allate","lon":-73.9765,"lat":-15.38874,"pop":0},{"id":3948133,"name":"Allato","lon":-74.73397,"lat":-12.96798,"pop":281},{"id":3948132,"name":"Allauca","lon":-72.53333,"lat":-14.31667,"pop":0},{"id":3955819,"name":"Allauca","lon":-72.89626,"lat":-15.11782,"pop":0},{"id":6379841,"name":"Allauca","lon":-77.83056,"lat":-9.03556,"pop":211},{"id":6385135,"name":"Allauca","lon":-77.28336,"lat":-8.29324,"pop":321},{"id":6664402,"name":"Allay Cori","lon":-77.31383,"lat":-10.07428,"pop":0},{"id":3699749,"name":"Allaymucha","lon":-78.03372,"lat":-8.2728,"pop":0},{"id":3948130,"name":"Allayu","lon":-76.51181,"lat":-10.54277,"pop":0},{"id":3948129,"name":"Allcas","lon":-75.6482,"lat":-13.08599,"pop":3},{"id":8647933,"name":"Allcashaca","lon":-74.05792,"lat":-12.77915,"pop":0},{"id":8661955,"name":"Allcay","lon":-74.6116,"lat":-12.67124,"pop":0},{"id":6308727,"name":"Allccahuiri","lon":-73.22944,"lat":-13.89194,"pop":0},{"id":3948125,"name":"Allccane","lon":-74.87802,"lat":-13.85459,"pop":0},{"id":3960147,"name":"Allccanja","lon":-75.09697,"lat":-14.00936,"pop":0},{"id":3948124,"name":"Allcohuilca","alt":["Allcuhuilcca"],"lon":-74.24723,"lat":-12.99459,"pop":0},{"id":10801093,"name":"Allcoyacu","lon":-76.57264,"lat":-6.95985,"pop":0},{"id":6670314,"name":"Allgahuanca","lon":-76.19294,"lat":-9.90815,"pop":211},{"id":8664640,"name":"Allhuallacay","lon":-74.72589,"lat":-12.36211,"pop":0},{"id":3948122,"name":"Allhuire","lon":-72.29139,"lat":-15.30194,"pop":42},{"id":3948121,"name":"Allhuiscca","lon":-74.18333,"lat":-14.35,"pop":0},{"id":3959034,"name":"Allipachaca","lon":-73.69583,"lat":-14.17194,"pop":0},{"id":6393013,"name":"Allita","lon":-69.50719,"lat":-17.40858,"pop":1},{"id":6379884,"name":"Allmay","lon":-77.81917,"lat":-9.13361,"pop":384},{"id":3948117,"name":"Alloca","lon":-76.25836,"lat":-12.27263,"pop":137},{"id":8668974,"name":"Allpa Orccuna","lon":-74.38388,"lat":-13.16995,"pop":0},{"id":3948115,"name":"Allpacancha","alt":["Allpacancha Hacienda"],"lon":-72.1,"lat":-14.28333,"pop":0},{"id":3948113,"name":"Allpachaca","alt":["Fundo Allpachaca"],"lon":-74.26136,"lat":-13.38788,"pop":0},{"id":8650085,"name":"Allpachaca","lon":-74.22195,"lat":-12.74193,"pop":0},{"id":8669908,"name":"Allpachaca","lon":-74.35673,"lat":-13.13653,"pop":0},{"id":8679117,"name":"Allpacocha","lon":-74.74913,"lat":-13.23407,"pop":0},{"id":3948111,"name":"Allpacoto","alt":["Allpacopa","Allpacoto Hacienda"],"lon":-77.53333,"lat":-10.88333,"pop":0},{"id":8664083,"name":"Allpahuasi","lon":-74.8507,"lat":-12.3807,"pop":0},{"id":6665671,"name":"Allpajuchu","lon":-76.81622,"lat":-9.9439,"pop":0},{"id":8663139,"name":"Allpapuquio","lon":-74.96694,"lat":-12.94275,"pop":0},{"id":6379688,"name":"Allpaquita","lon":-77.93667,"lat":-9.29889,"pop":382},{"id":8651255,"name":"Allparaquina","lon":-74.42844,"lat":-12.7157,"pop":132},{"id":8661362,"name":"Allpas","lon":-74.58019,"lat":-12.87232,"pop":274},{"id":3948108,"name":"Allpaspina","lon":-74.23707,"lat":-14.49335,"pop":0},{"id":3948107,"name":"Allpaurccuna","lon":-74.24547,"lat":-13.02967,"pop":219},{"id":3967630,"name":"Allurán","lon":-76.25694,"lat":-11.81111,"pop":0},{"id":3948105,"name":"Almacén","alt":["Almacen","Almacen Hacienda","Almacén Hacienda"],"lon":-75.90252,"lat":-13.26518,"pop":0},{"id":3948103,"name":"Almajasa","lon":-74.17516,"lat":-14.18489,"pop":0},{"id":6402720,"name":"Almamachay","lon":-76.92639,"lat":-10.19333,"pop":0},{"id":6400498,"name":"Almara","lon":-70.26056,"lat":-18.01889,"pop":0},{"id":6660857,"name":"Almendra","lon":-79.86511,"lat":-4.73538,"pop":0},{"id":3699747,"name":"Almendral","alt":["Hacienda Almendral"],"lon":-79.39769,"lat":-6.63525,"pop":0},{"id":3699748,"name":"Almendral","lon":-76.3,"lat":-6.26667,"pop":0},{"id":3762440,"name":"Almendral","lon":-78.71398,"lat":-5.78856,"pop":0},{"id":3811928,"name":"Almendral","lon":-78.44038,"lat":-5.62638,"pop":97},{"id":3699745,"name":"Almendras","lon":-75.93333,"lat":-9.38333,"pop":0},{"id":3699744,"name":"Almendro","lon":-80.66667,"lat":-4.41667,"pop":0},{"id":3817270,"name":"Almendro","lon":-78.37345,"lat":-5.26353,"pop":0},{"id":3753172,"name":"Aloacocha","lon":-78.18163,"lat":-6.9328,"pop":0},{"id":3948098,"name":"Alolpuqio","lon":-75.36211,"lat":-12.14144,"pop":0},{"id":3948096,"name":"Alonso","lon":-70.84007,"lat":-15.67238,"pop":0},{"id":3948097,"name":"Alonso","lon":-77.53373,"lat":-10.14808,"pop":0},{"id":6383285,"name":"Alonso de Orellana","lon":-77.81499,"lat":-6.39423,"pop":0},{"id":3948095,"name":"Alonsohue","lon":-69.54762,"lat":-16.25041,"pop":0},{"id":3948092,"name":"Alpacollo","lon":-70.70776,"lat":-15.50596,"pop":0},{"id":6403052,"name":"Alpacoto","lon":-76.74083,"lat":-10.26,"pop":13},{"id":3948086,"name":"Alpaluce","lon":-73.8784,"lat":-15.21798,"pop":0},{"id":3948085,"name":"Alpamarca","lon":-76.52306,"lat":-10.79111,"pop":8},{"id":6671153,"name":"Alpamarca","lon":-75.93832,"lat":-11.68757,"pop":4},{"id":3968704,"name":"Alpamina","lon":-76.10167,"lat":-11.60611,"pop":499},{"id":8676127,"name":"Alpanan","lon":-74.98659,"lat":-13.3406,"pop":0},{"id":6669138,"name":"Alpañarca","lon":-76.44946,"lat":-11.2198,"pop":0},{"id":6665733,"name":"Alpancia","lon":-76.73724,"lat":-9.51715,"pop":2},{"id":6310065,"name":"Alpaquista","lon":-69.38769,"lat":-16.82139,"pop":0},{"id":3948083,"name":"Alpas","alt":["Alpas Hacienda"],"lon":-77.51205,"lat":-10.63499,"pop":119},{"id":3948080,"name":"Alpasca","lon":-73.95,"lat":-15,"pop":0},{"id":3948078,"name":"Alpayoc","lon":-74.2288,"lat":-15.11092,"pop":0},{"id":3948077,"name":"Alpechín","lon":-71.46027,"lat":-17.28743,"pop":0},{"id":11514984,"name":"Alta Cachuela","lon":-69.18239,"lat":-12.48837,"pop":65},{"id":11083204,"name":"Alta Laluna","lon":-76.1618,"lat":-13.53839,"pop":0},{"id":11515892,"name":"Alta Pastora","alt":["Pastora Alta"],"lon":-69.23024,"lat":-12.57509,"pop":68},{"id":6303686,"name":"Altacarania","lon":-75.87278,"lat":-12.34583,"pop":0},{"id":3762211,"name":"Altamina","lon":-78.89801,"lat":-5.5055,"pop":0},{"id":11510971,"name":"Altamira","lon":-69.43833,"lat":-11.78551,"pop":0},{"id":11514822,"name":"Altamira","lon":-69.67005,"lat":-10.96327,"pop":0},{"id":11511681,"name":"Altamira Dos","lon":-69.47542,"lat":-11.19777,"pop":0},{"id":3699739,"name":"Altamisa","lon":-78.93794,"lat":-7.3343,"pop":0},{"id":3699740,"name":"Altamisa","lon":-79.73471,"lat":-5.0448,"pop":87},{"id":6309955,"name":"Altanasa","lon":-69.34724,"lat":-16.71102,"pop":0},{"id":3948072,"name":"Altarane","lon":-71.04557,"lat":-16.0679,"pop":0},{"id":3966181,"name":"Altarani","lon":-69.74861,"lat":-14.41444,"pop":0},{"id":6310016,"name":"Altarani","lon":-69.4091,"lat":-16.77274,"pop":42},{"id":6391509,"name":"Altarccacca","lon":-72.41611,"lat":-13.83361,"pop":0},{"id":3948075,"name":"Altarnioc","alt":["Altamioc"],"lon":-74.69079,"lat":-13.78116,"pop":0},{"id":8650955,"name":"Altarpata","lon":-74.348,"lat":-12.67512,"pop":0},{"id":11792161,"name":"Altarpata Aurora","lon":-69.36482,"lat":-14.85563,"pop":6},{"id":3948068,"name":"Altaruma","lon":-71.51412,"lat":-15.27114,"pop":0},{"id":3948066,"name":"Alterpampa","lon":-74.27263,"lat":-14.36178,"pop":0},{"id":3948064,"name":"Altillo","lon":-70.97606,"lat":-17.21568,"pop":45},{"id":10800462,"name":"Alto Algarrobo","lon":-76.69593,"lat":-6.75526,"pop":162},{"id":12281445,"name":"Alto Amazonas","lon":-74.05396,"lat":-12.17414,"pop":0},{"id":10865736,"name":"Alto Aminio","lon":-76.68557,"lat":-6.55241,"pop":0},{"id":3969525,"name":"Alto Anapatí","lon":-74.32333,"lat":-11.75694,"pop":0},{"id":3948060,"name":"Alto Angara","lon":-70.51213,"lat":-15.01646,"pop":0},{"id":11778691,"name":"Alto Arcopunco","lon":-68.97939,"lat":-14.03798,"pop":0},{"id":3963833,"name":"Alto Ashaninga","lon":-74.81073,"lat":-10.99023,"pop":0},{"id":10865666,"name":"Alto Azangihua","lon":-76.72615,"lat":-6.66913,"pop":0},{"id":11528703,"name":"Alto Azata","lon":-69.07311,"lat":-13.95041,"pop":287},{"id":3963771,"name":"Alto Azupizu","lon":-74.92262,"lat":-10.65307,"pop":0},{"id":11514826,"name":"Alto Belgica","lon":-69.75,"lat":-10.96985,"pop":14},{"id":3744915,"name":"Alto Blanco","lon":-77.61068,"lat":-7.82098,"pop":92},{"id":6564179,"name":"Alto Bocaz","lon":-75.19089,"lat":-10.66378,"pop":42},{"id":6564172,"name":"Alto Cacazú","alt":["Alto Cacazu"],"lon":-75.15914,"lat":-10.70799,"pop":71},{"id":3948059,"name":"Alto Calera","lon":-73.60847,"lat":-15.39136,"pop":0},{"id":11003646,"name":"Alto Callao","lon":-75.74532,"lat":-14.01142,"pop":87},{"id":12291568,"name":"Alto Camantivishi","lon":-73.86009,"lat":-11.92534,"pop":0},{"id":6303065,"name":"Alto Camonashari","lon":-74.72037,"lat":-11.19838,"pop":0},{"id":10636328,"name":"Alto Canal","lon":-78.56244,"lat":-8.94341,"pop":86},{"id":6302843,"name":"Alto Capiro","lon":-74.76157,"lat":-11.21917,"pop":0},{"id":6303013,"name":"Alto Capiro","lon":-74.74423,"lat":-11.23797,"pop":161},{"id":11558213,"name":"Alto Ccapuna","lon":-69.46058,"lat":-14.34703,"pop":0},{"id":6395619,"name":"Alto Celendín","lon":-74.45787,"lat":-11.42227,"pop":0},{"id":11778697,"name":"Alto Centro Urubamba","lon":-68.92063,"lat":-14.04741,"pop":89},{"id":11196954,"name":"Alto Chiatipishca","lon":-75.06053,"lat":-7.41588,"pop":0},{"id":3969519,"name":"Alto Chichirene","alt":["Alto Chirireni"],"lon":-74.21834,"lat":-11.84479,"pop":0},{"id":6395641,"name":"Alto Chiquireni","lon":-74.06647,"lat":-11.47266,"pop":0},{"id":11515850,"name":"Alto Chorrillos","lon":-69.291,"lat":-12.58691,"pop":15},{"id":11558960,"name":"Alto Cielo","lon":-69.66229,"lat":-13.91309,"pop":14},{"id":6258470,"name":"Alto Cirialo","lon":-72.92784,"lat":-12.75735,"pop":191},{"id":6395589,"name":"Alto Cobaro","lon":-74.39472,"lat":-11.29333,"pop":0},{"id":6304819,"name":"Alto Conazo","lon":-75.21917,"lat":-10.21028,"pop":0},{"id":11751110,"name":"Alto Curasia","lon":-69.33782,"lat":-15.51779,"pop":39},{"id":6303064,"name":"Alto Cushiviani","lon":-74.70291,"lat":-11.19661,"pop":324},{"id":6302789,"name":"Alto Cuyani","lon":-74.94454,"lat":-11.0165,"pop":115},{"id":3699733,"name":"Alto de Canchas","lon":-78.52354,"lat":-7.81854,"pop":45},{"id":3699732,"name":"Alto de Carrillo","lon":-80.71667,"lat":-5.31667,"pop":0},{"id":3948055,"name":"Alto de Chapi","lon":-70.51814,"lat":-17.82285,"pop":0},{"id":3699730,"name":"Alto de la Cruz","alt":["Alto de la Cruz Hacienda"],"lon":-80.76981,"lat":-5.34569,"pop":992},{"id":3948052,"name":"Alto de la Luna","lon":-73.82396,"lat":-15.7022,"pop":79},{"id":3699729,"name":"Alto de la Paloma","lon":-81.11667,"lat":-4.9,"pop":0},{"id":10951113,"name":"Alto del Medano","lon":-79.95886,"lat":-6.501,"pop":0},{"id":3950786,"name":"Alto del Molino","lon":-73.36971,"lat":-15.76136,"pop":0},{"id":6384839,"name":"Alto del Rayo","lon":-77.46389,"lat":-8.06,"pop":0},{"id":12297242,"name":"Alto Ene","lon":-74.05329,"lat":-12.11926,"pop":0},{"id":6564116,"name":"Alto Entas","alt":["Alto Enta","Alto Entá"],"lon":-75.27787,"lat":-10.79636,"pop":0},{"id":3699722,"name":"Alto Grande","lon":-80.83352,"lat":-4.87892,"pop":0},{"id":3756342,"name":"Alto Grande","lon":-80.43576,"lat":-5.06552,"pop":0},{"id":3948040,"name":"Alto Grande","lon":-74.86667,"lat":-15.43333,"pop":0},{"id":11792777,"name":"Alto Grande","lon":-69.40884,"lat":-15.14319,"pop":138},{"id":11792789,"name":"Alto Hacha Pampa","lon":-69.37949,"lat":-15.17788,"pop":41},{"id":6302839,"name":"Alto Huahuari","lon":-74.78735,"lat":-11.17395,"pop":250},{"id":3812014,"name":"Alto Huarangal","lon":-78.36553,"lat":-5.85561,"pop":0},{"id":6394284,"name":"Alto Huaynabe","lon":-76.27312,"lat":-8.34671,"pop":0},{"id":6304809,"name":"Alto Iscozacín","lon":-75.18722,"lat":-10.25083,"pop":0},{"id":11528676,"name":"Alto Isilluma","lon":-69.3627,"lat":-13.97168,"pop":110},{"id":7543967,"name":"Alto Juñao","lon":-76.69191,"lat":-7.25056,"pop":0},{"id":3963817,"name":"Alto Kimiriki","lon":-74.88165,"lat":-11.00372,"pop":312},{"id":10899760,"name":"Alto Kivinaki","lon":-75.00593,"lat":-10.9077,"pop":131},{"id":3812915,"name":"Alto La Hilaria","lon":-79.32045,"lat":-7.69001,"pop":0},{"id":11087882,"name":"Alto La Luna","lon":-76.18334,"lat":-13.71238,"pop":0},{"id":3948036,"name":"Alto La Villa","lon":-70.94154,"lat":-17.18261,"pop":39},{"id":3960836,"name":"Alto Laran","lon":-75.24247,"lat":-14.46401,"pop":146},{"id":3936862,"name":"Alto Larán","alt":["Alto Laran","Laran","Larán"],"lon":-76.08718,"lat":-13.44099,"pop":0},{"id":6564162,"name":"Alto Llapas","lon":-75.17709,"lat":-10.8473,"pop":27},{"id":11514986,"name":"Alto Loboyoc","lon":-69.17144,"lat":-12.45772,"pop":15},{"id":11515881,"name":"Alto Loero","lon":-69.2134,"lat":-12.66832,"pop":11},{"id":11515887,"name":"Alto Loero","lon":-69.16077,"lat":-12.64116,"pop":0},{"id":3753299,"name":"Alto Machay","lon":-78.44925,"lat":-6.99388,"pop":0},{"id":12281465,"name":"Alto Mantaro","lon":-74.07554,"lat":-12.23602,"pop":0},{"id":6394326,"name":"Alto Manteca","lon":-76.30523,"lat":-8.43382,"pop":0},{"id":6303035,"name":"Alto Maranquiari","lon":-74.55167,"lat":-11.18167,"pop":0},{"id":6395612,"name":"Alto Matzuriniari","lon":-74.36955,"lat":-11.40474,"pop":0},{"id":6389273,"name":"Alto Mayo","lon":-77.47193,"lat":-5.69828,"pop":548},{"id":11778695,"name":"Alto Miraflores","lon":-68.85874,"lat":-14.15192,"pop":237},{"id":6560902,"name":"Alto Miricharo","lon":-75.01301,"lat":-11.03216,"pop":0},{"id":9873481,"name":"Alto Mishquiyacu","lon":-78.33053,"lat":-5.76167,"pop":0},{"id":12281451,"name":"Alto Montaña de Shimpenchari","alt":["Alto Montana de Shimpenchari"],"lon":-74.03547,"lat":-12.19724,"pop":0},{"id":6304854,"name":"Alto Moshoca","lon":-75.49187,"lat":-9.63054,"pop":0},{"id":6389295,"name":"Alto Naranjillo","lon":-77.41056,"lat":-5.8125,"pop":200},{"id":11558437,"name":"Alto Pablobamba","lon":-69.06894,"lat":-14.3358,"pop":0},{"id":3740160,"name":"Alto Pacae","lon":-76.03778,"lat":-9.01389,"pop":262},{"id":12281430,"name":"Alto Pachiri","lon":-74.1242,"lat":-12.04873,"pop":0},{"id":3817264,"name":"Alto Pacuy","lon":-78.25642,"lat":-5.23447,"pop":0},{"id":3812913,"name":"Alto Paiján","lon":-79.30701,"lat":-7.72072,"pop":0},{"id":6564124,"name":"Alto Pampa Hermosa","alt":["Alto Pampa Hermoza"],"lon":-75.26561,"lat":-10.89877,"pop":0},{"id":6389168,"name":"Alto Paraíso","lon":-77.24194,"lat":-6.04667,"pop":57},{"id":12291528,"name":"Alto Parijari","lon":-73.90403,"lat":-12.34108,"pop":0},{"id":3948029,"name":"Alto Patacollo","lon":-69.21987,"lat":-16.45569,"pop":127},{"id":3949752,"name":"Alto Pauji","lon":-68.99317,"lat":-13.98944,"pop":54},{"id":6303090,"name":"Alto Paureli","lon":-74.58503,"lat":-11.11955,"pop":241},{"id":3699738,"name":"Alto Perillo","alt":["Alta Perilla","Nuevo Olaya"],"lon":-75.14333,"lat":-7.07869,"pop":554},{"id":3699717,"name":"Alto Peru","lon":-79.46747,"lat":-7.19271,"pop":0},{"id":3948028,"name":"Alto Peru","lon":-76.53667,"lat":-11.12139,"pop":0},{"id":11512585,"name":"Alto Peru","lon":-69.25913,"lat":-11.45737,"pop":3},{"id":3699718,"name":"Alto Perú","lon":-79.75889,"lat":-6.6975,"pop":0},{"id":3810668,"name":"Alto Perú","lon":-79.55666,"lat":-6.89584,"pop":0},{"id":3812914,"name":"Alto Perú","lon":-79.00538,"lat":-7.73752,"pop":0},{"id":3948025,"name":"Alto Perú","lon":-70.15472,"lat":-17.46965,"pop":3},{"id":3948026,"name":"Alto Perú","lon":-73.81667,"lat":-15.75,"pop":0},{"id":3948027,"name":"Alto Perú","alt":["Alto Peru"],"lon":-76.82032,"lat":-11.97817,"pop":0},{"id":6389223,"name":"Alto Perú","lon":-77.09751,"lat":-6.29892,"pop":774},{"id":6394037,"name":"Alto Perú","lon":-69.67889,"lat":-17.57444,"pop":85},{"id":6412027,"name":"Alto Perú","alt":["Alto Peru"],"lon":-78.58041,"lat":-8.9478,"pop":788},{"id":6671160,"name":"Alto Perú","lon":-75.98925,"lat":-11.74933,"pop":1},{"id":6674604,"name":"Alto Perú","lon":-75.28928,"lat":-11.90098,"pop":88},{"id":9873418,"name":"Alto Perú","alt":["Alto Peru"],"lon":-78.44626,"lat":-5.90313,"pop":381},{"id":6394305,"name":"Alto Peso","lon":-76.47944,"lat":-8.43333,"pop":0},{"id":6394306,"name":"Alto Peso","lon":-76.48203,"lat":-8.43596,"pop":0},{"id":9819647,"name":"Alto Pichanaki","lon":-74.97326,"lat":-10.98164,"pop":0},{"id":11792195,"name":"Alto Piduni","lon":-69.37789,"lat":-14.88163,"pop":0},{"id":9875308,"name":"Alto Polish","lon":-76.30338,"lat":-6.5046,"pop":58},{"id":10865775,"name":"Alto Poloponta","lon":-76.52137,"lat":-6.56958,"pop":0},{"id":6394261,"name":"Alto Poro","lon":-76.32858,"lat":-8.30233,"pop":0},{"id":6394269,"name":"Alto Poro","lon":-76.46918,"lat":-8.37432,"pop":0},{"id":6395634,"name":"Alto Potsoteni","lon":-74.29787,"lat":-11.41599,"pop":0},{"id":6672527,"name":"Alto Pucate","lon":-76.17271,"lat":-8.92456,"pop":0},{"id":6564233,"name":"Alto Pucharini","lon":-75.07314,"lat":-10.8922,"pop":162},{"id":6564239,"name":"Alto Pumpuriani","lon":-75.03904,"lat":-10.90503,"pop":173},{"id":6198972,"name":"Alto Puru","alt":["Alto Peru"],"lon":-78.57206,"lat":-9.07024,"pop":0},{"id":3963819,"name":"Alto Puyeni","lon":-74.88604,"lat":-10.95428,"pop":0},{"id":11792831,"name":"Alto Quillca","lon":-69.44606,"lat":-15.36323,"pop":46},{"id":6561009,"name":"Alto Quimarini","lon":-75.1915,"lat":-11.02241,"pop":0},{"id":12281448,"name":"Alto Quimaropitari","lon":-74.01682,"lat":-12.17727,"pop":0},{"id":12297191,"name":"Alto Quiteni","lon":-73.99303,"lat":-11.66647,"pop":0},{"id":11528671,"name":"Alto Río Blanco","alt":["Alto Rio Blanco"],"lon":-69.38218,"lat":-13.99135,"pop":8},{"id":3756087,"name":"Alto Roque","alt":["Alto de Roque"],"lon":-80.23188,"lat":-5.94714,"pop":0},{"id":6392950,"name":"Alto Rosario de Ancomarca","lon":-69.64287,"lat":-17.17255,"pop":0},{"id":12158751,"name":"Alto Salaverry","lon":-78.98639,"lat":-8.1865,"pop":5014},{"id":11528476,"name":"Alto San Fermín","alt":["Alto San Fermin"],"lon":-68.98823,"lat":-13.96656,"pop":111},{"id":3699714,"name":"Alto San Ildefonso","alt":["Alto San Iidefonzo"],"lon":-79.58452,"lat":-7.14389,"pop":517},{"id":6564242,"name":"Alto San Juan","lon":-75.03879,"lat":-10.93357,"pop":367},{"id":6389245,"name":"Alto San Martin","lon":-77.08139,"lat":-6.18139,"pop":0},{"id":6303034,"name":"Alto San Pascual","lon":-74.54278,"lat":-11.20167,"pop":124},{"id":6302848,"name":"Alto Santa Irene","lon":-74.76956,"lat":-11.27811,"pop":341},{"id":11558336,"name":"Alto Santa Rosa","lon":-69.195,"lat":-14.23132,"pop":119},{"id":6395662,"name":"Alto Saureni","lon":-74.29422,"lat":-11.28444,"pop":0},{"id":6395686,"name":"Alto Shanquireni","lon":-74.30409,"lat":-11.21146,"pop":0},{"id":3969516,"name":"Alto Somabeni","lon":-74.17723,"lat":-11.95088,"pop":0},{"id":6395656,"name":"Alto Tabecharo","lon":-74.23379,"lat":-11.36941,"pop":0},{"id":6303017,"name":"Alto Timarini","lon":-74.6918,"lat":-11.24753,"pop":110},{"id":3969518,"name":"Alto Tincaveni","alt":["Alto Tincabeni"],"lon":-74.20395,"lat":-11.87684,"pop":0},{"id":6564150,"name":"Alto Toterani","lon":-75.14125,"lat":-10.95931,"pop":160},{"id":12291553,"name":"Alto Tsirotiari","lon":-73.97356,"lat":-12.17941,"pop":0},{"id":12281444,"name":"Alto Tununtuari Amazonas","lon":-74.0699,"lat":-12.17838,"pop":0},{"id":11558407,"name":"Alto Tuquimayo","lon":-69.06673,"lat":-14.06783,"pop":0},{"id":3949761,"name":"Alto Urubamba","lon":-68.92755,"lat":-14.04383,"pop":150},{"id":6304729,"name":"Alto Victoria","lon":-75.47722,"lat":-10.09306,"pop":0},{"id":6303122,"name":"Alto Villa Victoria","lon":-74.6238,"lat":-11.05775,"pop":310},{"id":6385427,"name":"Alto Yaco","lon":-77.2725,"lat":-8.43056,"pop":0},{"id":6672544,"name":"Alto Yanajanca","lon":-76.31508,"lat":-8.65458,"pop":0},{"id":11558394,"name":"Alto Yanamayo","lon":-69.0847,"lat":-14.19132,"pop":197},{"id":6304921,"name":"Alto Yanayacu","lon":-75.08897,"lat":-9.57187,"pop":58},{"id":3925383,"name":"Alto Yurinaki","alt":["Alto Yuri","Yurinaqui"],"lon":-75.14752,"lat":-10.76702,"pop":0},{"id":3963780,"name":"Alto Zotani","lon":-74.92461,"lat":-10.82165,"pop":0},{"id":3747826,"name":"Altomira","alt":["Hacienda Altomira"],"lon":-81.08601,"lat":-4.91879,"pop":0},{"id":6670208,"name":"Altonquera","lon":-76.27776,"lat":-9.85884,"pop":0},{"id":3949235,"name":"Altos de Amado","lon":-71.58889,"lat":-16.42528,"pop":0},{"id":11792795,"name":"Altos Huayrapata","lon":-69.35303,"lat":-15.23676,"pop":64},{"id":3948014,"name":"Altosillata","lon":-69.66667,"lat":-15.16667,"pop":0},{"id":11778692,"name":"Altovalle","lon":-68.9705,"lat":-14.11846,"pop":0},{"id":3699707,"name":"Alumbre","lon":-78.24982,"lat":-8.1048,"pop":0},{"id":3699708,"name":"Alumbre","lon":-80.31352,"lat":-4.51956,"pop":0},{"id":3752977,"name":"Alumbre","lon":-78.43498,"lat":-6.8814,"pop":0},{"id":3761530,"name":"Alumbre","lon":-79.51435,"lat":-5.27764,"pop":402},{"id":11792790,"name":"Alvarizani","lon":-69.39588,"lat":-15.2111,"pop":5},{"id":6258551,"name":"Alvasuyoc","lon":-72.61221,"lat":-12.81351,"pop":0},{"id":3948006,"name":"Ama","alt":["Amo"],"lon":-76.88583,"lat":-11.46861,"pop":3},{"id":6560815,"name":"Amable María","lon":-75.35552,"lat":-11.16846,"pop":0},{"id":3960665,"name":"Amabula","lon":-76.05476,"lat":-10.03604,"pop":0},{"id":8648211,"name":"Amacachayoc","lon":-74.10563,"lat":-12.51933,"pop":0},{"id":6392568,"name":"Amache","lon":-72.00917,"lat":-13.53333,"pop":0},{"id":3948001,"name":"Amaclle","lon":-75.33514,"lat":-13.74105,"pop":0},{"id":3948000,"name":"Amado Grande","alt":["Amadochacra","Amadochacra Hacienda","Andachaca","Hacienda Andachaca"],"lon":-76.55,"lat":-10.63333,"pop":0},{"id":3956714,"name":"Amailaca","lon":-71.41555,"lat":-15.30088,"pop":0},{"id":3947999,"name":"Amailayo","lon":-70.52517,"lat":-15.6017,"pop":0},{"id":3947998,"name":"Amailla","lon":-75.65332,"lat":-13.16095,"pop":0},{"id":6384916,"name":"Amairca","lon":-77.3916,"lat":-8.14284,"pop":222},{"id":3947996,"name":"Amaizama Pata","lon":-69.06934,"lat":-16.44932,"pop":0},{"id":6674903,"name":"Amañacay","lon":-75.1207,"lat":-11.62266,"pop":2},{"id":8662011,"name":"Amañacay","lon":-74.66825,"lat":-12.78345,"pop":45},{"id":3947995,"name":"Amancaes","lon":-73.55,"lat":-13.48333,"pop":0},{"id":6393344,"name":"Amancaypata","lon":-72.42194,"lat":-13.44583,"pop":0},{"id":6310047,"name":"Amane","lon":-69.48559,"lat":-16.82925,"pop":0},{"id":3947991,"name":"Amani","lon":-69.56744,"lat":-17.11788,"pop":13},{"id":3966123,"name":"Amani","lon":-69.67169,"lat":-14.49625,"pop":0},{"id":11792778,"name":"Amanipata","lon":-69.40482,"lat":-15.04601,"pop":26},{"id":8664506,"name":"Amanjay","lon":-74.74514,"lat":-12.1529,"pop":0},{"id":11558316,"name":"Amantala","lon":-69.2429,"lat":-14.10119,"pop":0},{"id":3947990,"name":"Amantañi","lon":-70.01043,"lat":-15.54065,"pop":20},{"id":6393595,"name":"Amantoy Collanas","lon":-72.11528,"lat":-13.3425,"pop":0},{"id":3947987,"name":"Amantuy","lon":-72.2775,"lat":-13.59417,"pop":102},{"id":6670816,"name":"Amapola","lon":-75.52707,"lat":-11.42545,"pop":5},{"id":8664345,"name":"Amapola","lon":-74.81774,"lat":-12.03205,"pop":0},{"id":8664984,"name":"Amapola","lon":-74.63403,"lat":-12.12078,"pop":7},{"id":8665063,"name":"Amapola","lon":-74.61143,"lat":-12.06285,"pop":0},{"id":3951571,"name":"Amarani","lon":-71.41072,"lat":-15.7304,"pop":0},{"id":3818231,"name":"Amarcos","lon":-80.79111,"lat":-3.88611,"pop":0},{"id":3950783,"name":"Amargoso","lon":-73.35723,"lat":-15.76417,"pop":0},{"id":8689213,"name":"Amargura","lon":-73.52792,"lat":-12.98887,"pop":111},{"id":8700828,"name":"Amargura","lon":-73.89794,"lat":-12.44036,"pop":0},{"id":12297236,"name":"Amargura","lon":-73.80007,"lat":-12.47411,"pop":0},{"id":6304407,"name":"Amaro","lon":-75.60833,"lat":-12.19583,"pop":0},{"id":3753164,"name":"Amaroucho","lon":-78.24339,"lat":-6.93762,"pop":0},{"id":6670309,"name":"Amaru","lon":-76.27282,"lat":-9.89973,"pop":0},{"id":3958328,"name":"Amaruyoc","lon":-73.76056,"lat":-14.08889,"pop":0},{"id":6391488,"name":"Amaruyoc","lon":-72.47722,"lat":-13.81889,"pop":0},{"id":3947976,"name":"Amaruyocc","lon":-74.37576,"lat":-15.06057,"pop":0},{"id":3699701,"name":"Amashca","lon":-77.64649,"lat":-9.23943,"pop":730},{"id":3947970,"name":"Amata","lon":-71.08442,"lat":-16.61682,"pop":228},{"id":6303748,"name":"Amaucay","lon":-75.83806,"lat":-12.40444,"pop":0},{"id":3963840,"name":"Amauta","lon":-74.78494,"lat":-10.99174,"pop":0},{"id":3947967,"name":"Amay","lon":-77.5988,"lat":-11.11253,"pop":0},{"id":3951745,"name":"Amayamaya","lon":-71.31196,"lat":-15.56364,"pop":0},{"id":3947966,"name":"Amayane","lon":-71.12501,"lat":-16.13058,"pop":0},{"id":3951519,"name":"Amayane","lon":-71.22833,"lat":-15.78194,"pop":0},{"id":3955397,"name":"Amayane","lon":-71.59028,"lat":-15.34556,"pop":0},{"id":3963957,"name":"Amayane","lon":-71.03274,"lat":-15.0334,"pop":0},{"id":3947964,"name":"Amayani","lon":-69.40191,"lat":-15.05525,"pop":0},{"id":11558883,"name":"Amayani","lon":-69.90544,"lat":-13.90615,"pop":8},{"id":11792207,"name":"Amayani","lon":-69.28465,"lat":-14.52285,"pop":0},{"id":11792231,"name":"Amayani","lon":-69.2504,"lat":-14.73706,"pop":2},{"id":3955232,"name":"Amayaque","lon":-71.53799,"lat":-15.30408,"pop":8},{"id":3947961,"name":"Amaycollo","lon":-69.27465,"lat":-15.44363,"pop":0},{"id":6310469,"name":"Amaypecue","lon":-69.20083,"lat":-16.56944,"pop":0},{"id":6308902,"name":"Amayrumi","lon":-73.15806,"lat":-13.70056,"pop":0},{"id":9891507,"name":"Amazonas","alt":["Pueblo Joven Amazonas"],"lon":-77.10755,"lat":-11.82297,"pop":0},{"id":3947959,"name":"Ambar","lon":-77.26667,"lat":-10.73333,"pop":462},{"id":6402872,"name":"Ambaroco","lon":-76.97528,"lat":-10.47833,"pop":0},{"id":3699698,"name":"Ambasal","alt":["Ambasal Ciudad"],"lon":-79.7461,"lat":-4.58231,"pop":0},{"id":3947957,"name":"Ambato","lon":-74.82158,"lat":-12.74977,"pop":631},{"id":6302821,"name":"Ambitarine","lon":-74.79378,"lat":-11.11838,"pop":0},{"id":3947956,"name":"Ambo","lon":-76.20472,"lat":-10.13083,"pop":6865},{"id":3947954,"name":"Amboraccay","lon":-74.22244,"lat":-13.26901,"pop":0},{"id":3699696,"name":"Ambrosio","alt":["Ambisuo","Ambrocio"],"lon":-76.06667,"lat":-5.98333,"pop":0},{"id":3699697,"name":"Ambrosio","lon":-79.81667,"lat":-5.03333,"pop":34},{"id":3699695,"name":"Ambulco","alt":["Ambulco Ciudad"],"lon":-79.53633,"lat":-4.76262,"pop":60},{"id":6310718,"name":"Amcarani","lon":-69.20504,"lat":-16.5147,"pop":0},{"id":3699694,"name":"Amelia","alt":["Nasareth","Nazareth"],"lon":-70.20112,"lat":-4.33341,"pop":3},{"id":3830980,"name":"América","lon":-79.01556,"lat":-8.165,"pop":0},{"id":3950284,"name":"Americas Unidas","lon":-74.63722,"lat":-15.65056,"pop":0},{"id":3947947,"name":"Amoquinto","lon":-71.46773,"lat":-17.28046,"pop":0},{"id":3699691,"name":"Amotape","lon":-81.01556,"lat":-4.88167,"pop":0},{"id":3947944,"name":"Amotire","lon":-69.37372,"lat":-16.81083,"pop":172},{"id":11558208,"name":"Amoyo","lon":-69.44232,"lat":-14.31737,"pop":373},{"id":3760836,"name":"Ampama","lon":-77.87694,"lat":-3.24528,"pop":104},{"id":3699688,"name":"Ampanú","lon":-78.16747,"lat":-9.91111,"pop":215},{"id":3947943,"name":"Amparaes","lon":-71.9,"lat":-13.16667,"pop":0},{"id":3947942,"name":"Amparani","lon":-69.70562,"lat":-16.11758,"pop":203},{"id":6393284,"name":"Amparaqui","lon":-72.26083,"lat":-13.34417,"pop":33},{"id":3947937,"name":"Ampaspampa","alt":["Ampas Pampa"],"lon":-73.81365,"lat":-13.57339,"pop":0},{"id":6670017,"name":"Ampatay","lon":-76.27559,"lat":-9.80056,"pop":0},{"id":3955951,"name":"Ampato","lon":-71.40514,"lat":-15.18318,"pop":0},{"id":6403498,"name":"Ampato","lon":-76.50417,"lat":-10.335,"pop":0},{"id":8651557,"name":"Ampato","lon":-74.45432,"lat":-12.54428,"pop":0},{"id":8646142,"name":"Ampatu","lon":-76.55499,"lat":-11.52521,"pop":0},{"id":3947932,"name":"Ampaturi","lon":-69.93333,"lat":-16.33333,"pop":0},{"id":3947929,"name":"Ampe","lon":-76.2,"lat":-12.2,"pop":3},{"id":3947928,"name":"Ampi","lon":-73.38333,"lat":-14.91667,"pop":162},{"id":6308226,"name":"Ampi","lon":-73.41077,"lat":-13.59457,"pop":32},{"id":6669171,"name":"Ampin","lon":-76.22366,"lat":-11.28973,"pop":0},{"id":3746970,"name":"Ampiyacu","lon":-70.70172,"lat":-3.85113,"pop":132},{"id":3947926,"name":"Ampoca","lon":-76.10178,"lat":-12.74056,"pop":0},{"id":6664434,"name":"Ampónhuay","lon":-77.1404,"lat":-10.09587,"pop":0},{"id":6365987,"name":"Ampu","lon":-74.60333,"lat":-13.62028,"pop":0},{"id":6380285,"name":"Ampu","lon":-77.65698,"lat":-9.27506,"pop":341},{"id":6380305,"name":"Ampu","lon":-77.67611,"lat":-9.29361,"pop":0},{"id":3947925,"name":"Ampuccasa","lon":-74.26667,"lat":-13.2,"pop":68},{"id":11751107,"name":"Amsta Huatasani","lon":-69.34707,"lat":-15.5112,"pop":58},{"id":3743545,"name":"Amusuy","lon":-79.41179,"lat":-6.21744,"pop":167},{"id":11510969,"name":"Ana Maria","lon":-69.35992,"lat":-11.61231,"pop":0},{"id":3699682,"name":"Ana María","lon":-79.58333,"lat":-7.1,"pop":0},{"id":3699683,"name":"Ana María","lon":-74.1397,"lat":-7.01699,"pop":0},{"id":3951586,"name":"Anac Ccoponeta","lon":-71.38625,"lat":-15.54181,"pop":0},{"id":3951669,"name":"Anac-Huito","lon":-71.07667,"lat":-15.59694,"pop":0},{"id":3947920,"name":"Añacaña","lon":-71.50499,"lat":-15.30995,"pop":0},{"id":3956618,"name":"Añacaña","lon":-71.18209,"lat":-15.32723,"pop":0},{"id":3959025,"name":"Anaccocha","lon":-73.62306,"lat":-14.17139,"pop":0},{"id":3947917,"name":"Anacota","lon":-69.47944,"lat":-17.10889,"pop":68},{"id":8649831,"name":"Anacpac","lon":-74.11978,"lat":-12.72453,"pop":0},{"id":3743837,"name":"Anadiaz","lon":-77.98549,"lat":-7.64057,"pop":0},{"id":6665731,"name":"Anahuain","lon":-76.76448,"lat":-9.5327,"pop":0},{"id":3947916,"name":"Anahuanca","lon":-70.85,"lat":-14.81667,"pop":30},{"id":3947915,"name":"Añahuane","lon":-69.64776,"lat":-17.19019,"pop":0},{"id":3947914,"name":"Anahuili","lon":-70.77636,"lat":-15.11919,"pop":0},{"id":3956988,"name":"Anahuita","lon":-71.66182,"lat":-14.93625,"pop":0},{"id":11792791,"name":"Añajhuani","alt":["Anajhuani"],"lon":-69.3881,"lat":-15.20678,"pop":16},{"id":3959109,"name":"Analachayoc","lon":-73.81889,"lat":-14.21111,"pop":0},{"id":3958332,"name":"Analayoc","lon":-73.74806,"lat":-14.07417,"pop":0},{"id":3947911,"name":"Anama","lon":-73.65781,"lat":-13.20285,"pop":117},{"id":3967539,"name":"Anamaray","lon":-76.55194,"lat":-11.1075,"pop":0},{"id":3947910,"name":"Añamia","alt":["Anamia","Anamias"],"lon":-75.71897,"lat":-14.04561,"pop":0},{"id":8662279,"name":"Añancusi","lon":-74.71321,"lat":-12.58415,"pop":0},{"id":3947908,"name":"Ananea","alt":["Poto"],"lon":-69.55,"lat":-14.7,"pop":0},{"id":11003655,"name":"Ananias","lon":-75.73242,"lat":-14.05672,"pop":0},{"id":8673726,"name":"Añañoccasa","lon":-74.13636,"lat":-13.21674,"pop":0},{"id":6412696,"name":"Ananpay","lon":-77.01028,"lat":-11.13111,"pop":0},{"id":6379643,"name":"Ananpunta","lon":-77.91806,"lat":-9.1875,"pop":0},{"id":3947907,"name":"Anansalla","lon":-72.13505,"lat":-15.70173,"pop":0},{"id":3947906,"name":"Anansaya","lon":-70.30422,"lat":-15.37286,"pop":0},{"id":3953729,"name":"Anansaya","lon":-71.37097,"lat":-14.17576,"pop":0},{"id":3947905,"name":"Anansaya Huasca","lon":-72.06667,"lat":-14.33333,"pop":0},{"id":3947902,"name":"Ananta","lon":-70.19487,"lat":-16.33772,"pop":22},{"id":3947903,"name":"Ananta","lon":-70.07971,"lat":-16.30978,"pop":0},{"id":3947904,"name":"Ananta","alt":["Hacienda Ananta"],"lon":-73.33472,"lat":-15.78833,"pop":0},{"id":3947896,"name":"Añapaca","lon":-69.566,"lat":-17.44322,"pop":10},{"id":6675702,"name":"Anapán","lon":-76.96353,"lat":-9.11889,"pop":0},{"id":8664974,"name":"Anapata","lon":-74.67803,"lat":-12.146,"pop":0},{"id":9817727,"name":"Anapate","alt":["Anapati"],"lon":-73.7902,"lat":-11.27272,"pop":0},{"id":6395536,"name":"Anapati","lon":-74.49321,"lat":-11.02833,"pop":0},{"id":3947893,"name":"Añaque Putina","lon":-69.92693,"lat":-17.40966,"pop":0},{"id":3947892,"name":"Añarane","lon":-70.59886,"lat":-15.79116,"pop":0},{"id":3947891,"name":"Añarqui","alt":["Anarqui","Anarqui Hacienda"],"lon":-72.41472,"lat":-13.70361,"pop":117},{"id":3699678,"name":"Anas Orco","lon":-78.01968,"lat":-7.65864,"pop":0},{"id":6665857,"name":"Añas Pata","lon":-76.96658,"lat":-9.71803,"pop":4},{"id":8663640,"name":"Añas Pata","lon":-74.93032,"lat":-12.07089,"pop":0},{"id":8669420,"name":"Anasacana","lon":-74.42012,"lat":-13.20551,"pop":0},{"id":3947889,"name":"Añascancha","alt":["Anascancha"],"lon":-74.67212,"lat":-13.10077,"pop":0},{"id":3947890,"name":"Añascancha","lon":-75.88333,"lat":-13.08333,"pop":0},{"id":3958842,"name":"Añascanchanan","lon":-75.84222,"lat":-13.00278,"pop":0},{"id":3947888,"name":"Anascapa","lon":-70.85694,"lat":-16.42818,"pop":321},{"id":8650951,"name":"Anaschaca","lon":-74.34677,"lat":-12.68618,"pop":0},{"id":3947887,"name":"Añascipina","lon":-74.31122,"lat":-14.66731,"pop":0},{"id":3947886,"name":"Anascocha","lon":-73.79543,"lat":-15.0081,"pop":0},{"id":6669310,"name":"Anascocha","lon":-76.3351,"lat":-11.01593,"pop":1},{"id":8661481,"name":"Añascuchu","lon":-74.56514,"lat":-12.66018,"pop":0},{"id":6369468,"name":"Añaso","lon":-75.01972,"lat":-13.53556,"pop":0},{"id":3699677,"name":"Anaspampa","lon":-78.16667,"lat":-8.91667,"pop":0},{"id":3947883,"name":"Añaspampa","lon":-76.74732,"lat":-10.35057,"pop":5},{"id":6403387,"name":"Añaspampa","lon":-76.53556,"lat":-10.17278,"pop":0},{"id":8661429,"name":"Añaspampa","lon":-74.57921,"lat":-12.76473,"pop":0},{"id":6671192,"name":"Anaspuquio","lon":-75.85022,"lat":-11.72395,"pop":0},{"id":6309943,"name":"Anatave","lon":-69.41222,"lat":-16.71944,"pop":0},{"id":3699676,"name":"Anatico","lon":-76.44904,"lat":-3.49695,"pop":0},{"id":12291514,"name":"Anato","lon":-73.90398,"lat":-12.44982,"pop":0},{"id":3953444,"name":"Añatoyoc","lon":-72.50083,"lat":-15.27778,"pop":0},{"id":3947881,"name":"Anavlli Hacienda","lon":-70.5475,"lat":-15.85833,"pop":0},{"id":3967379,"name":"Anay","lon":-76.3625,"lat":-11.84444,"pop":0},{"id":3962970,"name":"Añay","lon":-76.23466,"lat":-10.28008,"pop":0},{"id":3947879,"name":"Añaycancha","lon":-74.04219,"lat":-13.47733,"pop":207},{"id":8679207,"name":"Anayhuaycco","lon":-74.76375,"lat":-13.03948,"pop":0},{"id":6374367,"name":"Anaypampa","lon":-73.995,"lat":-13.62861,"pop":0},{"id":3967237,"name":"Añaypampa","lon":-76.78417,"lat":-11.1275,"pop":1},{"id":3947877,"name":"Añaza","alt":["Anaso","Anaza","Añaso"],"lon":-75.01819,"lat":-13.53426,"pop":0},{"id":3947876,"name":"Ancacc","lon":-75.95,"lat":-13.08333,"pop":0},{"id":3947875,"name":"Ancache","lon":-69.23453,"lat":-16.701,"pop":0},{"id":3957165,"name":"Ancache","lon":-71.42324,"lat":-15.39861,"pop":0},{"id":6385138,"name":"Ancachi","lon":-77.26139,"lat":-8.30139,"pop":0},{"id":6393429,"name":"Ancachuro","lon":-72.22056,"lat":-13.46944,"pop":0},{"id":6303648,"name":"Ancacucho","lon":-75.93194,"lat":-12.28944,"pop":0},{"id":3947872,"name":"Ancahuachana","lon":-72.73333,"lat":-13.55,"pop":0},{"id":8679612,"name":"Ancahuachana","lon":-74.51902,"lat":-13.24234,"pop":0},{"id":6308985,"name":"Ancahuachanan","lon":-73.28921,"lat":-13.60921,"pop":0},{"id":6675714,"name":"Ancahuachanan","lon":-76.98817,"lat":-9.15808,"pop":0},{"id":8679562,"name":"Ancahuachananpampa","lon":-74.59429,"lat":-13.03276,"pop":0},{"id":6666050,"name":"Ancahuachanga","lon":-76.7712,"lat":-9.76881,"pop":50},{"id":3947870,"name":"Ancahuasi","lon":-72.31083,"lat":-13.4425,"pop":0},{"id":6674599,"name":"Ancal","lon":-75.23321,"lat":-11.87783,"pop":47},{"id":8651394,"name":"Ancalaycucho","lon":-74.41456,"lat":-12.8501,"pop":0},{"id":6674937,"name":"Ancalayo","lon":-75.21033,"lat":-11.9845,"pop":276},{"id":3963993,"name":"Ancallachi","lon":-71.39444,"lat":-15.44167,"pop":0},{"id":3951692,"name":"Ancamani","lon":-71.09306,"lat":-15.69278,"pop":0},{"id":3947868,"name":"Ancamarca","lon":-73.86828,"lat":-13.21449,"pop":0},{"id":3965135,"name":"Ancamarca","lon":-73.90045,"lat":-13.21576,"pop":19},{"id":6310645,"name":"Ancancollo","lon":-69.09908,"lat":-16.66434,"pop":192},{"id":3744987,"name":"Ancapampa","lon":-77.5855,"lat":-7.92821,"pop":0},{"id":8662783,"name":"Ancapianan","lon":-74.82578,"lat":-12.5012,"pop":0},{"id":6310349,"name":"Ancarani","lon":-69.31853,"lat":-16.71175,"pop":0},{"id":6666087,"name":"Ancaratanan","lon":-76.69905,"lat":-9.83281,"pop":0},{"id":6310012,"name":"Ancarcollo","lon":-69.38408,"lat":-16.80104,"pop":0},{"id":3947865,"name":"Ancaro","lon":-72.9076,"lat":-15.25613,"pop":126},{"id":6391915,"name":"Ancarpata","lon":-72.31583,"lat":-13.61944,"pop":0},{"id":6392381,"name":"Ancarpata","lon":-72.13689,"lat":-13.71631,"pop":0},{"id":3947850,"name":"Ancas","alt":["Anccas"],"lon":-74.89241,"lat":-13.87618,"pop":0},{"id":3947863,"name":"Ancas","lon":-71.24028,"lat":-16.00083,"pop":0},{"id":3947862,"name":"Ancasccocha","alt":["Ancascocha Dique"],"lon":-73.83333,"lat":-14.93333,"pop":0},{"id":3966946,"name":"Ancascocha","lon":-76.95139,"lat":-11.09556,"pop":10},{"id":3947858,"name":"Ancasi","lon":-71.08369,"lat":-16.40831,"pop":0},{"id":3947855,"name":"Ancata","lon":-70.51847,"lat":-16.19177,"pop":0},{"id":3947856,"name":"Ancata","lon":-70.4436,"lat":-15.5195,"pop":0},{"id":6666140,"name":"Ancatarian","lon":-76.57537,"lat":-9.80716,"pop":0},{"id":6669215,"name":"Ancatiana","lon":-76.37115,"lat":-11.34367,"pop":0},{"id":6308223,"name":"Ancauran","lon":-73.41129,"lat":-13.57834,"pop":0},{"id":11040043,"name":"Ancay Pahua","lon":-73.35663,"lat":-15.27537,"pop":0},{"id":3947853,"name":"Ancaya Pampa","lon":-75.52641,"lat":-13.63631,"pop":0},{"id":3947694,"name":"Ancaypahua","alt":["Angaypahua"],"lon":-73.55778,"lat":-13.75635,"pop":42},{"id":6308382,"name":"Anccaraylla","lon":-73.37947,"lat":-13.72645,"pop":259},{"id":3951780,"name":"Anccase","lon":-71.10889,"lat":-15.94417,"pop":0},{"id":6374712,"name":"Anccasilla","lon":-73.71645,"lat":-13.89212,"pop":45},{"id":3957315,"name":"Anccasuyo","lon":-71.42671,"lat":-15.495,"pop":0},{"id":6308944,"name":"Anccatira","lon":-73.28759,"lat":-13.67183,"pop":0},{"id":3947848,"name":"Ancco","lon":-76.93439,"lat":-10.5061,"pop":0},{"id":6375057,"name":"Anccocancha","lon":-73.58749,"lat":-13.95856,"pop":18},{"id":3955146,"name":"Anccoccahua","lon":-71.76861,"lat":-15.25389,"pop":0},{"id":3955145,"name":"Anccoccota","lon":-71.76931,"lat":-15.24117,"pop":0},{"id":6392160,"name":"Anccocha","lon":-72.21361,"lat":-13.82194,"pop":0},{"id":3954627,"name":"Anccochoco","lon":-71.30838,"lat":-15.15513,"pop":0},{"id":11792172,"name":"Anccoman","lon":-69.38656,"lat":-14.94508,"pop":0},{"id":8661987,"name":"Anccomarca","lon":-74.64844,"lat":-12.83372,"pop":52},{"id":3951696,"name":"Anccontaña","lon":-71.12639,"lat":-15.65194,"pop":0},{"id":3947834,"name":"Ancha Palca","lon":-71.49282,"lat":-15.41749,"pop":0},{"id":6666042,"name":"Anchac Chico","lon":-76.81677,"lat":-9.81011,"pop":15},{"id":3947840,"name":"Anchaca","lon":-70.51036,"lat":-16.20209,"pop":3},{"id":3947841,"name":"Anchaca","lon":-72.12694,"lat":-15.41778,"pop":0},{"id":3947842,"name":"Anchaca","lon":-71.47175,"lat":-15.40242,"pop":0},{"id":3947843,"name":"Anchaca","lon":-71.7399,"lat":-15.3963,"pop":6},{"id":3954966,"name":"Anchaca","lon":-71.88917,"lat":-15.00417,"pop":0},{"id":3957164,"name":"Anchaca","lon":-71.80384,"lat":-14.85013,"pop":0},{"id":3947839,"name":"Anchacahuasi","lon":-74.3385,"lat":-13.29282,"pop":0},{"id":3950330,"name":"Anchacalla","lon":-71.58137,"lat":-15.90906,"pop":0},{"id":3956892,"name":"Anchaccui","lon":-71.57774,"lat":-14.69818,"pop":0},{"id":8668399,"name":"Anchacuay","lon":-74.42251,"lat":-13.02463,"pop":74},{"id":3699672,"name":"Anchala","alt":["Anchalcapo"],"lon":-79.61641,"lat":-4.6513,"pop":0},{"id":3699671,"name":"Anchalay","lon":-79.80165,"lat":-4.50531,"pop":174},{"id":8679196,"name":"Anchallacucho","lon":-74.79849,"lat":-13.10132,"pop":2},{"id":8662612,"name":"Anchanccayra","lon":-74.88197,"lat":-12.79864,"pop":0},{"id":3947833,"name":"Anchapalla","lon":-72.41568,"lat":-15.56412,"pop":1},