[{"id":7405395,"name":"A. Olaes","lon":121.01879,"lat":14.32166,"pop":0},{"id":1730632,"name":"Aanislag","alt":["Anislag","Anistag"],"lon":123.703,"lat":13.0748,"pop":4061},{"id":8300779,"name":"Aasnan","lon":122.0886,"lat":13.8094,"pop":0},{"id":8301267,"name":"Aato","lon":123.2846,"lat":9.3128,"pop":0},{"id":1732536,"name":"Aaygayon","lon":125.03278,"lat":11.56944,"pop":0},{"id":1732534,"name":"Aba","lon":123.06667,"lat":13.66667,"pop":0},{"id":7425211,"name":"Aba","lon":121.7345,"lat":17.5359,"pop":0},{"id":7427978,"name":"Ababeng","lon":120.6774,"lat":17.6701,"pop":0},{"id":1732533,"name":"Ababut","lon":120.6888,"lat":18.1712,"pop":0},{"id":1732520,"name":"Abaca","lon":121.82715,"lat":17.56941,"pop":0},{"id":1732521,"name":"Abaca","alt":["Mapatan"],"lon":121.28333,"lat":16,"pop":0},{"id":1732522,"name":"Abaca","alt":["Kawala"],"lon":121.21794,"lat":16.01531,"pop":0},{"id":1732523,"name":"Abaca","lon":122.1125,"lat":12.546,"pop":0},{"id":1732524,"name":"Abaca","lon":123.9524,"lat":12.05,"pop":0},{"id":1732525,"name":"Abaca","lon":125.08333,"lat":11.66667,"pop":0},{"id":1732526,"name":"Abaca","lon":122.7156,"lat":11.1342,"pop":2139},{"id":1732527,"name":"Abaca","lon":124.91778,"lat":11.08694,"pop":0},{"id":1732528,"name":"Abaca","lon":123.3966,"lat":10.56356,"pop":0},{"id":1732529,"name":"Abaca","lon":121.9568,"lat":10.4929,"pop":0},{"id":1732530,"name":"Abaca","lon":123.75,"lat":10.21667,"pop":0},{"id":1732531,"name":"Abaca","lon":124.5051,"lat":9.9204,"pop":2480},{"id":1732532,"name":"Abaca","lon":125.72667,"lat":7.50667,"pop":0},{"id":1978248,"name":"Abaca","lon":124.46611,"lat":6.06528,"pop":0},{"id":7554377,"name":"Abaca","lon":126.4661,"lat":7.3581,"pop":0},{"id":8304865,"name":"Abaca","lon":124.529,"lat":12.1494,"pop":0},{"id":8304866,"name":"Abaca","lon":124.5307,"lat":12.1452,"pop":0},{"id":1732519,"name":"Abacca","alt":["Abaca","Abacai"],"lon":120.7575,"lat":18.5319,"pop":0},{"id":1732515,"name":"Abaccan","alt":["Abacca"],"lon":120.56667,"lat":17.03333,"pop":0},{"id":1732514,"name":"Abachanan","alt":["Abachanan Proper","Abacjanan"],"lon":124.3181,"lat":9.7973,"pop":0},{"id":1959169,"name":"Abacjanan","lon":124.36028,"lat":9.71139,"pop":0},{"id":1732513,"name":"Abad","lon":121.93778,"lat":14.63,"pop":0},{"id":8655591,"name":"Abad Homes","lon":120.92967,"lat":14.43086,"pop":0},{"id":1732508,"name":"Abaga","lon":125.99583,"lat":8.94028,"pop":0},{"id":1732509,"name":"Abaga","lon":124.22,"lat":8.14056,"pop":0},{"id":1732510,"name":"Abaga","alt":["Abaya"],"lon":123.7724,"lat":7.9384,"pop":0},{"id":1732511,"name":"Abaga","lon":124.55,"lat":7.25333,"pop":0},{"id":1732512,"name":"Abaga","lon":124.81667,"lat":7.16667,"pop":0},{"id":6569477,"name":"Abaga","lon":124.2,"lat":8.1525,"pop":0},{"id":6569510,"name":"Abaga","lon":124.20101,"lat":8.17995,"pop":0},{"id":1732506,"name":"Abagai","lon":123.9,"lat":7.8,"pop":0},{"id":1732504,"name":"Abagao","alt":["Abbagao"],"lon":121.75379,"lat":18.25578,"pop":0},{"id":1732505,"name":"Abagao","lon":121.73555,"lat":18.24273,"pop":0},{"id":1732501,"name":"Abagatanen","lon":119.7608,"lat":16.1669,"pop":0},{"id":1732499,"name":"Abagon","lon":120.6109,"lat":15.6107,"pop":0},{"id":1732498,"name":"Abagu","lon":123.9,"lat":7.8,"pop":0},{"id":1732497,"name":"Abahid","lon":125.32444,"lat":7.97111,"pop":0},{"id":1732496,"name":"Abalete","lon":120.43333,"lat":13.51667,"pop":0},{"id":1732495,"name":"Abalos","alt":["Ablos"],"lon":120.8418,"lat":15.947,"pop":0},{"id":1732494,"name":"Abanaban","lon":119.92311,"lat":12.31096,"pop":0},{"id":1732490,"name":"Abane","alt":["Abani"],"lon":125.08139,"lat":11.59889,"pop":0},{"id":1732488,"name":"Abang","lon":120.7211,"lat":17.5194,"pop":0},{"id":1732489,"name":"Abang","lon":121.5514,"lat":14.1303,"pop":0},{"id":1732487,"name":"Abang-abang","lon":122.41898,"lat":10.818,"pop":0},{"id":8531382,"name":"Abangan","lon":120.94177,"lat":14.76683,"pop":0},{"id":1732486,"name":"Abangan Norte","lon":120.93149,"lat":14.76899,"pop":0},{"id":1732485,"name":"Abangan Sur","lon":120.94297,"lat":14.75847,"pop":0},{"id":1732481,"name":"Abangay","lon":122.4918,"lat":11.2466,"pop":0},{"id":1732482,"name":"Abangay","lon":122.47231,"lat":11.02323,"pop":0},{"id":1732483,"name":"Abangay","lon":122.65,"lat":10.96667,"pop":2207},{"id":1732484,"name":"Abangay","lon":122.6469,"lat":10.9688,"pop":0},{"id":1732478,"name":"Abango","alt":["Abangu"],"lon":124.72556,"lat":11.28222,"pop":0},{"id":1732479,"name":"Abango","alt":["Abangu"],"lon":124.75,"lat":11.25,"pop":0},{"id":1732477,"name":"Abanon","alt":["Abanon Sur"],"lon":120.32421,"lat":15.86827,"pop":0},{"id":1732461,"name":"Abanqueruan","alt":["Abbangaran","Abbangkeruan","Abbangueran"],"lon":121.3519,"lat":18.45548,"pop":0},{"id":1732475,"name":"Abaquid","lon":120.6596,"lat":17.6984,"pop":0},{"id":1732474,"name":"Abar 1","alt":["Abar","Abar Primero"],"lon":120.9768,"lat":15.7888,"pop":0},{"id":1732472,"name":"Abar 2","alt":["Abar Segundo"],"lon":120.9663,"lat":15.7796,"pop":0},{"id":1698978,"name":"Abariongan Ruar","alt":["Nabariongan"],"lon":121.59752,"lat":17.99684,"pop":0},{"id":8549625,"name":"Abariongan Uneg","lon":121.5731,"lat":18.00423,"pop":0},{"id":1732473,"name":"Abarriongan","alt":["Abarrongan"],"lon":121.6,"lat":17.95,"pop":0},{"id":1732470,"name":"Abas","lon":120.7589,"lat":17.539,"pop":0},{"id":1732471,"name":"Abas","lon":123.6763,"lat":12.9657,"pop":0},{"id":7428049,"name":"Abas River","alt":["Abas"],"lon":120.7332,"lat":17.5381,"pop":0},{"id":1732469,"name":"Abat","lon":122.63333,"lat":10.95,"pop":0},{"id":1732535,"name":"Abat","alt":["Aba"],"lon":122.5671,"lat":10.9442,"pop":0},{"id":7427130,"name":"Abat","lon":120.77104,"lat":16.60398,"pop":0},{"id":1732468,"name":"Abatan","lon":120.8209,"lat":16.8012,"pop":0},{"id":7429477,"name":"Abatan","lon":121.06644,"lat":16.83676,"pop":0},{"id":1732466,"name":"Abaton","lon":125.043,"lat":12.4798,"pop":0},{"id":1732465,"name":"Abay","lon":122.43333,"lat":10.9,"pop":0},{"id":1732464,"name":"Abaya","lon":120.46667,"lat":17.18333,"pop":0},{"id":7427102,"name":"Abaya","lon":120.80854,"lat":16.67407,"pop":0},{"id":7427156,"name":"Abayan","lon":120.75374,"lat":16.54048,"pop":0},{"id":1732462,"name":"Abbag","lon":121.66278,"lat":16.30083,"pop":0},{"id":1732463,"name":"Abbag","lon":121.6576,"lat":16.2708,"pop":0},{"id":7616157,"name":"Abbao","lon":120.8154,"lat":16.7958,"pop":0},{"id":1732459,"name":"Abbeg","alt":["Abbeg Norte"],"lon":121.61951,"lat":17.84548,"pop":0},{"id":1732457,"name":"Abbey","lon":120.75,"lat":17.2,"pop":0},{"id":1732458,"name":"Abbey Sur","alt":["Abbeg Sur"],"lon":121.61115,"lat":17.8305,"pop":0},{"id":1732456,"name":"Abbigoy","lon":121.34205,"lat":17.57592,"pop":0},{"id":1732455,"name":"Abbot","lon":121.41667,"lat":17.68333,"pop":0},{"id":1732453,"name":"Abbuatan","alt":["Abuatan"],"lon":121.80222,"lat":17.30028,"pop":0},{"id":1732451,"name":"Abec","lon":120.6307,"lat":18.3545,"pop":0},{"id":1732450,"name":"Abel","alt":["Abbel"],"lon":121.07334,"lat":18.12956,"pop":0},{"id":1732449,"name":"Abella","alt":["Bella","Bello"],"lon":123.41667,"lat":13.11667,"pop":0},{"id":1732448,"name":"Abelo","alt":["Abilo"],"lon":120.95691,"lat":13.91858,"pop":0},{"id":7427020,"name":"Abelong","lon":120.93224,"lat":16.59718,"pop":0},{"id":1732445,"name":"Abgao","alt":["Abagao"],"lon":124.98861,"lat":10.17778,"pop":0},{"id":1732443,"name":"Abiacao","lon":120.94289,"lat":13.84168,"pop":0},{"id":1732442,"name":"Abian","lon":121.1306,"lat":16.4298,"pop":0},{"id":1732441,"name":"Abian-Abian Junction","lon":121.122,"lat":16.4143,"pop":0},{"id":1732439,"name":"Abiang","lon":120.7005,"lat":16.5728,"pop":0},{"id":1732438,"name":"Abiawin","lon":121.67622,"lat":14.74757,"pop":0},{"id":1732436,"name":"Abibiray","lon":120.21667,"lat":13.71667,"pop":0},{"id":1732435,"name":"Abibling","lon":123.6,"lat":13.25,"pop":0},{"id":1732434,"name":"Abiera","alt":["Jabiera"],"lon":122.09,"lat":11.5749,"pop":2394},{"id":1732433,"name":"Abihao","lon":124.35,"lat":13.66667,"pop":0},{"id":1732432,"name":"Abihid","lon":124.13369,"lat":9.62356,"pop":0},{"id":7461327,"name":"Abihilan","lon":124.4866,"lat":9.8306,"pop":0},{"id":1732431,"name":"Abijao","alt":["Abijae"],"lon":124.3959,"lat":11.1532,"pop":0},{"id":1732429,"name":"Abijid","lon":124.75,"lat":10.46667,"pop":0},{"id":1732428,"name":"Abijilan","alt":["Abihilam","Abihilan"],"lon":124.3025,"lat":9.6505,"pop":0},{"id":1732430,"name":"Abijo","alt":["Abejao","Abijao"],"lon":125.61667,"lat":11.18333,"pop":0},{"id":1732425,"name":"Abilay","lon":122.41667,"lat":10.93333,"pop":0},{"id":1732426,"name":"Abilay","lon":122.5,"lat":10.73333,"pop":2195},{"id":7618889,"name":"Abinganan","lon":121.1407,"lat":16.406,"pop":0},{"id":1732421,"name":"Abinuan","lon":121.21374,"lat":16.84616,"pop":0},{"id":7620797,"name":"Abio","lon":121.22534,"lat":15.06964,"pop":0},{"id":1732420,"name":"Abis","lon":122.9438,"lat":9.7173,"pop":2603},{"id":6569537,"name":"Ablanan","lon":124.46944,"lat":8.51028,"pop":0},{"id":1732414,"name":"Ablayan","lon":123.45404,"lat":9.83981,"pop":0},{"id":1732412,"name":"Ableg","lon":120.93335,"lat":17.46203,"pop":0},{"id":1732413,"name":"Ableg","lon":121.1753,"lat":17.3881,"pop":0},{"id":1732415,"name":"Abling","alt":["Ablang","Arwab"],"lon":119.96741,"lat":16.26063,"pop":0},{"id":1732367,"name":"Abo","alt":["Abu"],"lon":124.69812,"lat":9.24738,"pop":0},{"id":1732410,"name":"Abo","lon":121.4263,"lat":14.1098,"pop":0},{"id":1732409,"name":"Aboabo","lon":118.1186,"lat":9.1542,"pop":0},{"id":1732403,"name":"Abobo","lon":124.36667,"lat":11.36667,"pop":0},{"id":1732401,"name":"Abocay","lon":122.5803,"lat":11.2757,"pop":0},{"id":7599761,"name":"Abogado","lon":120.58714,"lat":15.67022,"pop":0},{"id":1732398,"name":"Abogan","lon":124.3,"lat":13.86667,"pop":0},{"id":1732397,"name":"Abognan","lon":123.68333,"lat":13.06667,"pop":0},{"id":1732395,"name":"Abolan","lon":121.73333,"lat":16.4,"pop":0},{"id":1732393,"name":"Abolo","alt":["Abelo"],"lon":121.71263,"lat":17.82611,"pop":0},{"id":1732392,"name":"Abon-abon","lon":125.8115,"lat":7.7825,"pop":0},{"id":1732391,"name":"Abonagan","lon":120.43871,"lat":15.93296,"pop":0},{"id":1732390,"name":"Abong","lon":123.1224,"lat":11.5418,"pop":0},{"id":1732326,"name":"Abong-Abong","alt":["Abungabung","Abungabung Logging Camp"],"lon":121.91215,"lat":6.48643,"pop":0},{"id":1958643,"name":"Abongabong","lon":123.389,"lat":7.4572,"pop":0},{"id":6759250,"name":"Abongabong","lon":123.3965,"lat":7.4345,"pop":0},{"id":1732385,"name":"Aborlan","alt":["Bayan ng Aborlan"],"lon":118.54879,"lat":9.43361,"pop":4790},{"id":7609340,"name":"Abot Molina","lon":120.8471,"lat":15.9099,"pop":0},{"id":1732320,"name":"Abour","alt":["Abuer","Abuor"],"lon":120.4772,"lat":17.4308,"pop":0},{"id":8509070,"name":"Abra","lon":121.78788,"lat":18.0442,"pop":0},{"id":1732378,"name":"Abra de Ilog","lon":120.7291,"lat":13.4437,"pop":2971},{"id":1732376,"name":"Abre","lon":124.9,"lat":11.06667,"pop":0},{"id":1732375,"name":"Abrecia","lon":125.1783,"lat":10.366,"pop":0},{"id":1732374,"name":"Abri","lon":123.55,"lat":13.21667,"pop":0},{"id":1732368,"name":"Abu","lon":124.75,"lat":8.56667,"pop":0},{"id":1732366,"name":"Abuac","lon":123.01667,"lat":11.25,"pop":0},{"id":7522598,"name":"Abuac","lon":122.9253,"lat":11.2102,"pop":0},{"id":1732364,"name":"Abuag","lon":121.37485,"lat":17.65741,"pop":0},{"id":1732363,"name":"Abualan","lon":120.7575,"lat":17.7041,"pop":0},{"id":7522556,"name":"Abuan","lon":122.01644,"lat":17.07504,"pop":0},{"id":1732361,"name":"Abuanan","lon":121.01424,"lat":16.88956,"pop":0},{"id":1732362,"name":"Abuanan","lon":122.9927,"lat":10.52496,"pop":0},{"id":1732359,"name":"Abuaya","lon":124.03333,"lat":9.83333,"pop":0},{"id":1732358,"name":"Abubo","lon":122.9776,"lat":13.8017,"pop":0},{"id":1732357,"name":"Abubutan","lon":120.76667,"lat":17.03333,"pop":0},{"id":1732352,"name":"Abucay","lon":120.7403,"lat":18.1591,"pop":0},{"id":1732353,"name":"Abucay","lon":122.05686,"lat":14.86735,"pop":0},{"id":1732354,"name":"Abucay","lon":120.53358,"lat":14.73347,"pop":35508},{"id":1732355,"name":"Abucay","lon":123.6492,"lat":12.982,"pop":2863},{"id":7425176,"name":"Abucay","lon":121.81905,"lat":17.734,"pop":0},{"id":1732344,"name":"Abucay Hacienda","lon":120.4843,"lat":14.7227,"pop":0},{"id":1732343,"name":"Abucay Norte","alt":["Abucay North"],"lon":123.95961,"lat":9.68698,"pop":0},{"id":1732341,"name":"Abucay Sur","alt":["Abucay"],"lon":123.96667,"lat":9.65,"pop":0},{"id":7443345,"name":"Abucay Sur","alt":["Abucay South"],"lon":123.95093,"lat":9.67566,"pop":0},{"id":1732349,"name":"Abucayan","lon":123.4591,"lat":13.699,"pop":0},{"id":1732350,"name":"Abucayan","lon":123.71667,"lat":10.5,"pop":0},{"id":1732351,"name":"Abucayan","lon":123.9146,"lat":9.929,"pop":2204},{"id":7427206,"name":"Abucot","lon":120.86984,"lat":16.58678,"pop":0},{"id":1732338,"name":"Abugon","lon":123.6226,"lat":10.0454,"pop":0},{"id":1732335,"name":"Abulalas","lon":120.73333,"lat":14.83333,"pop":0},{"id":1732334,"name":"Abulan","alt":["Abolan"],"lon":121.7335,"lat":16.5575,"pop":0},{"id":7419094,"name":"Abuleg","lon":121.8599,"lat":16.1179,"pop":0},{"id":1732333,"name":"Abulug","alt":["Abulog"],"lon":121.45333,"lat":18.44528,"pop":2412},{"id":1732330,"name":"Abunabun","lon":124.13333,"lat":7.46667,"pop":0},{"id":1732327,"name":"Abung","lon":121.41347,"lat":13.76356,"pop":0},{"id":7634344,"name":"Abungo","lon":120.8527,"lat":17.0346,"pop":0},{"id":1732323,"name":"Abungon","lon":123.3846,"lat":9.6756,"pop":0},{"id":6569513,"name":"Abuno","lon":124.248,"lat":8.18,"pop":0},{"id":1732319,"name":"Aburas","lon":123.7214,"lat":12.5112,"pop":0},{"id":1732317,"name":"Abut","lon":121.60138,"lat":17.35423,"pop":2387},{"id":1732318,"name":"Abut","lon":120.35,"lat":16.65,"pop":0},{"id":1732382,"name":"Abut","alt":["Abot"],"lon":120.6761,"lat":17.7104,"pop":0},{"id":1732315,"name":"Abuyo","lon":121.23333,"lat":15.9,"pop":0},{"id":1732316,"name":"Abuyo","lon":121.23333,"lat":15.88333,"pop":0},{"id":1732308,"name":"Abuyog","lon":122.7,"lat":14.16667,"pop":0},{"id":1732309,"name":"Abuyog","lon":122.6808,"lat":14.1803,"pop":0},{"id":1732310,"name":"Abuyog","lon":122.83333,"lat":13.83333,"pop":0},{"id":1732311,"name":"Abuyog","lon":124.0519,"lat":12.9461,"pop":3377},{"id":1732312,"name":"Abuyog","alt":["abwyag  lyyt","ابویاگ، لییت"],"lon":125.0107,"lat":10.747,"pop":15632},{"id":1732306,"name":"Abuyogay","lon":125,"lat":10.75,"pop":0},{"id":1732305,"name":"Abuyoin","lon":121.86149,"lat":14.90232,"pop":0},{"id":1732304,"name":"Abuyon","lon":122.5191,"lat":13.6226,"pop":4342},{"id":7427191,"name":"Abyang","lon":120.82184,"lat":16.53698,"pop":0},{"id":1732302,"name":"Acaban","alt":["Acapan","Tacaban"],"lon":124.5006,"lat":11.6881,"pop":0},{"id":1688680,"name":"Acacia","lon":124.87111,"lat":10.2175,"pop":0},{"id":1732301,"name":"Acacia","lon":121.65644,"lat":17.09494,"pop":0},{"id":1906797,"name":"Acacia","lon":120.96806,"lat":14.67528,"pop":0},{"id":7428757,"name":"Acacia","lon":121.0251,"lat":15.5944,"pop":0},{"id":8610472,"name":"Acacia Homes","lon":120.97428,"lat":14.32371,"pop":0},{"id":8573150,"name":"Acacia Park Homes","lon":121.14975,"lat":14.16389,"pop":0},{"id":1732300,"name":"Acala","lon":123.71667,"lat":13.16667,"pop":0},{"id":1732297,"name":"Acao","lon":120.37639,"lat":16.52556,"pop":4307},{"id":1732298,"name":"Acao","lon":122.4796,"lat":10.8477,"pop":0},{"id":7638788,"name":"Acasia","lon":120.9856,"lat":16.3435,"pop":0},{"id":7427143,"name":"Acben","lon":120.80054,"lat":16.57888,"pop":0},{"id":1732295,"name":"Acbo","lon":122.672,"lat":11.4334,"pop":0},{"id":1732294,"name":"Accusilian","alt":["Accusillian","Acustilan"],"lon":121.46254,"lat":17.74791,"pop":2377},{"id":1732291,"name":"Acedillo","lon":124.3376,"lat":12.4295,"pop":0},{"id":1732292,"name":"Acedillo","lon":124.5506,"lat":12.1042,"pop":0},{"id":1732290,"name":"Acereda","alt":["Acerida"],"lon":124.54083,"lat":12.45833,"pop":0},{"id":7548286,"name":"Acero","lon":125.8577,"lat":8.1113,"pop":0},{"id":1732285,"name":"Achila","lon":124.44943,"lat":10.06872,"pop":0},{"id":7429458,"name":"Achotar","lon":121.21144,"lat":16.95976,"pop":0},{"id":1732284,"name":"Acilip","lon":120.83333,"lat":17.81667,"pop":0},{"id":7608791,"name":"Acirea","lon":120.58303,"lat":15.26216,"pop":0},{"id":7427988,"name":"Acito","lon":120.6759,"lat":17.5896,"pop":0},{"id":1732283,"name":"Aclan","lon":125.31194,"lat":8.99139,"pop":0},{"id":1732278,"name":"Acle","lon":120.73333,"lat":14.01667,"pop":0},{"id":1732279,"name":"Acle","lon":120.13333,"lat":13.81667,"pop":0},{"id":1732277,"name":"Acli","alt":["Acle","Akli"],"lon":120.6447,"lat":15.12279,"pop":2555},{"id":1732276,"name":"Acliang","lon":121.36667,"lat":12.7,"pop":0},{"id":1732273,"name":"Acnal","lon":120.81667,"lat":16.53333,"pop":0},{"id":1732272,"name":"Acocolao","alt":["Cocolao"],"lon":120.564,"lat":15.663,"pop":0},{"id":1732269,"name":"Acop","lon":120.65305,"lat":15.87204,"pop":0},{"id":1732268,"name":"Acops Place","lon":120.63256,"lat":16.47566,"pop":0},{"id":1731910,"name":"Actangao","alt":["Agtangao"],"lon":120.6294,"lat":17.5712,"pop":0},{"id":1732266,"name":"Acuit","lon":122.66667,"lat":10.88333,"pop":0},{"id":1732265,"name":"Acupan","lon":120.66972,"lat":16.345,"pop":0},{"id":1732264,"name":"Ad-adan","lon":122.08721,"lat":11.24052,"pop":0},{"id":7427194,"name":"Adabong","lon":120.84714,"lat":16.56378,"pop":0},{"id":1732263,"name":"Adaga","alt":["Adagap","Adagapi"],"lon":121.27895,"lat":17.49942,"pop":0},{"id":1732262,"name":"Adala","alt":["Adata"],"lon":120.6944,"lat":16.517,"pop":0},{"id":8551851,"name":"Adalina Homes","lon":121.10748,"lat":14.62831,"pop":0},{"id":1732259,"name":"Adams","alt":["Adam"],"lon":120.9,"lat":18.46667,"pop":0},{"id":1732257,"name":"Adaoag","lon":121.7566,"lat":17.90241,"pop":0},{"id":1732256,"name":"Adaoay","alt":["Adaway"],"lon":120.83854,"lat":16.58318,"pop":0},{"id":1732253,"name":"Addalam","lon":121.67857,"lat":16.52866,"pop":0},{"id":1732251,"name":"Addalem","lon":121,"lat":16.5,"pop":0},{"id":8601490,"name":"Addas Segundo","lon":120.96968,"lat":14.41146,"pop":0},{"id":8601491,"name":"Addas Segundo-B","lon":120.97275,"lat":14.40884,"pop":0},{"id":8601474,"name":"Addas Subdivision","lon":120.96354,"lat":14.4236,"pop":0},{"id":8601463,"name":"Addas Village","lon":120.95346,"lat":14.42518,"pop":0},{"id":8601512,"name":"Addas Village","lon":120.97582,"lat":14.43476,"pop":0},{"id":7091174,"name":"Addition Hills","lon":121.0384,"lat":14.5816,"pop":0},{"id":1732248,"name":"Addition Hills Brookside","alt":["Addition","Addition Hills"],"lon":121.0408,"lat":14.5903,"pop":0},{"id":1732246,"name":"Adela","lon":120.97291,"lat":12.44164,"pop":3926},{"id":1732247,"name":"Adela","lon":124.4375,"lat":10.6791,"pop":0},{"id":8577587,"name":"Adelina Complex","lon":121.055,"lat":14.34075,"pop":0},{"id":8576811,"name":"Adelina One A Subdivision","lon":121.04166,"lat":14.35683,"pop":0},{"id":7427045,"name":"Adereg","lon":120.84914,"lat":16.64738,"pop":0},{"id":1732241,"name":"Adgao","lon":124.58333,"lat":12.06667,"pop":0},{"id":1732242,"name":"Adgao","lon":122.3207,"lat":10.73505,"pop":0},{"id":7541043,"name":"Adgao","lon":124.6541,"lat":12.2512,"pop":0},{"id":7412916,"name":"Adgawan","lon":122.3524,"lat":11.5739,"pop":0},{"id":1732239,"name":"Adia","lon":120.9333,"lat":15,"pop":0},{"id":7425504,"name":"Adia","lon":121.435,"lat":14.48,"pop":0},{"id":1732238,"name":"Adia Bitaog","lon":122.0802,"lat":13.8273,"pop":0},{"id":1732237,"name":"Adiagnao","lon":123.6953,"lat":13.7199,"pop":0},{"id":1732236,"name":"Adiao","lon":122.02064,"lat":16.90615,"pop":0},{"id":7428262,"name":"Adinaonao","lon":120.6995,"lat":16.5577,"pop":0},{"id":1731775,"name":"Adjied","alt":["Adjid","Ajid"],"lon":121.00972,"lat":5.99222,"pop":0},{"id":1732234,"name":"Adlao-Tubang","lon":122.41667,"lat":10.9,"pop":0},{"id":1732227,"name":"Adlaon","alt":["Adloan"],"lon":123.87194,"lat":10.44389,"pop":0},{"id":1732230,"name":"Adlaon","lon":123.9,"lat":10.3,"pop":3647},{"id":1732233,"name":"Adlauan","lon":123.0219,"lat":11.4817,"pop":0},{"id":1732231,"name":"Adlawan","alt":["Adlauan"],"lon":122.75631,"lat":11.50557,"pop":0},{"id":1732232,"name":"Adlawan","alt":["Adlauan"],"lon":124.19,"lat":9.6384,"pop":0},{"id":1732229,"name":"Adlay","lon":125.8975,"lat":9.40972,"pop":2548},{"id":1732226,"name":"Adlusan","lon":122.0119,"lat":11.7659,"pop":0},{"id":6676011,"name":"Adorable","lon":123.8308,"lat":8.3235,"pop":0},{"id":7490973,"name":"Adovis","lon":124.012,"lat":12.8711,"pop":0},{"id":1732225,"name":"Adoy","lon":126.13238,"lat":7.32928,"pop":0},{"id":7428245,"name":"Adoyunan","lon":120.7309,"lat":16.6005,"pop":0},{"id":7428253,"name":"Adoyunan","lon":120.7332,"lat":16.5758,"pop":0},{"id":1732223,"name":"Adtugan","alt":["Adtoyon","Adtuyon"],"lon":124.85444,"lat":7.81194,"pop":3380},{"id":1732221,"name":"Aduas","lon":120.511,"lat":15.6737,"pop":0},{"id":1732222,"name":"Aduas Centro","alt":["Adduas","Aduas"],"lon":120.96172,"lat":15.49901,"pop":0},{"id":8474244,"name":"Aduas Norte","lon":120.97039,"lat":15.50064,"pop":0},{"id":8437893,"name":"Aduas Sur","lon":120.96761,"lat":15.49395,"pop":0},{"id":1732220,"name":"Adud","lon":120.86364,"lat":16.59858,"pop":0},{"id":1732219,"name":"Adugao","lon":120.98333,"lat":17.61667,"pop":0},{"id":1732216,"name":"Aduyungan","lon":121.17344,"lat":16.91496,"pop":0},{"id":1732217,"name":"Aduyungan","alt":["Aduyongan"],"lon":121.20654,"lat":16.92486,"pop":0},{"id":1732215,"name":"Advincula","lon":122.87685,"lat":11.24906,"pop":0},{"id":1732214,"name":"Adya","lon":121.1344,"lat":13.8813,"pop":0},{"id":1732212,"name":"Afga","lon":122.25,"lat":11.78333,"pop":0},{"id":7414642,"name":"Afunan Cabayu","alt":["Afunan"],"lon":121.7167,"lat":18.2596,"pop":0},{"id":1732209,"name":"Afusing Bato","alt":["Afusing Batu"],"lon":121.64253,"lat":17.84807,"pop":0},{"id":1732210,"name":"Afusing Centro","alt":["Afusing","Aposingbato"],"lon":121.6269,"lat":17.8526,"pop":3541},{"id":1732208,"name":"Afusing Daga","lon":121.62779,"lat":17.85656,"pop":0},{"id":7425227,"name":"Afusing Norte","lon":121.63005,"lat":17.8607,"pop":0},{"id":7425225,"name":"Afusing Sur","lon":121.62265,"lat":17.849,"pop":0},{"id":1732200,"name":"Ag-agat","lon":120.58333,"lat":16.6,"pop":0},{"id":1732191,"name":"Ag-ambulong","alt":["Agamulong"],"lon":122.5094,"lat":11.3684,"pop":2300},{"id":1732169,"name":"Aga","alt":["Agas"],"lon":121.3338,"lat":13.6406,"pop":0},{"id":1732205,"name":"Aga","lon":120.80217,"lat":14.0965,"pop":5218},{"id":1732206,"name":"Aga","lon":122.96667,"lat":13.83333,"pop":0},{"id":8520104,"name":"Aga","lon":121.77127,"lat":17.2467,"pop":0},{"id":1966550,"name":"Agaban","lon":124.50417,"lat":11.68361,"pop":0},{"id":1731896,"name":"Agada","alt":["Aguada"],"lon":123.9209,"lat":11.901,"pop":0},{"id":7639630,"name":"Agadang","lon":120.7565,"lat":18.533,"pop":0},{"id":1732202,"name":"Agaga","lon":120.58333,"lat":18.5,"pop":0},{"id":1732203,"name":"Agaga","lon":120.6521,"lat":18.4494,"pop":0},{"id":1732201,"name":"Agagan","lon":125.1763,"lat":10.5535,"pop":0},{"id":1732199,"name":"Agagrao","lon":120.508,"lat":17.3791,"pop":0},{"id":1732198,"name":"Agaguman","lon":120.4707,"lat":16.9253,"pop":0},{"id":1732197,"name":"Agahang","lon":124.5324,"lat":11.2962,"pop":0},{"id":1732196,"name":"Agahay","lon":123.88966,"lat":9.74192,"pop":0},{"id":1957933,"name":"Agahun","lon":120.93972,"lat":5.98417,"pop":0},{"id":1732195,"name":"Agakan","lon":124.66667,"lat":7.06667,"pop":0},{"id":1732194,"name":"Agal-Agal","lon":120.5757,"lat":6.2983,"pop":0},{"id":7423996,"name":"Agaman","lon":121.92145,"lat":17.99099,"pop":0},{"id":1732190,"name":"Agamham","lon":125.33333,"lat":11.85,"pop":0},{"id":1732187,"name":"Aganan","lon":122.53333,"lat":10.78333,"pop":2522},{"id":1732188,"name":"Aganan","lon":123.3083,"lat":9.3371,"pop":0},{"id":1732185,"name":"Aganhaw","lon":121.2143,"lat":13.4066,"pop":0},{"id":1732184,"name":"Agani","lon":121.7039,"lat":17.9178,"pop":0},{"id":1732182,"name":"Aganopol","lon":121.7,"lat":14.26667,"pop":0},{"id":1732181,"name":"Agantan","alt":["Aganlan"],"lon":121.30935,"lat":17.56442,"pop":0},{"id":1732179,"name":"Agaoob","lon":124.43333,"lat":11.18333,"pop":0},{"id":1732178,"name":"Agapana","alt":["Agapang"],"lon":120.7281,"lat":18.2096,"pop":0},{"id":1732174,"name":"Agape","alt":["Agapi"],"lon":124.03189,"lat":9.6242,"pop":0},{"id":1732175,"name":"Agape","lon":124.02973,"lat":9.61243,"pop":0},{"id":1732173,"name":"Agapita Hacienda","lon":123.33333,"lat":10.38333,"pop":0},{"id":1732172,"name":"Agar","lon":122.9757,"lat":13.8355,"pop":0},{"id":1732168,"name":"Agas","lon":120.88333,"lat":17.5,"pop":0},{"id":1732170,"name":"Agas","lon":117.48972,"lat":8.57861,"pop":0},{"id":1732166,"name":"Agasasan","lon":120.88865,"lat":17.48733,"pop":0},{"id":1732165,"name":"Agat","lon":120.53333,"lat":16.25,"pop":0},{"id":7426902,"name":"Agat","alt":["Agar"],"lon":120.513,"lat":16.2034,"pop":0},{"id":7427098,"name":"Agat","lon":120.81284,"lat":16.65078,"pop":0},{"id":7428422,"name":"Agat","lon":120.6441,"lat":18.3727,"pop":0},{"id":1732163,"name":"Agata","lon":125.4,"lat":9.66667,"pop":0},{"id":1732161,"name":"Agawa","lon":120.8533,"lat":17.1076,"pop":0},{"id":1732160,"name":"Agay","lon":125.58667,"lat":9.05361,"pop":3976},{"id":1732158,"name":"Agay-ay","lon":125.22583,"lat":10.25139,"pop":0},{"id":1732156,"name":"Agay-ayan","alt":["Agayayon"],"lon":124.53333,"lat":11.21667,"pop":0},{"id":1732157,"name":"Agay-ayan","lon":125.05722,"lat":8.86361,"pop":0},{"id":1732159,"name":"Agayan","lon":124.53333,"lat":11.21667,"pop":0},{"id":1732129,"name":"Agba-o","alt":["Agbauo"],"lon":122.5891,"lat":11.162,"pop":0},{"id":1732155,"name":"Agbabadiang","alt":["Agbadiang"],"lon":122.8092,"lat":11.4686,"pop":0},{"id":7418616,"name":"Agbabalo","lon":122.9498,"lat":11.1789,"pop":0},{"id":1732153,"name":"Agbadiang","lon":122.0014,"lat":12.5862,"pop":0},{"id":7406079,"name":"Agbading","lon":122.02291,"lat":11.87838,"pop":0},{"id":1732151,"name":"Agbagacay","lon":123.3817,"lat":10.46957,"pop":0},{"id":1732152,"name":"Agbagacay","lon":123.1021,"lat":9.0698,"pop":0},{"id":1732150,"name":"Agbago","lon":122.1503,"lat":11.809,"pop":0},{"id":1732149,"name":"Agbagon","lon":123.9,"lat":10.3,"pop":0},{"id":1732148,"name":"Agbahoan","lon":123.4118,"lat":10.56416,"pop":0},{"id":1732147,"name":"Agbalagon","lon":122.0927,"lat":12.5336,"pop":0},{"id":1732146,"name":"Agbalanga","lon":123.46286,"lat":9.92381,"pop":0},{"id":1732144,"name":"Agbaliga","lon":122.29561,"lat":12.48103,"pop":0},{"id":7418865,"name":"Agbalili","lon":122.6361,"lat":11.2732,"pop":0},{"id":1732141,"name":"Agbalo","lon":122.8236,"lat":11.4973,"pop":0},{"id":1732140,"name":"Agbalogo","lon":122.28333,"lat":11.71667,"pop":0},{"id":1732138,"name":"Agbaluto","lon":122.27321,"lat":12.56473,"pop":0},{"id":1732137,"name":"Agban","lon":124.384,"lat":13.7144,"pop":0},{"id":1732136,"name":"Agbanawan","lon":122.3418,"lat":11.5968,"pop":0},{"id":1732135,"name":"Agbanban","lon":122.77361,"lat":11.55056,"pop":0},{"id":1732133,"name":"Agbanga","lon":124.444,"lat":11.0869,"pop":0},{"id":1732131,"name":"Agbannawag","alt":["Agbanawag"],"lon":121.5478,"lat":17.37641,"pop":3186},{"id":1732132,"name":"Agbannawag","alt":["Agbanawag","Agbannaoag","Agbannaway"],"lon":121.0833,"lat":15.6792,"pop":3782},{"id":1732130,"name":"Agbanug","lon":122.81667,"lat":11.81667,"pop":0},{"id":1732127,"name":"Agbao-ud","lon":122.3,"lat":11.5,"pop":0},{"id":7412901,"name":"Agbatiti","lon":122.2576,"lat":11.5916,"pop":0},{"id":1732124,"name":"Agbatong","lon":121.70752,"lat":12.91091,"pop":0},{"id":1732123,"name":"Agbatuan","lon":122.71667,"lat":10.98333,"pop":0},{"id":1732121,"name":"Agbobolo","lon":122.8549,"lat":11.4117,"pop":0},{"id":1732122,"name":"Agbobolo","alt":["Agboboto"],"lon":122.9801,"lat":11.1867,"pop":0},{"id":7413100,"name":"Agbobolo","lon":122.44581,"lat":11.459,"pop":0},{"id":1732119,"name":"Agbonan","alt":["Agbonon"],"lon":123.9689,"lat":9.8777,"pop":0},{"id":1732118,"name":"Agboy Norte","alt":["Agboy"],"lon":122.4,"lat":10.76667,"pop":0},{"id":1732117,"name":"Agboy Sur","lon":122.36667,"lat":10.78333,"pop":0},{"id":1732116,"name":"Agbuakan","lon":123.9,"lat":10.3,"pop":0},{"id":1732115,"name":"Agbuaya","alt":["Agbuayan"],"lon":123.9624,"lat":9.8328,"pop":0},{"id":1732114,"name":"Agbudia","lon":122.29111,"lat":12.60603,"pop":0},{"id":7412918,"name":"Agbulacan","lon":122.3526,"lat":11.5647,"pop":0},{"id":1732113,"name":"Agbulu","lon":121.08117,"lat":18.13664,"pop":0},{"id":7413084,"name":"Agbulugo","lon":122.36021,"lat":11.4677,"pop":0},{"id":1732112,"name":"Agbunud","alt":["Agbun-od"],"lon":122.42171,"lat":11.4439,"pop":0},{"id":1732110,"name":"Agcad","lon":124.84667,"lat":6.89556,"pop":0},{"id":1732109,"name":"Agcadarao","lon":123.0062,"lat":11.2273,"pop":0},{"id":7413050,"name":"Agcagawan","lon":122.45541,"lat":11.36561,"pop":0},{"id":1732107,"name":"Agcagay","lon":122.07193,"lat":12.35637,"pop":0},{"id":1732108,"name":"Agcagay","lon":122.5196,"lat":11.4253,"pop":0},{"id":7414005,"name":"Agcahilao","lon":122.1156,"lat":12.6381,"pop":0},{"id":1732105,"name":"Agcanni","lon":121.63222,"lat":17.58583,"pop":0},{"id":7609556,"name":"Agcano","lon":120.75774,"lat":15.59025,"pop":0},{"id":1732104,"name":"Agcarope","lon":122.5,"lat":10.95,"pop":0},{"id":7412532,"name":"Agcarope","lon":122.4079,"lat":11.02463,"pop":0},{"id":1732103,"name":"Agcawayan","alt":["Agcauayan","Agkawayan"],"lon":120.2648,"lat":13.7598,"pop":0},{"id":7418242,"name":"Agcawaypa","lon":122.6417,"lat":10.9479,"pop":0},{"id":1732102,"name":"Agcawilan","alt":["Agcanilan"],"lon":122.31667,"lat":11.7,"pop":0},{"id":1732100,"name":"Agcococ","lon":122.48621,"lat":11.34431,"pop":0},{"id":1689515,"name":"Agcogon","alt":["Acogon","San Jose","Taft"],"lon":121.95911,"lat":12.06146,"pop":3027},{"id":1732099,"name":"Agcogon","lon":122.01667,"lat":12.31667,"pop":0},{"id":1732098,"name":"Agcuyauan","alt":["Agcuyawan"],"lon":122.71833,"lat":10.89,"pop":0},{"id":1732095,"name":"Agdabon","alt":["Agdahon","Agdajon"],"lon":122.7236,"lat":11.3051,"pop":0},{"id":1732096,"name":"Agdajon","lon":122.604,"lat":11.1205,"pop":0},{"id":1732094,"name":"Agdalipi","alt":["Agdalipe"],"lon":122.8194,"lat":11.4761,"pop":0},{"id":1732093,"name":"Agdaliran","alt":["Agdaleran"],"lon":123.10361,"lat":11.29722,"pop":0},{"id":7412521,"name":"Agdalusan","lon":122.38911,"lat":11.10183,"pop":0},{"id":1732091,"name":"Agdangan","lon":121.91305,"lat":13.8771,"pop":3918},{"id":1732097,"name":"Agdangan","alt":["Agdagnan"],"lon":123.3437,"lat":13.4797,"pop":0},{"id":1732085,"name":"Agdao","lon":120.45639,"lat":15.91669,"pop":0},{"id":1732086,"name":"Agdao","lon":120.32542,"lat":15.89542,"pop":0},{"id":1732087,"name":"Agdao","lon":120.3409,"lat":15.9187,"pop":0},{"id":1732088,"name":"Agdao","lon":125.58722,"lat":6.48889,"pop":0},{"id":9949201,"name":"Agdao District","lon":125.62652,"lat":7.09135,"pop":0},{"id":1732083,"name":"Agdayao","lon":122.46667,"lat":11.11667,"pop":0},{"id":1732084,"name":"Agdayao","lon":122.5913,"lat":11.1022,"pop":0},{"id":1732082,"name":"Agdeppa","lon":120.4147,"lat":16.8917,"pop":0},{"id":1732081,"name":"Agdugayan","alt":["Dugayan"],"lon":122.16,"lat":11.7692,"pop":0},{"id":1732079,"name":"Agdum","lon":122.1882,"lat":10.659,"pop":0},{"id":7412531,"name":"Agearupe","lon":122.41,"lat":11.03323,"pop":0},{"id":1732077,"name":"Aggao","lon":120.87517,"lat":18.60144,"pop":0},{"id":1732076,"name":"Aggasi","lon":120.8315,"lat":18.543,"pop":0},{"id":1732075,"name":"Aggasian","alt":["Aggassian"],"lon":121.92873,"lat":17.1102,"pop":0},{"id":1732074,"name":"Aggassian","alt":["Aggasian"],"lon":121.88333,"lat":17.15,"pop":0},{"id":1732073,"name":"Aggay","lon":120.40902,"lat":17.58631,"pop":0},{"id":1732071,"name":"Aggub","lon":121.7308,"lat":17.41494,"pop":0},{"id":1732072,"name":"Aggub","lon":121.20264,"lat":16.56118,"pop":0},{"id":1732070,"name":"Aggugaddah","alt":["Aggugadaan","Aggugadan","Aggugaddan"],"lon":121.8025,"lat":17.70016,"pop":2364},{"id":1732069,"name":"Agguirit","lon":121.68749,"lat":17.76202,"pop":0},{"id":1732067,"name":"Aggunetan","alt":["Aggumitan"],"lon":121.61557,"lat":18.03165,"pop":0},{"id":1732068,"name":"Aggunetan","alt":["Aggunatan"],"lon":121.60555,"lat":17.99599,"pop":0},{"id":1732066,"name":"Aggungan","lon":121.8137,"lat":18.2457,"pop":0},{"id":1732065,"name":"Aghao","lon":123.8736,"lat":9.7545,"pop":0},{"id":1732063,"name":"Agibawa","lon":126.1197,"lat":7.6561,"pop":0},{"id":1732062,"name":"Agikik","lon":125.42222,"lat":6.23528,"pop":0},{"id":1732039,"name":"Agioloma","alt":["Agloloma"],"lon":120.3939,"lat":14.4703,"pop":0},{"id":1732059,"name":"Agkalangan","alt":["Aokalangan"],"lon":124.35583,"lat":7.25889,"pop":0},{"id":1732057,"name":"Agkayamet","alt":["Angkayamat"],"lon":124.68083,"lat":6.88167,"pop":0},{"id":1731936,"name":"Agkilo","alt":["Agquilo"],"lon":122.7717,"lat":11.4606,"pop":0},{"id":1732056,"name":"Aglagtang","lon":121.9959,"lat":12.1923,"pop":0},{"id":1732055,"name":"Aglahog","alt":["Aglahag","Alahog"],"lon":123.0543,"lat":11.229,"pop":0},{"id":1732054,"name":"Aglahug","lon":123.23333,"lat":9.98333,"pop":0},{"id":1732052,"name":"Aglalana","lon":122.68333,"lat":11.26667,"pop":0},{"id":1732053,"name":"Aglalana","lon":122.6574,"lat":11.1803,"pop":2868},{"id":1732051,"name":"Aglao","lon":120.28293,"lat":14.97845,"pop":0},{"id":1732050,"name":"Aglayan","lon":125.13417,"lat":8.055,"pop":5761},{"id":8530321,"name":"Agliam","lon":121.66295,"lat":17.08336,"pop":0},{"id":1732047,"name":"Aglibacao","lon":122.51667,"lat":11.41667,"pop":0},{"id":1732048,"name":"Aglibacao","lon":122.53333,"lat":11.13333,"pop":0},{"id":1732046,"name":"Aglibacoa","alt":["Aglicabao"],"lon":122.49201,"lat":11.4273,"pop":0},{"id":1732044,"name":"Aglimocan","alt":["Aglimocon"],"lon":122.92417,"lat":11.33778,"pop":0},{"id":1732043,"name":"Aglimocon","lon":122.81667,"lat":11.81667,"pop":0},{"id":1732042,"name":"Aglinob","alt":["Aglinab"],"lon":122.5285,"lat":11.2005,"pop":0},{"id":1732040,"name":"Aglipay","alt":["Guinalbin","Guinalvin"],"lon":121.645,"lat":16.4889,"pop":0},{"id":7428736,"name":"Aglipay","alt":["Curva"],"lon":121.0687,"lat":15.6826,"pop":0},{"id":8534286,"name":"Aglipay","lon":121.5993,"lat":16.5396,"pop":0},{"id":8534287,"name":"Aglipay","lon":121.6087,"lat":16.5222,"pop":0},{"id":1732037,"name":"Agloloway","lon":122.51667,"lat":11.41667,"pop":0},{"id":7413074,"name":"Agloloway","lon":122.44291,"lat":11.35961,"pop":0},{"id":1732036,"name":"Aglosong","lon":123.0547,"lat":11.2582,"pop":0},{"id":1732034,"name":"Aglubong","lon":122.39381,"lat":11.03503,"pop":0},{"id":1732032,"name":"Agma-ilig","lon":122.29261,"lat":11.4678,"pop":0},{"id":1732030,"name":"Agmalobo","alt":["Agnalobo"],"lon":122.66694,"lat":11.52889,"pop":0},{"id":1732028,"name":"Agman","lon":123.41721,"lat":12.17995,"pop":0},{"id":1732027,"name":"Agmanaphao","lon":122.6005,"lat":10.9156,"pop":0},{"id":1732023,"name":"Agna","lon":123.73333,"lat":13.08333,"pop":0},{"id":1732019,"name":"Agnaga","alt":["Agnag"],"lon":122.32561,"lat":12.50393,"pop":0},{"id":1732020,"name":"Agnaga","lon":123.0751,"lat":11.1982,"pop":0},{"id":1732018,"name":"Agnas","lon":123.8176,"lat":13.3557,"pop":0},{"id":1732015,"name":"Agnawe","lon":123.9,"lat":10.3,"pop":0},{"id":1732014,"name":"Agnay","lon":122.25961,"lat":12.57483,"pop":0},{"id":1732013,"name":"Agnaya","lon":120.85148,"lat":14.88673,"pop":0},{"id":1732012,"name":"Agnayon","lon":125.71083,"lat":8.55361,"pop":0},{"id":11240027,"name":"Agnes Ville Subdivision","lon":121.13502,"lat":14.61904,"pop":0},{"id":1732026,"name":"Agnianic","alt":["Agmanic"],"lon":122.00611,"lat":12.11666,"pop":0},{"id":1732010,"name":"Agnipa","lon":122.26471,"lat":12.51463,"pop":0},{"id":1732005,"name":"Agno","alt":["Agno de Pangasinan","Agno de Pangasinán","agnw  pangasynan","اگنو، پانگاسینان"],"lon":119.7993,"lat":16.1161,"pop":2638},{"id":1732006,"name":"Agno","lon":120.7271,"lat":16.0225,"pop":0},{"id":1732001,"name":"Agnoknok","alt":["Agnonoc"],"lon":122.55931,"lat":12.49493,"pop":0},{"id":1732002,"name":"Agnoknok","alt":["Agnocnoc"],"lon":121.9448,"lat":12.3204,"pop":0},{"id":1731997,"name":"Agnos","lon":120.95,"lat":13.83333,"pop":0},{"id":1731994,"name":"Ago","lon":123.65,"lat":12.65,"pop":0},{"id":1731995,"name":"Ago","lon":122.3108,"lat":10.78685,"pop":0},{"id":10228321,"name":"Agoa Proper","lon":125.6242,"lat":7.08479,"pop":0},{"id":1731993,"name":"Agobob","lon":124.411,"lat":11.1702,"pop":0},{"id":1731986,"name":"Agoho","alt":["Agojo"],"lon":124.0621,"lat":13.6003,"pop":0},{"id":1731987,"name":"Agoho","alt":["Zaragoza"],"lon":121.9748,"lat":12.2134,"pop":0},{"id":1731988,"name":"Agoho","lon":121.9708,"lat":12.2331,"pop":0},{"id":1731989,"name":"Agoho","alt":["Agojo"],"lon":124.66839,"lat":9.24426,"pop":0},{"id":1731975,"name":"Agojo","alt":["Agoho"],"lon":122.26453,"lat":14.20475,"pop":0},{"id":1731976,"name":"Agojo","alt":["Agoho"],"lon":122.2,"lat":13.98333,"pop":0},{"id":1731977,"name":"Agojo","lon":124.1712,"lat":13.2227,"pop":0},{"id":1731978,"name":"Agojo","lon":123.6492,"lat":12.0502,"pop":0},{"id":1731979,"name":"Agojo","lon":122.8075,"lat":11.60871,"pop":0},{"id":1978440,"name":"Agokan","lon":124.70889,"lat":7.05528,"pop":0},{"id":1731972,"name":"Agol","lon":123.46314,"lat":13.08379,"pop":0},{"id":1731971,"name":"Agomanay","lon":120.6475,"lat":17.2927,"pop":0},{"id":1731969,"name":"Agoncillo","alt":["Gitna","Guitna"],"lon":120.93261,"lat":13.93556,"pop":0},{"id":1731966,"name":"Agong-ong","lon":125.38333,"lat":8.93333,"pop":0},{"id":8469333,"name":"Agong-ongan","lon":125.5428,"lat":9.5381,"pop":0},{"id":1731967,"name":"Agongong","lon":125.06667,"lat":8.83333,"pop":0},{"id":1731958,"name":"Agoo","alt":["agw  la ywnyan","agw  la ywnywn","اگو، لا یونیان","اگو، لا یونیون"],"lon":120.3666,"lat":16.3228,"pop":0},{"id":1731959,"name":"Agoo","lon":120.1,"lat":16.08333,"pop":28972},{"id":1731960,"name":"Agoo","lon":120.3717,"lat":15.7701,"pop":0},{"id":1731955,"name":"Agopo","lon":122.1978,"lat":13.9927,"pop":0},{"id":7412454,"name":"Agoponga","lon":122.2922,"lat":11.3291,"pop":0},{"id":1731954,"name":"Agopop","lon":119.967,"lat":15.5413,"pop":0},{"id":1731953,"name":"Agora","lon":121.26667,"lat":18.18333,"pop":0},{"id":1731952,"name":"Agos","lon":123.3983,"lat":13.3434,"pop":2821},{"id":1731951,"name":"Agos-agos","alt":["Agosagos"],"lon":121.63245,"lat":14.73989,"pop":0},{"id":7565182,"name":"Agosa","alt":["Agoso"],"lon":119.99136,"lat":16.27416,"pop":0},{"id":1731949,"name":"Agot","lon":121.8736,"lat":13.4565,"pop":0},{"id":7619154,"name":"Agou","lon":120.09304,"lat":16.07442,"pop":0},{"id":1731944,"name":"Agpanabat","lon":122.28291,"lat":12.48653,"pop":0},{"id":1731942,"name":"Agpangi","alt":["Aspangi"],"lon":124.3966,"lat":11.5885,"pop":0},{"id":1731943,"name":"Agpangi","alt":["Agpange","Agponge"],"lon":123.4232,"lat":10.57716,"pop":2150},{"id":7412478,"name":"Agpano-an","lon":122.4534,"lat":11.301,"pop":0},{"id":1731940,"name":"Agparale Mountain","lon":122.53333,"lat":11.13333,"pop":0},{"id":7599345,"name":"Agpay","lon":120.4489,"lat":16.4921,"pop":0},{"id":1731939,"name":"Agpipile","alt":["Agpipili"],"lon":122.9352,"lat":11.2492,"pop":0},{"id":1731937,"name":"Agpudlos","lon":122.0033,"lat":12.5584,"pop":0},{"id":1731934,"name":"Agrupacion","lon":122.8166,"lat":13.7987,"pop":0},{"id":7541404,"name":"Agrupacion","lon":124.8336,"lat":12.5262,"pop":0},{"id":1731933,"name":"Agsalanan","lon":122.66667,"lat":10.98333,"pop":0},{"id":7430056,"name":"Agsalang","lon":123.0771,"lat":11.2495,"pop":0},{"id":1731932,"name":"Agsalay","lon":122.7,"lat":11.25,"pop":0},{"id":1731931,"name":"Agsalin","lon":121.48492,"lat":12.87931,"pop":0},{"id":1731930,"name":"Agsam","lon":125.3892,"lat":12.1716,"pop":0},{"id":1731929,"name":"Agsaman","lon":125.1867,"lat":12.3398,"pop":0},{"id":7603473,"name":"Agsanayan","lon":122.655,"lat":10.682,"pop":0},{"id":1731928,"name":"Agsao","lon":122.46288,"lat":12.47102,"pop":0},{"id":7418615,"name":"Agsaropot","lon":122.9829,"lat":11.3311,"pop":0},{"id":7638770,"name":"Agsidan","lon":120.8397,"lat":16.4647,"pop":0},{"id":1731927,"name":"Agsilab","lon":122.58333,"lat":11.5,"pop":0},{"id":1903136,"name":"Agsilab","lon":122.56694,"lat":11.51611,"pop":0},{"id":1731926,"name":"Agsimao","alt":["Acsimao"],"lon":120.94289,"lat":17.78489,"pop":0},{"id":1731925,"name":"Agsinapot","lon":123.03333,"lat":11.25,"pop":0},{"id":1731924,"name":"Agsing","lon":122.3922,"lat":10.8349,"pop":0},{"id":1731923,"name":"Agsirab","lon":122.34811,"lat":11.04523,"pop":0},{"id":1731922,"name":"Agsoso","lon":123.8277,"lat":9.7903,"pop":0},{"id":1731921,"name":"Agsowao","alt":["Aasowao","Agsuwao"],"lon":123.94259,"lat":10.72275,"pop":0},{"id":1731918,"name":"Agsungot","lon":123.90611,"lat":10.43444,"pop":1981},{"id":1731916,"name":"Agta","lon":122.3397,"lat":10.82954,"pop":0},{"id":1731917,"name":"Agta","lon":124.98333,"lat":10.38333,"pop":0},{"id":1731913,"name":"Agtalos","lon":122.2415,"lat":11.5982,"pop":0},{"id":1731912,"name":"Agtambi","lon":122.7009,"lat":11.3561,"pop":0},{"id":1731911,"name":"Agtambo","lon":122.64674,"lat":11.15895,"pop":0},{"id":1731909,"name":"Agtanguay","lon":122.7474,"lat":11.3889,"pop":0},{"id":1731906,"name":"Agtatacay","lon":122.6801,"lat":11.0233,"pop":0},{"id":1903135,"name":"Agtatacay Norte","lon":122.55972,"lat":11.51833,"pop":0},{"id":1731905,"name":"Agtatacay Sur","alt":["Agtatacay"],"lon":122.56167,"lat":11.50972,"pop":0},{"id":7406287,"name":"Agtinga","lon":122.0416,"lat":12.2676,"pop":0},{"id":1731903,"name":"Agtipal","lon":120.36667,"lat":16.73333,"pop":0},{"id":1966393,"name":"Agtipod","lon":122.1033,"lat":12.5288,"pop":0},{"id":1731902,"name":"Agtiwa","lon":122.44018,"lat":12.43389,"pop":0},{"id":7422183,"name":"Agtoc","lon":122.7786,"lat":13.781,"pop":0},{"id":1731901,"name":"Agtongo","lon":122.26841,"lat":12.59443,"pop":0},{"id":7413089,"name":"Agtopgop","lon":122.43721,"lat":11.4138,"pop":0},{"id":1731900,"name":"Agtugop","lon":123.78583,"lat":10.59917,"pop":0},{"id":1731898,"name":"Agtuman","lon":122.49861,"lat":11.01833,"pop":0},{"id":1731892,"name":"Aguada","lon":123.83333,"lat":12.81667,"pop":2552},{"id":1731893,"name":"Aguada","lon":122.1094,"lat":12.6504,"pop":0},{"id":1731894,"name":"Aguada","alt":["Aguado"],"lon":123.6905,"lat":12.074,"pop":0},{"id":1731895,"name":"Aguada","lon":124.03051,"lat":11.97576,"pop":0},{"id":7374256,"name":"Aguada","lon":123.1624,"lat":12.941,"pop":0},{"id":1731886,"name":"Aguadahan","alt":["Aguadajan"],"lon":125.0404,"lat":12.5811,"pop":0},{"id":1731884,"name":"Aguadan","lon":126.12838,"lat":7.31528,"pop":0},{"id":8356371,"name":"Aguado","alt":["Piscal Mundo"],"lon":120.86432,"lat":14.25611,"pop":0},{"id":1731879,"name":"Aguanta","lon":121.45,"lat":18.35,"pop":0},{"id":1731876,"name":"Aguat","lon":121.18144,"lat":16.77627,"pop":0},{"id":1731875,"name":"Aguaton","lon":121.23534,"lat":16.78457,"pop":0},{"id":1731872,"name":"Agubay","lon":124.4888,"lat":11.0231,"pop":0},{"id":7427969,"name":"Aguet Norte","lon":120.7337,"lat":17.6139,"pop":0},{"id":7427970,"name":"Aguet Sur","lon":120.7287,"lat":17.6103,"pop":0},{"id":1731867,"name":"Aguho","lon":122.86944,"lat":13.16,"pop":0},{"id":1731974,"name":"Aguho","alt":["Agoho","Agojo"],"lon":121.065,"lat":14.541,"pop":0},{"id":1731980,"name":"Aguho","alt":["Agoho","Agojo"],"lon":124.0074,"lat":11.2677,"pop":0},{"id":1731866,"name":"Aguiauan","lon":122.23333,"lat":10.65,"pop":0},{"id":7634338,"name":"Aguid","lon":120.8936,"lat":17.123,"pop":0},{"id":1731864,"name":"Aguiguican","lon":121.67647,"lat":18.10871,"pop":0},{"id":1731863,"name":"Aguila","lon":122.0874,"lat":11.5105,"pop":0},{"id":1731859,"name":"Aguilar","lon":120.2378,"lat":15.8884,"pop":9801},{"id":1731860,"name":"Aguilar","lon":122.98333,"lat":13.53333,"pop":0},{"id":1731861,"name":"Aguilar","lon":122.6543,"lat":10.627,"pop":0},{"id":1731856,"name":"Aguilisin","lon":120.76667,"lat":14.78333,"pop":0},{"id":1731854,"name":"Aguinaldo","lon":124.95972,"lat":10.05611,"pop":0},{"id":7522589,"name":"Aguinaldo","lon":121.91454,"lat":16.93555,"pop":0},{"id":8304894,"name":"Aguinaldo","lon":124.5534,"lat":12.1388,"pop":0},{"id":8435014,"name":"Aguinaldo","lon":120.93752,"lat":15.43755,"pop":0},{"id":1731852,"name":"Aguing","lon":120.35,"lat":15.8,"pop":0},{"id":7607663,"name":"Aguing","lon":120.4859,"lat":17.8681,"pop":0},{"id":1731851,"name":"Aguingay","lon":122.461,"lat":10.965,"pop":0},{"id":1731850,"name":"Aguingayan","lon":125.05,"lat":12.05,"pop":0},{"id":1731849,"name":"Aguining","alt":["Aguinin"],"lon":124.5944,"lat":10.0861,"pop":2488},{"id":1731845,"name":"Aguioas","lon":120.4,"lat":16.53333,"pop":0},{"id":1731844,"name":"Aguipawa","alt":["Agipawa"],"lon":125.175,"lat":9.00278,"pop":0},{"id":1731842,"name":"Aguire","lon":120.5303,"lat":17.9134,"pop":0},{"id":1731838,"name":"Aguisan","alt":["Aguisan Hacienda"],"lon":122.8615,"lat":10.1603,"pop":11798},{"id":1731836,"name":"Aguitap","lon":120.77054,"lat":18.11894,"pop":0},{"id":1731835,"name":"Aguiting","alt":["Aquiting"],"lon":124.59806,"lat":11.13056,"pop":0},{"id":1732193,"name":"Agulusuanan","alt":["Agalusanan","Agalusuanan"],"lon":121.47,"lat":17.4945,"pop":0},{"id":1731832,"name":"Agumaymayan","lon":121.9161,"lat":13.4422,"pop":0},{"id":1906917,"name":"Agumbayan Subdivision","lon":121.08,"lat":14.60806,"pop":0},{"id":1731830,"name":"Agumingan","lon":121.1464,"lat":18.16744,"pop":0},{"id":1731847,"name":"Agumo","alt":["Aguino","Aquino"],"lon":123.6938,"lat":8.6115,"pop":0},{"id":1710371,"name":"Agunipa","alt":["Jagonipa","Jagunipa"],"lon":122.8764,"lat":9.2972,"pop":0},{"id":1731829,"name":"Agunit","lon":120.7215,"lat":18.034,"pop":0},{"id":1731827,"name":"Agupalo Este","lon":120.8825,"lat":15.8245,"pop":0},{"id":1731826,"name":"Agupalo Oeste","alt":["Agupalo West"],"lon":120.8845,"lat":15.8395,"pop":0},{"id":1731825,"name":"Agupit","alt":["La Purisima"],"lon":123.32472,"lat":13.4225,"pop":7396},{"id":1731823,"name":"Aguren","alt":["Aguran"],"lon":124.7385,"lat":9.1047,"pop":0},{"id":1731821,"name":"Agus","lon":125.51667,"lat":11.4,"pop":0},{"id":1731822,"name":"Agus","alt":["Agos"],"lon":123.98322,"lat":10.28521,"pop":0},{"id":8656540,"name":"Agus-us","lon":120.85931,"lat":14.22467,"pop":0},{"id":1731820,"name":"Agusan","lon":124.73722,"lat":8.49056,"pop":14756},{"id":1731817,"name":"Agusan Pequeño","alt":["Agusan"],"lon":125.52361,"lat":8.97472,"pop":0},{"id":1731812,"name":"Agusi","lon":121.6695,"lat":18.2854,"pop":0},{"id":1731810,"name":"Agusipan","alt":["Agosipan"],"lon":122.5255,"lat":11.0043,"pop":0},{"id":1731811,"name":"Agusipan","alt":["Agosipan"],"lon":122.55,"lat":10.81667,"pop":0},{"id":1731809,"name":"Aguso","lon":120.597,"lat":15.527,"pop":0},{"id":1731807,"name":"Agustin","lon":123.95556,"lat":9.62083,"pop":0},{"id":1731805,"name":"Agusuhin","lon":120.20944,"lat":14.81639,"pop":0},{"id":7415731,"name":"Agutan","lon":121.78308,"lat":18.06116,"pop":0},{"id":1731800,"name":"Agutay","lon":122.44859,"lat":12.45527,"pop":0},{"id":1731801,"name":"Agutay","lon":124.3289,"lat":11.8147,"pop":0},{"id":1731798,"name":"Agutaya","alt":["Agatuya","Bayan ng Agutaya"],"lon":120.9417,"lat":11.148,"pop":4989},{"id":1731793,"name":"Agutayan","lon":122.7,"lat":11.1,"pop":0},{"id":1731794,"name":"Agutayan","lon":122.642,"lat":11.0705,"pop":0},{"id":1731795,"name":"Agutayan","alt":["Agotayan"],"lon":122.51667,"lat":10.81667,"pop":0},{"id":1731796,"name":"Agutayan","lon":117,"lat":8,"pop":0},{"id":1731792,"name":"Agutayandilit","alt":["Agutayandelic"],"lon":119.8631,"lat":11.4511,"pop":0},{"id":1731787,"name":"Agutayon","lon":123.21667,"lat":9.98333,"pop":0},{"id":1731784,"name":"Aguzzao","alt":["Aquizzao"],"lon":121.88056,"lat":17.95556,"pop":0},{"id":1731782,"name":"Ahan","lon":124.32667,"lat":6.92861,"pop":0},{"id":1731778,"name":"Ahin","lon":120.9,"lat":16.7667,"pop":0},{"id":7429474,"name":"Ahin","lon":121.01554,"lat":16.82766,"pop":0},{"id":1731118,"name":"Aimbasin","alt":["Ambassing"],"lon":120.899,"lat":17.0722,"pop":0},{"id":1906835,"name":"Airmen Village","lon":121.0161,"lat":14.5258,"pop":0},{"id":7091220,"name":"Airport Village","lon":121.0067,"lat":14.5084,"pop":0},{"id":7428616,"name":"Aisado","lon":121.19366,"lat":14.93562,"pop":0},{"id":8516363,"name":"Ajat","lon":121.73539,"lat":17.74869,"pop":0},{"id":1731774,"name":"Ajjao","lon":121.87028,"lat":17.89278,"pop":0},{"id":1731773,"name":"Ajong","lon":123.2584,"lat":9.3782,"pop":0},{"id":1731771,"name":"Ajos","lon":122.356,"lat":13.5491,"pop":0},{"id":1731770,"name":"Ajos Catanauan","lon":122.35667,"lat":13.54861,"pop":0},{"id":1731769,"name":"Ajos Mulaney","lon":122.3789,"lat":13.5466,"pop":0},{"id":1731765,"name":"Ajuy","alt":["Ajuy Town"],"lon":123.0197,"lat":11.1724,"pop":8695},{"id":1731762,"name":"Ajuz","alt":["Ajos"],"lon":123.0425,"lat":11.2358,"pop":0},{"id":1731761,"name":"Akbual","lon":125.34139,"lat":5.86528,"pop":0},{"id":7427058,"name":"Akey","lon":120.85604,"lat":16.63438,"pop":0},{"id":7427047,"name":"Akiki","lon":120.88184,"lat":16.60938,"pop":0},{"id":7621083,"name":"Aklan","lon":121.4774,"lat":16.5569,"pop":0},{"id":1731757,"name":"Akle","alt":["Acle"],"lon":121.0733,"lat":15.0482,"pop":3381},{"id":7430515,"name":"Akli","lon":120.5445,"lat":14.9306,"pop":0},{"id":7426992,"name":"Akmi","lon":120.79894,"lat":16.74217,"pop":0},{"id":7426994,"name":"Akmi","lon":120.80624,"lat":16.72957,"pop":0},{"id":7638476,"name":"Aknib","lon":120.83,"lat":16.4787,"pop":0},{"id":1731756,"name":"Akot","alt":["Akol"],"lon":124.16917,"lat":6.265,"pop":0},{"id":1731705,"name":"Al-alinao Norte","alt":["Alainao Norte"],"lon":120.41667,"lat":16.51667,"pop":0},{"id":1731704,"name":"Al-alinao Sur","alt":["Al-Alinao Sur","Alainao Sur"],"lon":120.4246,"lat":16.4965,"pop":0},{"id":1731703,"name":"Al-Alutin","alt":["Alallutan"],"lon":120.5721,"lat":17.8958,"pop":0},{"id":1731350,"name":"Al-langigan","lon":120.694,"lat":18.3777,"pop":0},{"id":1731342,"name":"Al-lay","lon":120.68333,"lat":16.61667,"pop":0},{"id":1731714,"name":"Ala","alt":["Alah"],"lon":124.5659,"lat":6.67981,"pop":0},{"id":1731755,"name":"Alab","lon":120.9396,"lat":17.058,"pop":0},{"id":10226985,"name":"Alab Oriente","lon":120.94849,"lat":17.06737,"pop":0},{"id":1731754,"name":"Alabaan","lon":120.6822,"lat":18.036,"pop":0},{"id":1731752,"name":"Alabang","lon":121.04833,"lat":14.41694,"pop":0},{"id":1906876,"name":"Alabang Hills Village","lon":121.03472,"lat":14.435,"pop":0},{"id":7639585,"name":"Alabang Puro","lon":123.48653,"lat":13.04861,"pop":0},{"id":1731749,"name":"Alabat","lon":122.0125,"lat":14.101,"pop":7910},{"id":1731744,"name":"Alabel","lon":125.29048,"lat":6.10179,"pop":43312},{"id":1731743,"name":"Alabiao","lon":121.481,"lat":17.74606,"pop":0},{"id":1731742,"name":"Alabidhan","alt":["Alabidham"],"lon":123.0106,"lat":11.3354,"pop":0},{"id":1731740,"name":"Alabug","alt":["Alabog","Alabug East"],"lon":121.46773,"lat":17.73261,"pop":3075},{"id":7418062,"name":"Alabug West","lon":121.46715,"lat":17.73541,"pop":0},{"id":1731738,"name":"Alac","lon":120.8065,"lat":15.9877,"pop":3430},{"id":1731739,"name":"Alac","lon":122.9834,"lat":10.4736,"pop":0},{"id":1731737,"name":"Alacaac","lon":121.18333,"lat":15.31667,"pop":0},{"id":1731735,"name":"Alacan","lon":120.427,"lat":16.1623,"pop":0},{"id":1731736,"name":"Alacan","lon":120.40974,"lat":15.91232,"pop":0},{"id":1731732,"name":"Alacaygan","lon":123.0827,"lat":10.86324,"pop":0},{"id":1731733,"name":"Alacaygan","lon":123.0583,"lat":10.84014,"pop":2598},{"id":1731729,"name":"Alad","lon":121.0822,"lat":13.3679,"pop":0},{"id":1731730,"name":"Alad","lon":122.24751,"lat":12.61682,"pop":2543},{"id":1731726,"name":"Alae","alt":["Alai"],"lon":124.81278,"lat":8.42444,"pop":5121},{"id":1731723,"name":"Alagan","lon":124.32306,"lat":7.08528,"pop":0},{"id":1731720,"name":"Alagao","lon":120.96658,"lat":13.80864,"pop":0},{"id":1731721,"name":"Alagao","lon":120.2805,"lat":11.9933,"pop":0},{"id":7620790,"name":"Alagao","lon":121.0443,"lat":15.0516,"pop":0},{"id":1731719,"name":"Alagingay","lon":122.8961,"lat":11.253,"pop":0},{"id":7415541,"name":"Alaguia","lon":121.63568,"lat":18.15522,"pop":0},{"id":1731716,"name":"Alaguisoc","lon":122.56667,"lat":10.66667,"pop":0},{"id":1731715,"name":"Alah","alt":["Alah Valley"],"lon":124.77197,"lat":6.1964,"pop":0},{"id":1731712,"name":"Alah Valley","alt":["Allah Valley"],"lon":124.6679,"lat":6.45855,"pop":0},{"id":7419329,"name":"Alahag","lon":122.62871,"lat":12.44343,"pop":0},{"id":1731710,"name":"Alajag","alt":["Alahag"],"lon":124.81667,"lat":11.18333,"pop":0},{"id":1731708,"name":"Alakaygan","alt":["Alacaygan"],"lon":122.8,"lat":11,"pop":0},{"id":1906831,"name":"Alala Village","lon":121.01056,"lat":14.54694,"pop":0},{"id":1731707,"name":"Alalay","lon":120.55,"lat":15.85,"pop":0},{"id":7609344,"name":"Alalay Chica","lon":120.8858,"lat":15.8447,"pop":0},{"id":1731706,"name":"Alalay Grande","lon":120.873,"lat":15.8477,"pop":0},{"id":1731701,"name":"Alaludig","alt":["Al-Aluding"],"lon":120.4694,"lat":17.2679,"pop":0},{"id":1731702,"name":"Alaludig","alt":["Maludig"],"lon":120.7002,"lat":17.4961,"pop":0},{"id":1731696,"name":"Alam","lon":121.42531,"lat":18.27854,"pop":0},{"id":1731694,"name":"Alamada","lon":124.56667,"lat":7.33333,"pop":4987},{"id":1731693,"name":"Alamao","lon":124.38333,"lat":7.33333,"pop":0},{"id":1731692,"name":"Alambijud","alt":["Alambihud","Alambijod"],"lon":123.52382,"lat":9.94855,"pop":0},{"id":1731690,"name":"Alambre","lon":125.46861,"lat":7.06417,"pop":0},{"id":1731685,"name":"Alaminos","alt":["Alaminos Lakanbalen","Alaminos de Pangasinan","Alaminos de Pangasinán","Aliminos","Kota Alaminos","alamynas  pangasynan","alamynws  pangasynan","الامیناس، پانگاسینان","الامینوس، پانگاسینان"],"lon":119.98111,"lat":16.15611,"pop":10488},{"id":1731686,"name":"Alaminos","lon":121.24649,"lat":14.06391,"pop":31427},{"id":1731687,"name":"Alaminos","lon":122.2727,"lat":11.5513,"pop":0},{"id":1731683,"name":"Alamog","alt":["Alamag"],"lon":125.52667,"lat":11.35806,"pop":0},{"id":1731681,"name":"Alang","lon":120.88333,"lat":16.21667,"pop":0},{"id":1731682,"name":"Alang","lon":120.9,"lat":16.2,"pop":0},{"id":8304877,"name":"Alang","lon":124.5108,"lat":12.0979,"pop":0},{"id":1731677,"name":"Alang Alang","lon":123.93333,"lat":10.33333,"pop":0},{"id":1731679,"name":"Alang-Alang","lon":125.4344,"lat":9.7868,"pop":0},{"id":1958504,"name":"Alang-dang","lon":123.5857,"lat":7.9369,"pop":0},{"id":1731676,"name":"Alangalang","lon":124.84667,"lat":11.20611,"pop":8096},{"id":1731678,"name":"Alangalang","lon":125.2865,"lat":9.914,"pop":0},{"id":1731673,"name":"Alangan","lon":120.38257,"lat":17.67754,"pop":0},{"id":1731675,"name":"Alangan","lon":124.21667,"lat":7.15,"pop":0},{"id":1731722,"name":"Alangan","alt":["Alagan"],"lon":120.6025,"lat":14.53861,"pop":0},{"id":1731674,"name":"Alañgan","alt":["Alangan"],"lon":122.03333,"lat":10.78333,"pop":0},{"id":1731671,"name":"Alangasil","alt":["Alangasel"],"lon":123.3464,"lat":9.7656,"pop":0},{"id":1731666,"name":"Alanggilan","alt":["Alangilan"],"lon":122.1184,"lat":13.812,"pop":0},{"id":7618826,"name":"Alangigan","lon":121.47524,"lat":17.12344,"pop":0},{"id":1731667,"name":"Alangilan","lon":121.0687,"lat":13.7822,"pop":0},{"id":1731668,"name":"Alangilan","lon":125,"lat":10.75,"pop":0},{"id":1731669,"name":"Alangilan","alt":["Alangilang"],"lon":122.8789,"lat":9.2793,"pop":4613},{"id":1731670,"name":"Alangilan","lon":124.7452,"lat":9.1019,"pop":0},{"id":7758314,"name":"Alangilan","lon":120.8846,"lat":14.40001,"pop":0},{"id":1731665,"name":"Alangilanan","lon":123.1059,"lat":9.642,"pop":2365},{"id":7415893,"name":"Alangilangon","lon":123.1079,"lat":9.652,"pop":0},{"id":1731661,"name":"Alanib","lon":124.98611,"lat":8.02778,"pop":4207},{"id":1731659,"name":"Alanjin","alt":["Alangan","Alanjino"],"lon":120.36667,"lat":17.68333,"pop":0},{"id":1731658,"name":"Alannay","alt":["Launay"],"lon":121.58616,"lat":18.06114,"pop":2128},{"id":1731294,"name":"Alanogan","alt":["Alonogan"],"lon":121.24794,"lat":17.09585,"pop":0},{"id":1731656,"name":"Alao-ao","lon":120.7206,"lat":18.487,"pop":0},{"id":1731657,"name":"Alaoa","lon":120.82325,"lat":17.75448,"pop":0},{"id":1731652,"name":"Alapan","alt":["Alapan I","Alapan Primero"],"lon":120.91968,"lat":14.41394,"pop":0},{"id":1731651,"name":"Alapan II","alt":["Alapan Segundo"],"lon":120.91537,"lat":14.42239,"pop":0},{"id":1731653,"name":"Alapang","lon":120.58333,"lat":16.46667,"pop":0},{"id":7428293,"name":"Alapang","lon":120.6357,"lat":16.5747,"pop":0},{"id":1731650,"name":"Alapasco","lon":123.05,"lat":11.43333,"pop":0},{"id":1731647,"name":"Alas","alt":["Alasas"],"lon":123.31751,"lat":12.22305,"pop":0},{"id":7625804,"name":"Alas-Asin","lon":121.4221,"lat":14.5816,"pop":0},{"id":8304898,"name":"Alas-os","lon":124.5123,"lat":12.1383,"pop":0},{"id":1731646,"name":"Alasaguing","alt":["Alasaguin"],"lon":122.9178,"lat":11.3728,"pop":0},{"id":1731645,"name":"Alasas","lon":122.28411,"lat":11.4937,"pop":0},{"id":7454522,"name":"Alasas","lon":120.64416,"lat":15.06602,"pop":0},{"id":1731644,"name":"Alasasin","lon":120.5613,"lat":14.4266,"pop":0},{"id":1731630,"name":"Alauihao","alt":["Alawijao"],"lon":123.3742,"lat":9.8254,"pop":0},{"id":1731639,"name":"Alauihao","lon":123.4394,"lat":10.62725,"pop":0},{"id":1731638,"name":"Alauli","lon":120.70759,"lat":14.86174,"pop":0},{"id":1731699,"name":"Alaum","alt":["Alalum"],"lon":121.0296,"lat":13.8236,"pop":0},{"id":1731637,"name":"Alava","lon":120.51611,"lat":16.16167,"pop":0},{"id":1707087,"name":"Alawang","alt":["Lauang","Luuag"],"lon":121.0571,"lat":14.9008,"pop":0},{"id":1731633,"name":"Alawihao","alt":["Alauihao"],"lon":123.03333,"lat":11.25,"pop":0},{"id":1731634,"name":"Alawihao","alt":["Alauihao"],"lon":123.1567,"lat":9.7099,"pop":0},{"id":8238745,"name":"Alawihao","lon":123.39832,"lat":9.84261,"pop":0},{"id":8238746,"name":"Alawihao","lon":123.40782,"lat":9.86598,"pop":0},{"id":1731632,"name":"Alawihaw","alt":["Alauihao","Alawihao"],"lon":122.9301,"lat":14.1106,"pop":0},{"id":7430048,"name":"Alawitia","lon":123.0033,"lat":11.2771,"pop":0},{"id":7625850,"name":"Alay","lon":120.5322,"lat":17.9093,"pop":0},{"id":1731629,"name":"Alayan","lon":121.43333,"lat":16.31667,"pop":0},{"id":1731628,"name":"Alayao","lon":122.5524,"lat":14.2818,"pop":2406},{"id":1731625,"name":"Alayo","lon":120.76667,"lat":17.45,"pop":0},{"id":1731624,"name":"Alayonan","alt":["Alayunan"],"lon":122.8147,"lat":11.3844,"pop":0},{"id":1731623,"name":"Alba","lon":126.13194,"lat":8.96944,"pop":0},{"id":7424000,"name":"Alba","lon":121.89125,"lat":17.97019,"pop":0},{"id":8655560,"name":"Alba Subdivision","lon":120.87896,"lat":14.43682,"pop":0},{"id":1731620,"name":"Albalate","lon":124.91167,"lat":11.8475,"pop":0},{"id":1731613,"name":"Albian","lon":120.65983,"lat":16.28233,"pop":0},{"id":1731612,"name":"Albiga","lon":123.088,"lat":9.0657,"pop":0},{"id":1731608,"name":"Albuera","alt":["Albuara"],"lon":124.6945,"lat":10.9158,"pop":4968},{"id":1731607,"name":"Album","lon":120.45,"lat":14.75,"pop":0},{"id":1731606,"name":"Albuna","lon":125.815,"lat":8.07056,"pop":0},{"id":1731604,"name":"Alburquerque","alt":["Albuquerque","Alburqerque","albwrkwyrk  bhlwl","البورکویرک، بهلول"],"lon":123.95806,"lat":9.60806,"pop":2730},{"id":1731597,"name":"Alcala","alt":["Acala"],"lon":121.65595,"lat":17.9021,"pop":4667},{"id":1731598,"name":"Alcala","lon":120.52417,"lat":15.84722,"pop":8883},{"id":1731599,"name":"Alcala","lon":123.71667,"lat":13.15,"pop":0},{"id":7600704,"name":"Alcala","lon":120.3858,"lat":16.8473,"pop":0},{"id":7600705,"name":"Alcala","lon":120.3772,"lat":16.8442,"pop":0},{"id":7625722,"name":"Alcala","lon":121.4996,"lat":15.8096,"pop":0},{"id":1731592,"name":"Alcantara","alt":["alkantara  ramblan","الکانتارا، رامبلان"],"lon":122.0544,"lat":12.2589,"pop":2251},{"id":1731593,"name":"Alcantara","lon":122.86667,"lat":11.23333,"pop":0},{"id":1731594,"name":"Alcantara","lon":123.40611,"lat":9.97556,"pop":4447},{"id":1731588,"name":"Alcoba","lon":120.82139,"lat":11.01,"pop":0},{"id":1731586,"name":"Alcoy","lon":123.5067,"lat":9.7102,"pop":3015},{"id":1958350,"name":"Alcoy","lon":123.58111,"lat":9.87083,"pop":0},{"id":1731585,"name":"Ale","lon":125.35,"lat":7.75,"pop":0},{"id":1731583,"name":"Alegles","alt":["Aleges"],"lon":122.1802,"lat":10.8902,"pop":0},{"id":1731577,"name":"Alegre","lon":122.1117,"lat":11.5388,"pop":0},{"id":1731578,"name":"Alegre","lon":122.08141,"lat":11.26642,"pop":0},{"id":1731579,"name":"Alegre","lon":125,"lat":10.93333,"pop":0},{"id":1731580,"name":"Alegre","lon":123.0547,"lat":10.783,"pop":0},{"id":1731581,"name":"Alegre","lon":122.5,"lat":10.68333,"pop":0},{"id":1731552,"name":"Alegria","lon":124.0909,"lat":12.8512,"pop":0},{"id":1731553,"name":"Alegria","lon":122.08092,"lat":12.82031,"pop":0},{"id":1731554,"name":"Alegria","lon":124.3261,"lat":12.3984,"pop":5811},{"id":1731555,"name":"Alegria","lon":121.37961,"lat":11.99547,"pop":0},{"id":1731556,"name":"Alegria","lon":121.88861,"lat":11.85128,"pop":0},{"id":1731557,"name":"Alegria","lon":124.0556,"lat":11.7846,"pop":0},{"id":1731558,"name":"Alegria","lon":124.9935,"lat":11.3746,"pop":0},{"id":1731559,"name":"Alegria","alt":["Alegeria"],"lon":124.59722,"lat":11.01139,"pop":0},{"id":1731560,"name":"Alegria","lon":122.65,"lat":10.98333,"pop":0},{"id":1731561,"name":"Alegria","lon":124.95,"lat":10.93333,"pop":0},{"id":1731562,"name":"Alegria","lon":122.13333,"lat":10.85,"pop":0},{"id":1731563,"name":"Alegria","alt":["Alegna"],"lon":123.8295,"lat":10.6869,"pop":0},{"id":1731564,"name":"Alegria","lon":123.0836,"lat":10.64345,"pop":2780},{"id":1731565,"name":"Alegria","lon":122.8466,"lat":10.516,"pop":0},{"id":1731566,"name":"Alegria","lon":122.6167,"lat":10.4469,"pop":0},{"id":1731567,"name":"Alegria","alt":["Algeria"],"lon":126.06889,"lat":10.05528,"pop":0},{"id":1731568,"name":"Alegria","lon":125.53056,"lat":9.88556,"pop":0},{"id":1731569,"name":"Alegria","lon":124.1332,"lat":9.8596,"pop":0},{"id":1731570,"name":"Alegria","lon":124.0313,"lat":9.8671,"pop":0},{"id":1731571,"name":"Alegria","lon":123.3398,"lat":9.7289,"pop":2539},{"id":1731572,"name":"Alegria","alt":["Algeria"],"lon":125.57722,"lat":9.46694,"pop":5891},{"id":1731573,"name":"Alegria","lon":126.01194,"lat":8.50667,"pop":4578},{"id":1731574,"name":"Alegria","lon":123.73028,"lat":8.51694,"pop":0},{"id":1731582,"name":"Alegria","lon":123.8507,"lat":10.717,"pop":0},{"id":1957719,"name":"Alegria","lon":122.98944,"lat":7.52944,"pop":0},{"id":1958502,"name":"Alegria","lon":123.5677,"lat":7.9259,"pop":0},{"id":1958751,"name":"Alegria","lon":123.95827,"lat":10.25652,"pop":0},{"id":7470327,"name":"Alegria","lon":125.28886,"lat":6.15287,"pop":0},{"id":7491003,"name":"Alegria","lon":124.3746,"lat":10.1465,"pop":0},{"id":1731550,"name":"Alegria Norte","alt":["Alegria"],"lon":123.99249,"lat":9.61477,"pop":0},{"id":1731548,"name":"Alegria Sur","lon":123.99075,"lat":9.60597,"pop":0},{"id":1731547,"name":"Alejal","lon":125.66,"lat":7.38417,"pop":8075},{"id":1731545,"name":"Alejandro Pascual","alt":["San Pasual"],"lon":120.97406,"lat":15.70794,"pop":0},{"id":1731473,"name":"Alejawan","alt":["Alihawan","Alijauan","Alijawan"],"lon":124.4009,"lat":9.6826,"pop":0},{"id":1731544,"name":"Alejos","lon":124.81861,"lat":10.34583,"pop":0},{"id":8015585,"name":"Alem","lon":121.38555,"lat":18.24939,"pop":0},{"id":1731450,"name":"Alemanguan","alt":["Alimanguan"],"lon":119.3268,"lat":10.61177,"pop":3324},{"id":1730866,"name":"Alemania","alt":["Anapog","Anapog-Alemania"],"lon":124.1677,"lat":9.6205,"pop":0},{"id":1731542,"name":"Alemania","lon":120.6736,"lat":15.716,"pop":0},{"id":7618942,"name":"Alewakwak","lon":120.2453,"lat":15.9718,"pop":0},{"id":1731536,"name":"Alfonso","lon":120.61083,"lat":17.16944,"pop":0},{"id":1731537,"name":"Alfonso","alt":["Alfonzo","alfansw  kawyt","الفانسو، کاویت"],"lon":120.85389,"lat":14.14083,"pop":9446},{"id":7608784,"name":"Alfonso","lon":120.63773,"lat":15.33266,"pop":0},{"id":1731534,"name":"Alfonso Castañeda","alt":["Alfonso Castaneda"],"lon":121.3054,"lat":15.8006,"pop":0},{"id":1731532,"name":"Alfonso XII","alt":["Alfonso"],"lon":122.34041,"lat":11.4131,"pop":0},{"id":1731533,"name":"Alfonso XII","lon":122.33333,"lat":11.38333,"pop":0},{"id":1959386,"name":"Alga","lon":124.6825,"lat":9.12083,"pop":0},{"id":7419113,"name":"Algad","lon":121.7885,"lat":16.2422,"pop":0},{"id":1731531,"name":"Algeciras","lon":120.8168,"lat":11.4154,"pop":4007},{"id":1958480,"name":"Algeria","lon":123.4226,"lat":7.8978,"pop":0},{"id":1731530,"name":"Aliag","lon":122.73333,"lat":10.86667,"pop":0},{"id":1731527,"name":"Aliaga","alt":["Aliga"],"lon":120.44847,"lat":15.89055,"pop":0},{"id":1731528,"name":"Aliaga","alt":["Алиага"],"lon":120.843,"lat":15.5,"pop":34020},{"id":7618897,"name":"Aliaga","lon":121.0807,"lat":16.3824,"pop":0},{"id":1731525,"name":"Aliang","alt":["Allang"],"lon":120.88333,"lat":14.28333,"pop":2642},{"id":1731524,"name":"Aliangaw","lon":123.4,"lat":9.71667,"pop":0},{"id":1731522,"name":"Alianza","lon":123.1077,"lat":13.5519,"pop":0},{"id":1731521,"name":"Aliawan","lon":121.29274,"lat":17.11705,"pop":0},{"id":1731520,"name":"Alibadabad","lon":122.03333,"lat":17,"pop":0},{"id":1731518,"name":"Alibago","alt":["Villa Maria"],"lon":121.74331,"lat":17.57498,"pop":0},{"id":1731519,"name":"Alibago","alt":["Alibagu"],"lon":121.86667,"lat":17.11667,"pop":4446},{"id":7450052,"name":"Alibago","lon":120.39493,"lat":16.01188,"pop":0},{"id":1731516,"name":"Alibagon","alt":["Alibangon"],"lon":122.67591,"lat":12.35363,"pop":0},{"id":1731517,"name":"Alibagon","lon":122.2845,"lat":11.7335,"pop":0},{"id":1731515,"name":"Alibagu","alt":["Alibago"],"lon":121.85917,"lat":17.10044,"pop":0},{"id":1731512,"name":"Alibangbang","lon":120.43333,"lat":17.48333,"pop":0},{"id":8335513,"name":"Alibangbang","lon":121.1868,"lat":13.9369,"pop":0},{"id":1731511,"name":"Alibangsay","lon":120.43333,"lat":16.6,"pop":0},{"id":1731510,"name":"Alibasao","lon":123.127,"lat":10.60256,"pop":0},{"id":1731508,"name":"Alibayan","lon":125.18333,"lat":7.16667,"pop":0},{"id":1731507,"name":"Alibayog","lon":122.9971,"lat":11.256,"pop":0},{"id":1731506,"name":"Alibeng","alt":["Alibueng"],"lon":120.5944,"lat":16.1163,"pop":0},{"id":1731505,"name":"Alibijaban","lon":122.7167,"lat":13.3327,"pop":0},{"id":7603437,"name":"Alibjon","lon":122.5656,"lat":10.62296,"pop":0},{"id":1731503,"name":"Alibuag","lon":124.0817,"lat":13.6025,"pop":0},{"id":1731502,"name":"Alibug","alt":["Alibog"],"lon":121.22811,"lat":12.22906,"pop":2576},{"id":1731498,"name":"Alibunan","lon":122.45911,"lat":11.14652,"pop":2798},{"id":1731496,"name":"Alibunbungan","alt":["Alibumbungan"],"lon":121.41667,"lat":14.13333,"pop":0},{"id":1731469,"name":"Alicad","alt":["Alikad"],"lon":121.60667,"lat":16.23694,"pop":0},{"id":1731494,"name":"Alicante","lon":123.0185,"lat":10.89704,"pop":8607},{"id":7416778,"name":"Alicante","lon":123.0057,"lat":10.2414,"pop":0},{"id":8468266,"name":"Alicaocao","lon":121.77393,"lat":16.94981,"pop":0},{"id":1731486,"name":"Alicia","alt":["alysya  ayzabla","الیسیا، ایزابلا"],"lon":121.69734,"lat":16.77936,"pop":24732},{"id":1731487,"name":"Alicia","alt":["Batuanan"],"lon":124.4422,"lat":9.8949,"pop":4415},{"id":1731488,"name":"Alicia","alt":["Chinkang","Chinkiang","Naga-Naga","Naganga"],"lon":122.93,"lat":7.51389,"pop":3306},{"id":7091093,"name":"Alicia","lon":121.0208,"lat":14.665,"pop":0},{"id":7419263,"name":"Alicia","lon":121.5298,"lat":16.364,"pop":0},{"id":1731485,"name":"Alicomoban","lon":124.78722,"lat":8.94139,"pop":0},{"id":1731482,"name":"Alige","lon":120.43333,"lat":15.83333,"pop":0},{"id":1731479,"name":"Aliguay","lon":123.83333,"lat":10.73333,"pop":0},{"id":1731480,"name":"Aliguay","alt":["Aligway"],"lon":124.4423,"lat":9.8276,"pop":0},{"id":1731481,"name":"Aliguay","alt":["Aliquay"],"lon":123.86562,"lat":9.74327,"pop":0},{"id":1731478,"name":"Aliguayan","lon":121.53472,"lat":14.13667,"pop":0},{"id":1731477,"name":"Aliguian","lon":121.55056,"lat":14.11639,"pop":0},{"id":1731474,"name":"Alijauan","alt":["Alihawan"],"lon":124.35,"lat":9.66667,"pop":0},{"id":8301231,"name":"Aliji","lon":122.5278,"lat":13.9688,"pop":0},{"id":1731472,"name":"Alijis","lon":122.8348,"lat":10.4583,"pop":2132},{"id":1731470,"name":"Alijogan","lon":121.81667,"lat":13.41667,"pop":0},{"id":1731468,"name":"Alilao","lon":119.8804,"lat":15.9808,"pop":0},{"id":1731466,"name":"Alilem","lon":120.5304,"lat":16.8861,"pop":0},{"id":1731465,"name":"Alilintao","lon":121.2125,"lat":17.9706,"pop":0},{"id":1731464,"name":"Alilinu","lon":121.6638,"lat":18.2938,"pop":0},{"id":1731463,"name":"Alilio","lon":121.53844,"lat":14.12259,"pop":0},{"id":8534263,"name":"Aliliw","lon":121.5642,"lat":14.1383,"pop":0},{"id":1731461,"name":"Alim","lon":122.4876,"lat":9.5649,"pop":3732},{"id":1731460,"name":"Alima","lon":120.93403,"lat":14.45722,"pop":0},{"id":1731449,"name":"Alimanao","alt":["Alimannao"],"lon":121.76521,"lat":17.64157,"pop":0},{"id":1731455,"name":"Alimango","lon":122.0392,"lat":12.2205,"pop":0},{"id":1731456,"name":"Alimango","lon":123.5211,"lat":10.834,"pop":0},{"id":1731457,"name":"Alimañgo","alt":["Alimango"],"lon":123.6361,"lat":9.2856,"pop":0},{"id":1731448,"name":"Alimawan","lon":121.26261,"lat":12.26695,"pop":0},{"id":1731446,"name":"Alimit","lon":121.24044,"lat":16.89806,"pop":0},{"id":7618864,"name":"Alimit","lon":121.4454,"lat":16.301,"pop":0},{"id":1731443,"name":"Alimoan","alt":["Aliman"],"lon":121.10055,"lat":18.57847,"pop":0},{"id":1731441,"name":"Alimodian","lon":122.43111,"lat":10.82139,"pop":7302},{"id":1731440,"name":"Alimoneng","lon":120.8,"lat":16.05,"pop":0},{"id":1731439,"name":"Alimono","lon":122.7129,"lat":11.1855,"pop":2708},{"id":1731437,"name":"Alimosgan","lon":120.73333,"lat":17.68333,"pop":0},{"id":1731432,"name":"Alimsog","lon":123.85,"lat":13.23333,"pop":0},{"id":7427996,"name":"Alimudong","lon":120.6598,"lat":17.6587,"pop":0},{"id":1731430,"name":"Alin","lon":123.5328,"lat":12.9877,"pop":0},{"id":7522590,"name":"Alinam","lon":121.75634,"lat":16.85496,"pop":0},{"id":1731427,"name":"Alinao","lon":122.8652,"lat":14.1169,"pop":0},{"id":1731425,"name":"Alinasan","alt":["Alinasa"],"lon":121.04493,"lat":18.25418,"pop":0},{"id":1731424,"name":"Alinawan","alt":["Alinauan","Aliniwan"],"lon":124.3282,"lat":13.9105,"pop":0},{"id":1731422,"name":"Alincaoeg","lon":120.46219,"lat":17.13963,"pop":0},{"id":1731421,"name":"Alinea","lon":121.13333,"lat":15.43333,"pop":0},{"id":1731420,"name":"Alingadyon","lon":122.4943,"lat":9.6045,"pop":0},{"id":1731418,"name":"Alingag","lon":121.1995,"lat":17.495,"pop":0},{"id":1731417,"name":"Alingaro","lon":120.90594,"lat":14.25188,"pop":0},{"id":1731416,"name":"Alingarog","alt":["Aliagaro"],"lon":125.70639,"lat":11.05972,"pop":0},{"id":7427139,"name":"Alingay","lon":120.79474,"lat":16.59038,"pop":0},{"id":7616850,"name":"Alinggan","alt":["Alingan"],"lon":120.41293,"lat":15.83329,"pop":0},{"id":7422047,"name":"Alinguigan III","lon":121.91624,"lat":17.12244,"pop":0},{"id":1731412,"name":"Alinsolong","lon":124.1,"lat":11.48333,"pop":0},{"id":7430726,"name":"Alinsolong","lon":123.1441,"lat":11.3857,"pop":0},{"id":7430727,"name":"Alinsolong","lon":123.1429,"lat":11.4024,"pop":0},{"id":1731411,"name":"Alinta","lon":121.43255,"lat":17.57582,"pop":0},{"id":1731410,"name":"Alinunu","lon":121.45428,"lat":18.43454,"pop":0},{"id":1731407,"name":"Alioecoec","lon":120.23333,"lat":16.01667,"pop":0},{"id":7622451,"name":"Alion","alt":["Aleon"],"lon":120.56748,"lat":14.48937,"pop":0},{"id":1731406,"name":"Alip","lon":124.85167,"lat":6.745,"pop":0},{"id":7450217,"name":"Alipang","lon":120.48017,"lat":16.23658,"pop":0},{"id":7426924,"name":"Alipangpang North","lon":120.556,"lat":16.1074,"pop":0},{"id":1731405,"name":"Alipangpang South","alt":["Alipangan","Alipangang","Alipangpang"],"lon":120.5588,"lat":16.1035,"pop":0},{"id":7566192,"name":"Alipanto","lon":119.7749,"lat":16.0837,"pop":0},{"id":1731404,"name":"Alipao","lon":125.5816,"lat":9.502,"pop":0},{"id":1731403,"name":"Alipaoy","lon":120.47667,"lat":13.43806,"pop":0},{"id":1731401,"name":"Alipasapas","lon":120.71667,"lat":17.58333,"pop":0},{"id":1731399,"name":"Alipasiowan","alt":["Alipaciauan","Alipasiauan","Alipasiawan"],"lon":122.6635,"lat":11.2892,"pop":0},{"id":1731398,"name":"Alipato","lon":123.25472,"lat":11.43889,"pop":0},{"id":1731397,"name":"Alipion","lon":123.03333,"lat":10.31667,"pop":0},{"id":1731394,"name":"Alipit","lon":121.4141,"lat":14.2217,"pop":0},{"id":7419140,"name":"Aliplo","lon":122.6199,"lat":11.4117,"pop":0},{"id":7427679,"name":"Alipoon","lon":120.7096,"lat":17.4679,"pop":0},{"id":1731391,"name":"Alipuaton","lon":124.81056,"lat":8.85472,"pop":0},{"id":1731390,"name":"Aliputos","lon":122.31667,"lat":11.7,"pop":0},{"id":7541783,"name":"Alishiaw","lon":124.6936,"lat":12.5125,"pop":0},{"id":1731388,"name":"Alisit","lon":121.08333,"lat":18.1,"pop":0},{"id":1731387,"name":"Alisoso","lon":123.715,"lat":12.5633,"pop":0},{"id":1731382,"name":"Alitagtag","lon":121.0041,"lat":13.8645,"pop":3960},{"id":7393772,"name":"Alitagtay","lon":121.0292,"lat":13.8684,"pop":0},{"id":1731380,"name":"Alitao","lon":121.5685,"lat":14.0399,"pop":0},{"id":1731378,"name":"Alitap","alt":["Alipat"],"lon":121.76222,"lat":14.12667,"pop":0},{"id":1731379,"name":"Alitap","lon":121.2749,"lat":13.5985,"pop":0},{"id":1731377,"name":"Alitas","alt":["Alitasy"],"lon":121.65729,"lat":14.71274,"pop":0},{"id":1731375,"name":"Alitaya","lon":120.39213,"lat":16.03198,"pop":0},{"id":1731374,"name":"Alitaytay","lon":121.12361,"lat":12.42644,"pop":0},{"id":1731373,"name":"Alitazan","lon":123.7849,"lat":8.3863,"pop":0},{"id":1731372,"name":"Alitock","lon":121.75,"lat":14.13333,"pop":0},{"id":1731371,"name":"Alitongtong","lon":121.85575,"lat":17.69131,"pop":0},{"id":1731369,"name":"Alitungan","lon":120.7919,"lat":13.2423,"pop":0},{"id":8477185,"name":"Alitungtung","lon":121.68721,"lat":17.83716,"pop":0},{"id":1731367,"name":"Aliuagon","alt":["Aliaugon"],"lon":121.05,"lat":16.61667,"pop":0},{"id":1731364,"name":"Aliuniun","lon":121.1,"lat":18.18333,"pop":0},{"id":1731363,"name":"Aliwanay","lon":123.7154,"lat":10.49776,"pop":0},{"id":1731362,"name":"Aliwe","lon":122.73333,"lat":10.91667,"pop":0},{"id":1731361,"name":"Alkuino","lon":124.811,"lat":10.6981,"pop":0},{"id":1731360,"name":"Allabon","lon":119.8055,"lat":15.9743,"pop":0},{"id":1731358,"name":"Allacapan","lon":121.55615,"lat":18.22598,"pop":3645},{"id":1731357,"name":"Allaguia","lon":121.36667,"lat":17.58333,"pop":0},{"id":1731354,"name":"Allang","alt":["Aliang"],"lon":123.46773,"lat":13.20076,"pop":0},{"id":1731351,"name":"Allangigan","lon":120.68333,"lat":18.35,"pop":0},{"id":1731352,"name":"Allangigan","lon":120.5743,"lat":18.0336,"pop":0},{"id":1731353,"name":"Allangigan","alt":["Al-langigan"],"lon":120.33333,"lat":16.66667,"pop":0},{"id":1731662,"name":"Allangigan","alt":["Alanguigan","Alinguigan"],"lon":121.71333,"lat":16.74114,"pop":0},{"id":8467494,"name":"Allangigan","lon":121.37994,"lat":17.79602,"pop":0},{"id":1731349,"name":"Allangigan Primero","alt":["Allangigan"],"lon":120.49195,"lat":17.17393,"pop":2219},{"id":1731348,"name":"Allangigan Segundo","alt":["Allangigan"],"lon":120.49191,"lat":17.17089,"pop":0},{"id":1731347,"name":"Allappangan","lon":121.36667,"lat":18.48333,"pop":0},{"id":1731345,"name":"Allasitan","alt":["Alassitan","Allassitan","Allissitan"],"lon":121.33385,"lat":18.50139,"pop":0},{"id":1731343,"name":"Allauan","lon":121.0762,"lat":16.2995,"pop":0},{"id":1731344,"name":"Allavan","alt":["Allauan"],"lon":121.0405,"lat":16.2772,"pop":0},{"id":1731340,"name":"Allen","alt":["La Granja","Minapa-a"],"lon":124.2849,"lat":12.5006,"pop":7502},{"id":8301035,"name":"Allig","lon":121.4374,"lat":18.1919,"pop":0},{"id":1731413,"name":"Allinguigan First","alt":["Alinguigan","Alinguigan I"],"lon":121.93034,"lat":17.12454,"pop":0},{"id":7410709,"name":"Allotan","lon":122.10395,"lat":18.35777,"pop":0},{"id":1731331,"name":"Alloy","lon":121.3,"lat":16.31667,"pop":0},{"id":7599367,"name":"Allyang","lon":120.4613,"lat":16.3265,"pop":0},{"id":1731327,"name":"Almacen","lon":121.8,"lat":17.28333,"pop":0},{"id":1731328,"name":"Almacen","alt":["Almacon"],"lon":120.52981,"lat":14.85136,"pop":0},{"id":1731330,"name":"Almacen","lon":121.99468,"lat":13.86405,"pop":0},{"id":1731324,"name":"Almagro","lon":124.2858,"lat":11.9109,"pop":0},{"id":1731321,"name":"Almaguer North","alt":["Almaguer"],"lon":121.0926,"lat":16.3497,"pop":3368},{"id":7630425,"name":"Almaguer South","lon":121.092,"lat":16.347,"pop":0},{"id":1891941,"name":"Alman","alt":["Aman"],"lon":122.52262,"lat":10.41245,"pop":0},{"id":1731319,"name":"Almanza","lon":120.98333,"lat":14.48333,"pop":0},{"id":7391135,"name":"Almanza Uno","lon":121.02174,"lat":14.42262,"pop":0},{"id":8031381,"name":"Almao","lon":121.347,"lat":17.3962,"pop":0},{"id":1731318,"name":"Almarco","lon":124.3987,"lat":11.0833,"pop":0},{"id":1731316,"name":"Almendras","lon":120.6411,"lat":15.55789,"pop":0},{"id":1731317,"name":"Almendras","lon":120.69873,"lat":15.27576,"pop":2626},{"id":7599787,"name":"Almenras","lon":120.6405,"lat":15.54361,"pop":0},{"id":1731314,"name":"Almeria","alt":["Almenia"],"lon":124.38167,"lat":11.62028,"pop":2960},{"id":1731320,"name":"Almon Sur","alt":["Ahnan","Alman","Alman Sur"],"lon":122.5235,"lat":10.4099,"pop":0},{"id":1732004,"name":"Alno","alt":["Agno"],"lon":120.59607,"lat":16.4846,"pop":0},{"id":1731312,"name":"Alo","lon":123.3951,"lat":9.4907,"pop":0},{"id":1730445,"name":"Aloang","alt":["Aoang"],"lon":120.75486,"lat":18.08176,"pop":0},{"id":1731310,"name":"Alobilod","alt":["Alobijod"],"lon":122.5177,"lat":10.53457,"pop":0},{"id":1731309,"name":"Alobo","lon":122.0965,"lat":13.4741,"pop":0},{"id":1731302,"name":"Aloguinsan","alt":["Aloquinsan"],"lon":123.5483,"lat":10.2219,"pop":2721},{"id":7443315,"name":"Aloja","lon":124.1102,"lat":9.8358,"pop":0},{"id":1731300,"name":"Alojipan","alt":["Alejipan"],"lon":122.11251,"lat":11.40901,"pop":0},{"id":1731298,"name":"Aloleng","lon":119.7824,"lat":16.1307,"pop":2388},{"id":1731297,"name":"Alomatagnipa","lon":120.88333,"lat":5.98333,"pop":0},{"id":1731296,"name":"Aloneros","alt":["Alunero"],"lon":122.3698,"lat":13.9918,"pop":0},{"id":1731295,"name":"Alongongan","alt":["Algongan"],"lon":124.04551,"lat":11.84417,"pop":0},{"id":1731288,"name":"Aloran","lon":123.8176,"lat":8.4181,"pop":0},{"id":7426901,"name":"Alorgat","lon":120.504,"lat":16.0289,"pop":0},{"id":1731286,"name":"Alos","lon":119.9665,"lat":16.0985,"pop":0},{"id":7562425,"name":"Alosies","lon":119.9142,"lat":15.8998,"pop":0},{"id":7616196,"name":"Alow","lon":120.0763,"lat":15.287,"pop":0},{"id":1731539,"name":"Alpaco","alt":["Alfaco","Alpako"],"lon":123.6825,"lat":10.24378,"pop":2599},{"id":1731281,"name":"Alsem","lon":120.7257,"lat":18.2668,"pop":0},{"id":1731276,"name":"Altavas","lon":122.487,"lat":11.538,"pop":2736},{"id":1731274,"name":"Altavista","lon":124.78333,"lat":10.68333,"pop":0},{"id":1731275,"name":"Altavista","lon":124.4396,"lat":10.6491,"pop":0},{"id":1731273,"name":"Alteza","lon":122.965,"lat":13.7942,"pop":0},{"id":7622408,"name":"Altura","lon":120.63513,"lat":13.951,"pop":0},{"id":7405729,"name":"Altura Bata","lon":121.07392,"lat":14.12303,"pop":0},{"id":7405730,"name":"Altura Matanda","lon":121.06739,"lat":14.13757,"pop":0},{"id":1731264,"name":"Altura South","alt":["Altura"],"lon":121.08907,"lat":14.12887,"pop":0},{"id":1731262,"name":"Alu","lon":121,"lat":5.71667,"pop":0},{"id":1731258,"name":"Alu Buna","alt":["Ala Buna","Alu Ben'a","Alu Beñ'a","Alua Buna"],"lon":120.4483,"lat":6.1538,"pop":0},{"id":1731249,"name":"Alu Duyung","lon":120.8683,"lat":5.6756,"pop":0},{"id":1731291,"name":"Alu-on","alt":["Alo-on","Aloe"],"lon":124.23472,"lat":8.07167,"pop":0},{"id":1731259,"name":"Alua","lon":120.89433,"lat":15.31154,"pop":4943},{"id":1731256,"name":"Alubihon","lon":124.29639,"lat":8.29,"pop":0},{"id":1731254,"name":"Alubijid","alt":["Alubihid"],"lon":124.47361,"lat":8.57333,"pop":3320},{"id":1731257,"name":"Alubijid","alt":["Alubihid"],"lon":125.42583,"lat":8.96278,"pop":2700},{"id":7415699,"name":"Alucao","alt":["Alocao"],"lon":121.84501,"lat":18.21586,"pop":0},{"id":1731251,"name":"Aludaid","lon":120.33333,"lat":16.66667,"pop":0},{"id":1731250,"name":"Aludapdap","lon":120.87972,"lat":5.68222,"pop":0},{"id":1886773,"name":"Aluduyung","lon":120.86667,"lat":5.68333,"pop":0},{"id":1731248,"name":"Alugan","alt":["Alugon"],"lon":125.4808,"lat":12.2188,"pop":2131},{"id":1731247,"name":"Alugmawa","alt":["Alugmaua"],"lon":122.46667,"lat":11.11667,"pop":0},{"id":7420038,"name":"Alugug","lon":121.80375,"lat":17.41202,"pop":0},{"id":1731245,"name":"Alula","lon":120.8118,"lat":15.7173,"pop":0},{"id":1731299,"name":"Alulayag","alt":["Alolayag"],"lon":120.8797,"lat":5.96,"pop":0},{"id":1731243,"name":"Alulin","lon":120.764,"lat":16.9769,"pop":0},{"id":1731242,"name":"Alulod","alt":["Alulud"],"lon":120.88978,"lat":14.20765,"pop":0},{"id":1731241,"name":"Alum","lon":123.2537,"lat":10.1418,"pop":0},{"id":1731240,"name":"Alumani","lon":121.17574,"lat":18.0442,"pop":0},{"id":1731239,"name":"Alumbrado","lon":121.38333,"lat":14.13333,"pop":0},{"id":6569727,"name":"Aluna","lon":124.32361,"lat":8.465,"pop":0},{"id":8516214,"name":"Alunan","lon":121.60739,"lat":17.31071,"pop":0},{"id":1731237,"name":"Aluntayan","lon":121.4783,"lat":16.0754,"pop":0},{"id":1731236,"name":"Alunupan","lon":121.26667,"lat":17.08333,"pop":0},{"id":1731235,"name":"Alupat","lon":120.86667,"lat":16.28333,"pop":0},{"id":1731232,"name":"Alupay","lon":121.63333,"lat":14.16667,"pop":0},{"id":1731233,"name":"Alupay","lon":121.621,"lat":14.0566,"pop":0},{"id":1731234,"name":"Alupay","lon":121.30719,"lat":13.84696,"pop":3981},{"id":1731231,"name":"Alupaye","lon":121.6882,"lat":13.9371,"pop":0},{"id":1731229,"name":"Alupidian","lon":122.38333,"lat":10.68333,"pop":0},{"id":7564426,"name":"Alupihing","lon":119.9149,"lat":15.5255,"pop":0},{"id":1731227,"name":"Alupipey","alt":["Alupipeu"],"lon":121.4603,"lat":15.969,"pop":0},{"id":7575610,"name":"Alusiis","lon":120.0776,"lat":15.027,"pop":0},{"id":1731226,"name":"Alusiman","lon":122.9813,"lat":10.2244,"pop":0},{"id":7406938,"name":"Aluyan","lon":121.5081,"lat":12.5653,"pop":0},{"id":1731224,"name":"Aluyon","alt":["Aloyan","Aloyon","Aloyum","Aloyun","Aluyun"],"lon":121.96663,"lat":14.8805,"pop":0},{"id":1731222,"name":"Alvindia","lon":120.58333,"lat":15.5,"pop":0},{"id":8542251,"name":"Alvindia Segundo","alt":["Alvindia"],"lon":120.60644,"lat":15.54979,"pop":0},{"id":1731220,"name":"Alzate","lon":120.4089,"lat":16.909,"pop":0},{"id":1731221,"name":"Alzate","alt":["Alzateu"],"lon":120.76667,"lat":15.75,"pop":0},{"id":7616127,"name":"Am-am","lon":120.8381,"lat":16.9073,"pop":0},{"id":1731217,"name":"Amacalan","alt":["Amacalam","Amcalan"],"lon":120.43789,"lat":15.88813,"pop":0},{"id":1731218,"name":"Amacalan","alt":["Amacaran"],"lon":120.6112,"lat":15.5815,"pop":2693},{"id":1731215,"name":"Amacpecan","lon":120.45,"lat":15.78333,"pop":0},{"id":1731212,"name":"Amadeo","lon":120.92361,"lat":14.17056,"pop":16618},{"id":1731213,"name":"Amadeo","lon":124.22528,"lat":7.31333,"pop":0},{"id":1731206,"name":"Amaga","lon":122.1455,"lat":14.8262,"pop":0},{"id":1731207,"name":"Amaga","lon":121.42541,"lat":12.51424,"pop":0},{"id":1731208,"name":"Amaga","lon":122.6762,"lat":11.4295,"pop":0},{"id":1731209,"name":"Amaga","alt":["Omaga"],"lon":125.23333,"lat":10.31667,"pop":0},{"id":1731210,"name":"Amaga","lon":123.1925,"lat":9.9963,"pop":0},{"id":1731211,"name":"Amaga","lon":126.07028,"lat":8.53083,"pop":2230},{"id":11247229,"name":"Amaga","lon":125.11558,"lat":10.1831,"pop":0},{"id":1731203,"name":"Amagbagan","lon":120.49473,"lat":16.15843,"pop":0},{"id":1731204,"name":"Amagbagan","lon":120.5232,"lat":16.0914,"pop":2443},{"id":1731855,"name":"Amagna","lon":120.06667,"lat":15.06667,"pop":0},{"id":1731202,"name":"Amagusan","alt":["Magusan"],"lon":125.25583,"lat":10.26083,"pop":0},{"id":1731199,"name":"Amahit","lon":122.85,"lat":13.753,"pop":0},{"id":1731200,"name":"Amahit","lon":124.75472,"lat":11.28028,"pop":0},{"id":7418197,"name":"Amahit","lon":122.5347,"lat":10.9775,"pop":0},{"id":1731198,"name":"Amakalan","lon":120.03333,"lat":16.01667,"pop":0},{"id":1731034,"name":"Amalao","alt":["Amlao"],"lon":121.3134,"lat":17.3993,"pop":0},{"id":1731197,"name":"Amalbalan","lon":119.8695,"lat":15.9647,"pop":0},{"id":1731195,"name":"Amaling","lon":120.53333,"lat":16.11667,"pop":0},{"id":1731192,"name":"Amaloy","alt":["Amoyloi"],"lon":122.12333,"lat":6.44139,"pop":0},{"id":1731189,"name":"Amamaros","alt":["Amamarus"],"lon":122.6271,"lat":10.9165,"pop":0},{"id":7545093,"name":"Amambago","lon":125.0616,"lat":12.5492,"pop":0},{"id":1731188,"name":"Amambahag","lon":124.53611,"lat":11.66972,"pop":0},{"id":8304876,"name":"Amampacang","lon":124.5203,"lat":12.0951,"pop":0},{"id":8442813,"name":"Amamperez","lon":120.42386,"lat":15.83224,"pop":0},{"id":1731185,"name":"Amancoro","lon":120.27683,"lat":15.99804,"pop":0},{"id":8450492,"name":"Amancosiling Norte","lon":120.45632,"lat":15.77767,"pop":0},{"id":1731183,"name":"Amancosiling Sur","alt":["Amancosiling"],"lon":120.45729,"lat":15.77326,"pop":0},{"id":1731182,"name":"Amandangay","lon":124.88333,"lat":11.06667,"pop":0},{"id":1731180,"name":"Amandiego","lon":119.97118,"lat":16.13501,"pop":0},{"id":1731179,"name":"Amangbangan","alt":["Amang Bangan"],"lon":119.92009,"lat":16.16315,"pop":0},{"id":7599362,"name":"Amanlapay","lon":120.407,"lat":16.3361,"pop":0},{"id":1731176,"name":"Amanoaoac","lon":120.44966,"lat":16.00343,"pop":0},{"id":1731175,"name":"Amanparan","lon":120,"lat":15.76667,"pop":0},{"id":1731174,"name":"Amanperez","lon":120.53143,"lat":15.86796,"pop":0},{"id":1731173,"name":"Amansabina","alt":["Amansabino"],"lon":120.41504,"lat":16.04407,"pop":0},{"id":1731172,"name":"Amansec","alt":["Amansic"],"lon":120.42329,"lat":16.12308,"pop":0},{"id":8576956,"name":"Amante Subdivision","lon":121.05841,"lat":14.35903,"pop":0},{"id":1731169,"name":"Amanumbus","lon":124.7,"lat":7,"pop":0},{"id":1731170,"name":"Amanumbus","lon":124.7075,"lat":6.97722,"pop":0},{"id":1731167,"name":"Amarao","lon":120.48326,"lat":17.06067,"pop":0},{"id":1731166,"name":"Amarga","lon":120.5,"lat":17.33333,"pop":0},{"id":1731165,"name":"Amaronan","lon":120.8282,"lat":15.9674,"pop":0},{"id":1731163,"name":"Amas","lon":117.81417,"lat":8.77528,"pop":0},{"id":1731164,"name":"Amas","lon":124.98389,"lat":7.05694,"pop":6219},{"id":1979023,"name":"Amasion","lon":125.0075,"lat":7.04111,"pop":0},{"id":1731162,"name":"Amat","lon":123.3,"lat":13.4,"pop":0},{"id":1731161,"name":"Amatong","lon":122.04671,"lat":12.36129,"pop":0},{"id":1731159,"name":"Amatugan","lon":123.87083,"lat":10.67944,"pop":0},{"id":1731158,"name":"Amaya","lon":120.83218,"lat":14.38504,"pop":0},{"id":1731156,"name":"Amayong","lon":123.0684,"lat":11.3648,"pop":0},{"id":1731154,"name":"Ambabaay","lon":119.87965,"lat":16.1832,"pop":0},{"id":1731155,"name":"Ambabaay","lon":119.86667,"lat":16.16667,"pop":0},{"id":7429487,"name":"Ambabag","lon":121.10944,"lat":16.77787,"pop":0},{"id":1731152,"name":"Ambabu","lon":122.16667,"lat":17.01667,"pop":0},{"id":1731151,"name":"Ambacan","lon":124.06667,"lat":10.06667,"pop":0},{"id":1731149,"name":"Ambacon","lon":125.1821,"lat":10.4054,"pop":0},{"id":1731150,"name":"Ambacon","alt":["Ambakon"],"lon":125.62944,"lat":8.71278,"pop":0},{"id":1731148,"name":"Ambag","lon":121.08514,"lat":16.78207,"pop":0},{"id":7600712,"name":"Ambagat","lon":120.4608,"lat":16.786,"pop":0},{"id":1731140,"name":"Ambagiw","alt":["Ambaguio","Ambasio"],"lon":120.8447,"lat":17.1191,"pop":0},{"id":1731147,"name":"Ambago","lon":125.53333,"lat":8.95,"pop":0},{"id":1731146,"name":"Ambagon","alt":["Ambagan","Ambago"],"lon":125.50459,"lat":8.96211,"pop":0},{"id":1731144,"name":"Ambagsan","alt":["Ambagsang","Ambagsong"],"lon":120.6762,"lat":17.9471,"pop":0},{"id":1731143,"name":"Ambagsang","lon":120.68333,"lat":17.98333,"pop":0},{"id":1731141,"name":"Ambaguio","lon":121.01624,"lat":16.50738,"pop":0},{"id":1731138,"name":"Ambakan","lon":124.78333,"lat":10.68333,"pop":0},{"id":1731137,"name":"Ambakon","lon":125.58333,"lat":8.76667,"pop":0},{"id":7450233,"name":"Ambalangan Dalin","lon":120.48507,"lat":16.15024,"pop":0},{"id":1731135,"name":"Ambalatungan","alt":["Ambalatunga"],"lon":121.555,"lat":16.72528,"pop":0},{"id":1731134,"name":"Ambalayan","alt":["Ambalayat"],"lon":120.4935,"lat":16.92,"pop":0},{"id":1731131,"name":"Ambalingit","lon":120.88333,"lat":15.88333,"pop":0},{"id":1731132,"name":"Ambalingit","lon":120.37288,"lat":15.62672,"pop":0},{"id":1731130,"name":"Ambalite","lon":120.46667,"lat":16.3,"pop":0},{"id":1731129,"name":"Amballo","alt":["Ambalo"],"lon":121.3191,"lat":16.5728,"pop":0},{"id":1731127,"name":"Ambangan","lon":120.86667,"lat":16.36667,"pop":0},{"id":1731126,"name":"Ambangeg","alt":["Ambangig"],"lon":120.83564,"lat":16.52728,"pop":0},{"id":1731124,"name":"Ambangonan","alt":["Ambangunan"],"lon":120.4567,"lat":16.2938,"pop":0},{"id":1731122,"name":"Ambao","lon":125.2635,"lat":10.3323,"pop":0},{"id":1731121,"name":"Ambaracao Norte","lon":120.4,"lat":16.53333,"pop":0},{"id":1731120,"name":"Ambaracao Sur","lon":120.4,"lat":16.53333,"pop":0},{"id":1731119,"name":"Ambarihon","lon":122.31667,"lat":10.75,"pop":0},{"id":7621119,"name":"Ambasa","lon":121.14664,"lat":16.64447,"pop":0},{"id":7639074,"name":"Ambasa","lon":120.7545,"lat":16.0471,"pop":0},{"id":7428271,"name":"Ambasador","lon":120.6928,"lat":16.5031,"pop":0},{"id":7621044,"name":"Ambatali","lon":121.51476,"lat":16.83029,"pop":0},{"id":1732460,"name":"Ambatuan","alt":["Abbatuan"],"lon":122.04014,"lat":16.97275,"pop":0},{"id":7564420,"name":"Ambau","lon":119.9862,"lat":15.5304,"pop":0},{"id":7599384,"name":"Ambaute","lon":120.4764,"lat":16.2976,"pop":0},{"id":7427153,"name":"Ambayat","lon":120.78554,"lat":16.54728,"pop":0},{"id":1732537,"name":"Ambayat First","alt":["Aabayat","Ambeyet"],"lon":120.40877,"lat":15.77212,"pop":0},{"id":8442788,"name":"Ambayat Second","lon":120.39939,"lat":15.77126,"pop":0},{"id":7638475,"name":"Ambayek","lon":120.8295,"lat":16.4734,"pop":0},{"id":1731116,"name":"Ambayoan","lon":121.01804,"lat":17.00245,"pop":0},{"id":7427057,"name":"Ambekdet","lon":120.85794,"lat":16.63098,"pop":0},{"id":1731114,"name":"Ambilay","lon":122.762,"lat":11.3959,"pop":0},{"id":7607650,"name":"Ambiroman","lon":120.4841,"lat":17.8966,"pop":0},{"id":1731109,"name":"Ambitacay","lon":120.3803,"lat":16.3178,"pop":0},{"id":1731107,"name":"Ambito","lon":121.66274,"lat":17.15764,"pop":0},{"id":1731108,"name":"Ambito","lon":121.83333,"lat":17.05,"pop":0},{"id":1731104,"name":"Ambo","lon":123.63333,"lat":12.31667,"pop":0},{"id":7430055,"name":"Ambolang","lon":123.0311,"lat":11.2463,"pop":0},{"id":1731078,"name":"Ambolong","alt":["Ambulong"],"lon":122.05572,"lat":12.78281,"pop":0},{"id":1731081,"name":"Ambolong","alt":["Ambulong"],"lon":123.0757,"lat":11.2708,"pop":0},{"id":1731098,"name":"Ambolong","lon":120.13333,"lat":13.8,"pop":0},{"id":1731097,"name":"Ambonao","lon":120.37717,"lat":16.02411,"pop":0},{"id":1731095,"name":"Ambongdolan","lon":120.6285,"lat":16.5435,"pop":0},{"id":1731093,"name":"Amboyoan","lon":122.0858,"lat":10.5568,"pop":0},{"id":7428233,"name":"Ambuadia","lon":120.696,"lat":16.6214,"pop":0},{"id":1731092,"name":"Ambuan","lon":124.0333,"lat":9.814,"pop":0},{"id":1731103,"name":"Ambucao","alt":["Ambocao"],"lon":120.4244,"lat":17.2968,"pop":0},{"id":1731090,"name":"Ambuclao","alt":["Ambuklao"],"lon":120.75,"lat":16.48333,"pop":2822},{"id":1731088,"name":"Ambudbod","lon":125.73194,"lat":7.53167,"pop":0},{"id":1731087,"name":"Ambuetel","alt":["Ambuete"],"lon":120.33932,"lat":15.98832,"pop":0},{"id":1731101,"name":"Ambugao","alt":["Ambogao"],"lon":121.38774,"lat":17.11294,"pop":0},{"id":1731085,"name":"Ambugat","lon":120.48333,"lat":17.33333,"pop":0},{"id":1731072,"name":"Ambuldan","alt":["Ambuludan"],"lon":124.65306,"lat":6.56806,"pop":0},{"id":1731077,"name":"Ambulong","lon":121.06127,"lat":14.08804,"pop":9074},{"id":1731079,"name":"Ambulong","lon":122.49357,"lat":12.48929,"pop":0},{"id":1731080,"name":"Ambulong","lon":121.02441,"lat":12.22036,"pop":0},{"id":1731099,"name":"Ambulong","alt":["Ambolong"],"lon":122.4987,"lat":11.5793,"pop":2195},{"id":7418231,"name":"Ambulong","lon":122.4937,"lat":10.9467,"pop":0},{"id":1731083,"name":"Ambulugan","alt":["Ambuiogan-Labuac","Ambulogan","Ambulosan"],"lon":120.4981,"lat":17.4727,"pop":0},{"id":1731069,"name":"Amdangle","lon":121.19234,"lat":16.78587,"pop":0},{"id":1731023,"name":"Amdingon","alt":["AmoiNgan","Amoingon"],"lon":121.8271,"lat":13.3974,"pop":0},{"id":1731066,"name":"Amdos","alt":["Amdus"],"lon":123.0972,"lat":9.8821,"pop":2247},{"id":1731067,"name":"Amduntog","lon":121.08464,"lat":16.72857,"pop":0},{"id":1708318,"name":"Amelong Labeng","alt":["Labbeng","Labeng"],"lon":120.9014,"lat":16.3158,"pop":0},{"id":1731065,"name":"America","lon":123.4,"lat":13.56667,"pop":0},{"id":1731064,"name":"Americahay","alt":["America"],"lon":124.95,"lat":10.9,"pop":0},{"id":1731063,"name":"Ames","lon":125.30306,"lat":6.72361,"pop":0},{"id":1730766,"name":"Amgaleyley","alt":["Angaleyguey"],"lon":120.81134,"lat":16.71647,"pop":0},{"id":1731062,"name":"Amganad","lon":121.07064,"lat":16.89066,"pop":0},{"id":1731061,"name":"Amgayang","alt":["Amgayan"],"lon":120.7255,"lat":16.9828,"pop":0},{"id":1731060,"name":"Amguhan","lon":124.78333,"lat":10.68333,"pop":0},{"id":1731059,"name":"Amguid","lon":120.45,"lat":17.2,"pop":0},{"id":7619050,"name":"Amianan","lon":120.11564,"lat":16.11591,"pop":0},{"id":1731056,"name":"Amica","lon":120.48333,"lat":16.48333,"pop":0},{"id":1731054,"name":"Amigos","lon":123.3128,"lat":10.9323,"pop":0},{"id":7091142,"name":"Amihan","lon":121.068,"lat":14.632,"pop":0},{"id":1731053,"name":"Amihanan","alt":["Annhanan"],"lon":121.2251,"lat":14.4205,"pop":0},{"id":1731052,"name":"Amiles","lon":123.138,"lat":10.0179,"pop":0},{"id":1731051,"name":"Amiligan","lon":122.81667,"lat":11.81667,"pop":0},{"id":1731050,"name":"Amilong","lon":120.88333,"lat":16.33333,"pop":0},{"id":1731049,"name":"Amilongan","alt":["Amilongon"],"lon":120.5792,"lat":16.8579,"pop":0},{"id":7612777,"name":"Amilongon","lon":120.5457,"lat":16.8758,"pop":0},{"id":8609612,"name":"Aming Tahanan Village","lon":120.97698,"lat":14.3868,"pop":0},{"id":1731045,"name":"Amio","lon":122.96667,"lat":9.46667,"pop":0},{"id":1731046,"name":"Amio","lon":122.9047,"lat":9.3992,"pop":0},{"id":1731047,"name":"Amio","lon":122.9413,"lat":9.3571,"pop":2349},{"id":1731042,"name":"Amirang","lon":122.4807,"lat":10.8895,"pop":0},{"id":1731043,"name":"Amiray","alt":["Amirang"],"lon":122.5551,"lat":10.9162,"pop":0},{"id":1731040,"name":"Amiroy","lon":122.5883,"lat":10.9234,"pop":0},{"id":1731041,"name":"Amiroy","lon":122.56667,"lat":10.91667,"pop":0},{"id":1731038,"name":"Amistad","lon":121.66574,"lat":16.86196,"pop":0},{"id":1731039,"name":"Amistad","lon":120.7271,"lat":16.0333,"pop":0},{"id":1906852,"name":"Amityville","alt":["Amitty Ville"],"lon":121.12967,"lat":14.75092,"pop":0},{"id":1731036,"name":"Amlang","lon":120.43064,"lat":16.23673,"pop":0},{"id":1731033,"name":"Amlimay","lon":120.83704,"lat":16.69377,"pop":2405},{"id":1730964,"name":"Amluagan","alt":["Amtuagan","Antuagan"],"lon":120.7308,"lat":17.306,"pop":0},{"id":1731029,"name":"Ammubuan","lon":121.53517,"lat":18.39626,"pop":0},{"id":8516105,"name":"Ammugauan","lon":121.76828,"lat":17.41036,"pop":0},{"id":1731028,"name":"Amnay","lon":120.9462,"lat":13.0141,"pop":0},{"id":1698369,"name":"Amobocan","alt":["Ammabocan","Ammobocan","Ammoboocan","Namobocan"],"lon":121.80814,"lat":16.84006,"pop":0},{"id":7621084,"name":"Amogawen","lon":121.4565,"lat":16.5657,"pop":0},{"id":1731022,"name":"Amoloc","lon":121.26667,"lat":17.16667,"pop":0},{"id":1731021,"name":"Amolongin","alt":["Amoloñgin"],"lon":121.63847,"lat":14.70331,"pop":0},{"id":1731019,"name":"Amomonting","alt":["Amomoting","Amonting"],"lon":123.85306,"lat":12.93139,"pop":0},{"id":1731018,"name":"Among","lon":124.3461,"lat":12.3866,"pop":0},{"id":1731016,"name":"Amonoy","lon":121.4894,"lat":14.1207,"pop":0},{"id":1731012,"name":"Amontay","lon":122.1014,"lat":13.8353,"pop":0},{"id":1731013,"name":"Amontay","lon":122.15722,"lat":13.73278,"pop":0},{"id":1731014,"name":"Amontay","lon":125.3971,"lat":9.7092,"pop":0},{"id":1731015,"name":"Amontay","lon":125.31639,"lat":8.9875,"pop":0},{"id":1731011,"name":"Amontoc","alt":["Amantoc"],"lon":120.46583,"lat":16.6575,"pop":0},{"id":7429457,"name":"Amorha","lon":121.18754,"lat":16.96505,"pop":0},{"id":1731006,"name":"Amorogtong","lon":122.28333,"lat":10.71667,"pop":0},{"id":1731003,"name":"Amoroy","lon":123.73301,"lat":12.27084,"pop":0},{"id":8646012,"name":"Amosup Seamen’s Village","lon":120.98254,"lat":14.28427,"pop":0},{"id":1731000,"name":"Amot","lon":121.96688,"lat":14.85512,"pop":0},{"id":7621086,"name":"Ampakling","lon":121.3602,"lat":16.5619,"pop":0},{"id":1730996,"name":"Ampalang","lon":120.81667,"lat":16.71667,"pop":0},{"id":1730994,"name":"Ampalioh","lon":120.71667,"lat":17.33333,"pop":0},{"id":1730991,"name":"Ampandula","lon":120.44872,"lat":17.53401,"pop":0},{"id":1730987,"name":"Amparo","lon":122,"lat":10.9,"pop":0},{"id":1730988,"name":"Amparo","lon":124.90778,"lat":10.09,"pop":0},{"id":1730989,"name":"Amparo","lon":125.5575,"lat":8.865,"pop":0},{"id":8463103,"name":"Amparo Subdivision","lon":121.07936,"lat":14.75047,"pop":0},{"id":8677551,"name":"Amparo Village","lon":120.91187,"lat":14.22996,"pop":0},{"id":7621085,"name":"Ampatleng","lon":121.3616,"lat":16.5738,"pop":0},{"id":1730983,"name":"Ampatuan","alt":["Ampuan"],"lon":124.46667,"lat":6.86667,"pop":3962},{"id":1730982,"name":"Ampayao","lon":120.56667,"lat":17.16667,"pop":0},{"id":1730993,"name":"Ampayoc","alt":["Ampaliok"],"lon":120.733,"lat":17.344,"pop":0},{"id":1730980,"name":"Ampayon","lon":125.60444,"lat":8.96694,"pop":0},{"id":7427077,"name":"Ampegoc","lon":120.82034,"lat":16.64288,"pop":0},{"id":7418937,"name":"Amper","lon":121.5531,"lat":15.9006,"pop":0},{"id":1730979,"name":"Ampid Primero","alt":["Ampid","Ampid I"],"lon":121.1151,"lat":14.68366,"pop":0},{"id":7090988,"name":"Ampid Segundo","alt":["Ampid II"],"lon":121.1151,"lat":14.6866,"pop":0},{"id":1730978,"name":"Ampihanon","lon":124.78333,"lat":10.68333,"pop":0},{"id":1730977,"name":"Ampinikan","alt":["Ampenican"],"lon":124.78694,"lat":8.89861,"pop":0},{"id":1730974,"name":"Ampongol","lon":123.95452,"lat":10.79193,"pop":0},{"id":7615986,"name":"Ampontoc","lon":120.7759,"lat":16.946,"pop":0},{"id":7616142,"name":"Ampontoc","lon":120.7623,"lat":16.9192,"pop":0},{"id":1978619,"name":"Ampoya","lon":124.25389,"lat":7.1675,"pop":0},{"id":1730975,"name":"Ampuagan","alt":["Ampoagan"],"lon":120.4963,"lat":17.3553,"pop":0},{"id":1979001,"name":"Ampuan","lon":124.35444,"lat":7.39861,"pop":0},{"id":8374854,"name":"Ampucao","lon":120.65517,"lat":16.32703,"pop":0},{"id":7428286,"name":"Ampulan","lon":120.6266,"lat":16.5231,"pop":0},{"id":1730972,"name":"Ampusungan","alt":["Amposungan"],"lon":120.7247,"lat":16.7804,"pop":2077},{"id":1730969,"name":"Amsalsal","lon":120.55654,"lat":16.49706,"pop":0},{"id":1730970,"name":"Amsalsal","lon":120.59667,"lat":16.48528,"pop":0},{"id":1966476,"name":"Amsawan","lon":120.67278,"lat":17.08556,"pop":0},{"id":1730968,"name":"Amsic","lon":120.57056,"lat":15.15528,"pop":0},{"id":1730967,"name":"Amsuling","lon":120.66667,"lat":16.66667,"pop":0},{"id":7428285,"name":"Amtaki","lon":120.6371,"lat":16.52,"pop":0},{"id":1730966,"name":"Amti","lon":120.86667,"lat":17.36667,"pop":0},{"id":1730965,"name":"Amtic","lon":123.6268,"lat":13.2936,"pop":0},{"id":1730963,"name":"Amucao","lon":120.68643,"lat":15.46405,"pop":2478},{"id":1731031,"name":"Amucian","alt":["Ammacian"],"lon":121.34765,"lat":17.63831,"pop":0},{"id":1730962,"name":"Amugao","lon":121.14225,"lat":18.1256,"pop":0},{"id":1730960,"name":"Amugius","alt":["Amuguis"],"lon":121.1213,"lat":13.3281,"pop":0},{"id":1730959,"name":"Amuguis","alt":["Amoguis"],"lon":122.4206,"lat":13.4773,"pop":0},{"id":1730961,"name":"Amuguis","alt":["Amugis"],"lon":121.4053,"lat":12.4732,"pop":0},{"id":1730958,"name":"Amulung","alt":["Amulong"],"lon":121.72375,"lat":17.8357,"pop":2354},{"id":1730956,"name":"Amuñgan","alt":["Amungan","Amungen"],"lon":119.9582,"lat":15.3652,"pop":12357},{"id":1730954,"name":"Amunitan","lon":122.05637,"lat":18.3226,"pop":0},{"id":1730951,"name":"Amuntay","lon":122.4875,"lat":13.9555,"pop":0},{"id":1730950,"name":"Amurao","lon":122.5,"lat":10.86667,"pop":0},{"id":1730948,"name":"Amusrog","alt":["Amoslog","Amuslog"],"lon":125.5982,"lat":9.637,"pop":0},