[{"id":1559962,"name":"Airai Hamlet","alt":["A Irai","Airrai","Irrai"],"lon":134.55946,"lat":7.35985,"pop":0},{"id":1559785,"name":"Angaur","alt":["Delutaog","Jimusho","Ngaramash","Saipan","Saipan Town","Saipon","Sipon","Yubinkyoku"],"lon":134.13133,"lat":6.90331,"pop":320},{"id":4038282,"name":"Angaur State","alt":["Ngeaur"],"lon":134.12997,"lat":6.90601,"pop":188},{"id":1559914,"name":"Chelab Hamlet","alt":["Achelap","Aiokako-suido","Aiokako-suidō","Akalak","Akarappu","Chelab","Elab","Gabokkudo","Galap","Garurudo","Gaysan","Geysan","Ralap","Rallap","Yalap"],"lon":134.63885,"lat":7.63575,"pop":0},{"id":4037733,"name":"Chol Hamlet","alt":["A Gol","Acholl","Agol","Akoru","Akuro","Choll","Gol","Roll"],"lon":134.63587,"lat":7.67063,"pop":0},{"id":1559604,"name":"Chollei Hamlet","alt":["Golei","Konlei","Konrei","Olei","Ollei"],"lon":134.61414,"lat":7.71985,"pop":0},{"id":1559802,"name":"Dilong Hamlet","lon":134.71757,"lat":8.08115,"pop":0},{"id":1559852,"name":"Dimes Hamlet","lon":134.71775,"lat":8.07805,"pop":0},{"id":1559444,"name":"Echang Hamlet","alt":["Eang","Sonsorol Islanders Village","Tobi Islanders Village"],"lon":134.45289,"lat":7.34661,"pop":0},{"id":1559482,"name":"Echol Hamlet","alt":["Chechol","Echol","Eeyahoru","Eeyakoru","Eholl","Euakor","Gegol"],"lon":134.44693,"lat":7.35133,"pop":0},{"id":1559890,"name":"Eimelik Hamlet","lon":134.51034,"lat":7.3973,"pop":0},{"id":4037770,"name":"Elauesachel Hamlet","lon":134.50616,"lat":7.45743,"pop":0},{"id":1559674,"name":"Elechui Hamlet","alt":["Chelechui"],"lon":134.47997,"lat":7.43161,"pop":0},{"id":1559635,"name":"Ertong Hamlet","lon":134.6148,"lat":7.50442,"pop":0},{"id":7670723,"name":"former Eastern Village","lon":131.1255,"lat":3.00508,"pop":0},{"id":7670737,"name":"former Northern Village","lon":131.12168,"lat":3.00971,"pop":0},{"id":1559484,"name":"Idid Hamlet","lon":134.48373,"lat":7.34299,"pop":0},{"id":1559338,"name":"Iebukel Hamlet","alt":["Jebukol"],"lon":134.64097,"lat":7.70006,"pop":0},{"id":1559769,"name":"Ikelau Hamlet","lon":134.48201,"lat":7.34139,"pop":0},{"id":4037823,"name":"Imelechol Hamlet","alt":["A Imelogel","Babelthuap Village","Emeleol","Imeleol"],"lon":134.2656,"lat":7.03966,"pop":0},{"id":1559864,"name":"Imeong Hamlet","alt":["A Imeungs","Aimeong","Aimion","Imeiong","Imeong"],"lon":134.52713,"lat":7.53134,"pop":132},{"id":1559847,"name":"Iyebukel Hamlet","alt":["Aebukuru","Aiebukl","Ayebukuru","Doro Island","Iyebukel"],"lon":134.48594,"lat":7.34929,"pop":0},{"id":7670994,"name":"Kayangel","lon":134.71725,"lat":8.08228,"pop":188},{"id":8714632,"name":"Kesebalau","lon":134.54267,"lat":7.36177,"pop":0},{"id":7671223,"name":"Kloulklubed","lon":134.25561,"lat":7.04192,"pop":702},{"id":1559351,"name":"Kloulklubed Hamlet","alt":["Kloulklubed - US post-WW2 built"],"lon":134.25549,"lat":7.04193,"pop":0},{"id":1559446,"name":"Koror","alt":["Goreor","Goror","Koreor","Koror City","Koror town","Koror village","Kororu","Korōru","ROR","kololeu","kololeu ju","코로르","코로르 주"],"lon":134.47326,"lat":7.33978,"pop":14000},{"id":7732415,"name":"Koror Town","alt":["Little Tokyo"],"lon":134.47888,"lat":7.34257,"pop":12676},{"id":11776437,"name":"Koska","lon":134.25199,"lat":7.03526,"pop":0},{"id":1559814,"name":"Medalaii Hamlet","alt":["Madalai","Madarai","Madaria","Maralai","Matalai","Medalaii"],"lon":134.46588,"lat":7.34391,"pop":0},{"id":1559812,"name":"Medorm Hamlet","alt":["Admodhorom","Amodhorom","Medorm","Medorom","Mudorom","Mudurom"],"lon":134.47901,"lat":7.4565,"pop":0},{"id":1559694,"name":"Meketii Hamlet","alt":["Meketii","Minatohang"],"lon":134.48299,"lat":7.34708,"pop":0},{"id":1559804,"name":"Melekeok Village","alt":["Artingall","Athermal","Athernal","Coaengal","Malligoyoke","Marukiyoku","Melekeiok","Melekejok","Melekiok","Melekyok","Meligeok","Mgadernal","Molegojok","Molegoyok","Ngadernal"],"lon":134.63671,"lat":7.49567,"pop":271},{"id":4038170,"name":"Mengellang","alt":["Kayungur","Ngeiungel","Ononguru"],"lon":134.63054,"lat":7.6957,"pop":488},{"id":1559797,"name":"Meyungs Hamlet","alt":["Amiyonsu","Meiungs","Meungs","Meyungs","a Meungs"],"lon":134.45963,"lat":7.35381,"pop":0},{"id":7732297,"name":"Ngardmau","lon":134.5744,"lat":7.60986,"pop":221},{"id":4038316,"name":"Ngardmau Village","lon":134.57418,"lat":7.60988,"pop":0},{"id":7732276,"name":"Ngchemiangel","lon":134.47678,"lat":7.44613,"pop":270},{"id":1559480,"name":"Ngchemiangel Hamlet","alt":["Emieangl","Gamliangel","Kamiyangaru","Kamiyangaur","Komliangl","Ngchemiangel"],"lon":134.47596,"lat":7.446,"pop":0},{"id":4036778,"name":"Ngchesar Hamlet","alt":["Alakasoho","Arakaso","Enchesar","Engkasar","Enkasar","Enkassar","Galaus","Ngesar","Nggesar","Nggessar","Ngurutoi"],"lon":134.60991,"lat":7.46932,"pop":300},{"id":1559362,"name":"Ngchesechang Hamlet","alt":["Amarakarakkuru","Aramarakarakkuru","Aramarakarakuru","Gasakan","Gaskan","Ngaragebukl","Ngasachang","Ngchesechang","Nggasagang","Nghesehang"],"lon":134.58027,"lat":7.38472,"pop":0},{"id":4037993,"name":"Ngebei Hamlet","alt":["Gabel","Ngabei","Ngabeul","Ngabiul","Ngabygul"],"lon":134.63672,"lat":7.69887,"pop":0},{"id":7701398,"name":"Ngebuked Hamlet","lon":134.63049,"lat":7.64191,"pop":0},{"id":1559755,"name":"Ngeburch Hamlet","alt":["Gabulko","Galbuko","Ngaburok","Ngeburch","Ngebureg","Ololian","Ororian","a Ipelau"],"lon":134.62932,"lat":7.50762,"pop":0},{"id":7732825,"name":"Ngeraus Hamlet","lon":134.61346,"lat":7.47667,"pop":0},{"id":1559732,"name":"Ngerbau Hamlet","alt":["Aracalong","Delebog","Galapao","Ngarabau","Ngarbau","Ngerbau","Pkulrengereiong Point","Pkulrengerelong"],"lon":134.64106,"lat":7.70291,"pop":0},{"id":1559400,"name":"Ngerbeched Hamlet","alt":["Arabaketsu","Arubaketsu","Neustadt","Ngarbaged","Ngarbaged-rengul","Ngarbeched","Ngerbeched"],"lon":134.47623,"lat":7.33249,"pop":0},{"id":1559728,"name":"Ngerbodel Hamlet","alt":["Arubodoru","Nerubodoru","Ngarbagedesau","Ngerbodel"],"lon":134.4939,"lat":7.35,"pop":0},{"id":1559513,"name":"Ngerchemai Hamlet","alt":["Aragamae","Aragamaye","Arekamae","Ngarchemai","Ngaregamai","Ngarekamais","Ngerchemai","Ngerechemai"],"lon":134.4889,"lat":7.35,"pop":0},{"id":1559703,"name":"Ngerekebesang Hamlet","alt":["Arakabesan","Ngerekebesang"],"lon":134.44648,"lat":7.35444,"pop":0},{"id":1559820,"name":"Ngereklmadel","alt":["Madarabae","Madarabaye","Ngedbang"],"lon":134.48562,"lat":7.48826,"pop":0},{"id":4038053,"name":"Ngereklmadel","alt":["Mechebechubl","Mehebehubl","New Ngatbang","Ngatbang","Ngerklamad"],"lon":134.4848,"lat":7.48822,"pop":0},{"id":7732314,"name":"Ngeremecheluch Hamlet","lon":134.63596,"lat":7.49199,"pop":0},{"id":1559720,"name":"Ngerkeai","alt":["Ngermechau","Ngiwal","Ogiwal","Ogiwaru"],"lon":134.63582,"lat":7.55458,"pop":0},{"id":4038014,"name":"Ngerkeai","alt":["Karaeru","Ngaragoluuk","Ngaregeluj","Ngerecheluk","Ngermechau","Ngiwal","Ogiwal","Ogiwaru"],"lon":134.63612,"lat":7.55456,"pop":223},{"id":1559488,"name":"Ngerkeai Hamlet","alt":["Galegui","Garadai","Garikiai","Goleguy","Karikari","Karikiai","Nagarekeai","Ngarekai","Ngarekeai","Ngergeai","Ngerkeai","Ngerkeyai"],"lon":134.49786,"lat":7.42072,"pop":0},{"id":4038084,"name":"Ngerkeseuaol Hamlet","alt":["Aiekasaol","Aiekasol","Arakasoaol","Atekasabra","Atekasabru","Atekasaoru","Kesaiaol","Kesauaol","Ngarakassoul","Ngarekesauaol","Ngerkeseoul","Ngerkesewaol"],"lon":134.48949,"lat":7.34301,"pop":0},{"id":4038080,"name":"Ngerkesou Hamlet","alt":["Gaiakasan","Garakasan","Ngarakesou","Ngarakosou","Ngargeso"],"lon":134.60478,"lat":7.46363,"pop":0},{"id":1559475,"name":"Ngermelech Hamlet","alt":["Galumuleaka","Garumureaka","Ngeremeleg","Ngermelech"],"lon":134.6347,"lat":7.49966,"pop":0},{"id":1559673,"name":"Ngermetengel Hamlet","alt":["Almonogui","Arumonogui","Ngaremetengel","Ngeremlengui","Ngermetengel"],"lon":134.50268,"lat":7.52253,"pop":0},{"id":1559350,"name":"Ngermid Hamlet","alt":["Armid","Arumizu","Arumuzu","Ngarmid","Ngermid"],"lon":134.50163,"lat":7.33983,"pop":0},{"id":1559670,"name":"Ngerngesang Hamlet","alt":["Gaiakasan","Garakasan","Ngarakesou","Ngarakosou","Ngargeso","Ngerngesang"],"lon":134.60375,"lat":7.45304,"pop":0},{"id":4038109,"name":"Ngersung Hamlet","alt":["Garasuun","Garusuun","Ngarsung","Ngorsum"],"lon":134.53576,"lat":7.35412,"pop":0},{"id":4038107,"name":"Ngersuul Hamlet","alt":["Garashiyoo","Garasho","Karasho","Ngarsul","Ngorsul"],"lon":134.59495,"lat":7.43479,"pop":0},{"id":4037805,"name":"Ngerubesang Hamlet","lon":134.63093,"lat":7.48969,"pop":0},{"id":1559645,"name":"Ngeruikl Hamlet","alt":["Galauekkel","Ngarevikl","Ngeruiki","Ngeruikl","Ngeruwikl"],"lon":134.61664,"lat":7.48362,"pop":0},{"id":4038130,"name":"Ngeruling Hamlet","lon":134.63249,"lat":7.50535,"pop":0},{"id":8063361,"name":"Ngerulmud","alt":["eung-gelulmudeu","Нгерулмуд","응게룰무드"],"lon":134.6238,"lat":7.50077,"pop":0},{"id":1559654,"name":"Ngeruluobel Hamlet","alt":["Garuruon","Ngeruluobel"],"lon":134.52412,"lat":7.36448,"pop":0},{"id":4038140,"name":"Ngerusar Hamlet","alt":["Garasuun","Garusal","Garusaru","Garusuru","Ngarsung","Ngorsum","Ngursar","Ngurusar"],"lon":134.52965,"lat":7.35987,"pop":0},{"id":4038145,"name":"Ngerutoi Hamlet","alt":["Ngatbong","Ngurotol","Ngurutoi","Urdmang"],"lon":134.57641,"lat":7.61092,"pop":0},{"id":4038144,"name":"Ngesang","lon":134.64373,"lat":7.62695,"pop":0},{"id":1559641,"name":"Ngetbong Hamlet","alt":["Galuokkur","Garuokkuru","Ngatbong","Ngetbong"],"lon":134.57433,"lat":7.60828,"pop":0},{"id":7701549,"name":"Ngetkib","lon":134.51484,"lat":7.36451,"pop":62},{"id":1559534,"name":"Ngetkib Hamlet","alt":["Aakip","Adkip","Atkiip","Atkiíp","Gadkip","Gakip","Gakkibu","Gatkip","Itkib","Ngatkip","Ngetgip","Ngetkib","Ngetkip","Ngtkip","Ngtkíp"],"lon":134.51439,"lat":7.36438,"pop":0},{"id":4038174,"name":"Ngkeklau Hamlet","alt":["Angkaluau","Geklau","Kaklau","Kakurao","Kaslau","Keklau","Kekurao","Ngekeklau","Ngerkeklau","Ngkekau"],"lon":134.6402,"lat":7.59296,"pop":0},{"id":1559617,"name":"Ngriil Hamlet","alt":["Chiyou","Ngriel","Ngriil","Ngril"],"lon":134.63609,"lat":7.69032,"pop":0},{"id":1559419,"name":"Oikull Hamlet","alt":["Goikul","Koiguru","Koygul","Oigul","Oikull"],"lon":134.58773,"lat":7.37192,"pop":0},{"id":7701544,"name":"Ordomel Hamlet","lon":134.5552,"lat":7.38111,"pop":0},{"id":7670861,"name":"Pulo Anna Village","alt":["Puro Village"],"lon":131.94901,"lat":4.65404,"pop":0},{"id":7670816,"name":"Sonsorol Village","alt":["Dongosaro","Sonsorol"],"lon":132.21943,"lat":5.32608,"pop":30},{"id":1559353,"name":"Tngeronger Hamlet","alt":["Dngeronger","Ngargersiul"],"lon":134.47912,"lat":7.34449,"pop":0},{"id":7670730,"name":"Tobi Village","alt":["Hatohobei"],"lon":131.12168,"lat":3.00488,"pop":44},{"id":1559543,"name":"Ulimang","alt":["A Ulimang","Galap","Uliman"],"lon":134.64208,"lat":7.62416,"pop":581},{"id":1559537,"name":"Urdmang Hamlet","alt":["Urdmang","Urdmau"],"lon":134.57865,"lat":7.61175,"pop":0},{"id":4038353,"name":"Yelch - New Village","lon":134.5457,"lat":7.36051,"pop":0}]