[{"id":3436529,"name":"24 De Julio","lon":-57.3,"lat":-25.08333,"pop":0},{"id":11695255,"name":"7 de Agosto Km 2","lon":-54.74307,"lat":-26.45413,"pop":250},{"id":3867464,"name":"Abá-Ñe-é","lon":-61.93333,"lat":-21.93333,"pop":0},{"id":3439483,"name":"Abaí","alt":["Abai","Abay"],"lon":-55.94685,"lat":-26.03848,"pop":3024},{"id":11762082,"name":"Abay","lon":-56.21803,"lat":-26.4607,"pop":0},{"id":11719621,"name":"Abelenda","lon":-57.0748,"lat":-25.70069,"pop":0},{"id":12169820,"name":"Abuelita","lon":-56.49254,"lat":-25.49213,"pop":0},{"id":11743832,"name":"Aca Carayá","alt":["Aca Caraya"],"lon":-55.52067,"lat":-26.96582,"pop":0},{"id":3867463,"name":"Acá Verá","lon":-60.93333,"lat":-23.53333,"pop":0},{"id":3439482,"name":"Acahay","alt":["Acahai","Acahaí"],"lon":-57.11329,"lat":-25.91409,"pop":3205},{"id":3867462,"name":"Achaval","lon":-61.76667,"lat":-22.83333,"pop":0},{"id":11718411,"name":"Achotei","lon":-57.37398,"lat":-26.00708,"pop":0},{"id":11730907,"name":"Achucarro","lon":-57.54334,"lat":-25.43594,"pop":0},{"id":12172307,"name":"Acosta Ñu","alt":["Acosta Nu"],"lon":-58.50322,"lat":-27.06513,"pop":0},{"id":12169457,"name":"Adela Speratti","lon":-54.3181,"lat":-24.06063,"pop":0},{"id":3439473,"name":"Administración Lunardelli","lon":-55.85,"lat":-23.23333,"pop":0},{"id":12172091,"name":"Adriano Irala","lon":-56.95865,"lat":-25.66898,"pop":0},{"id":3439469,"name":"Agriex","lon":-54.71724,"lat":-26.11561,"pop":0},{"id":3439468,"name":"Agua Dulce","lon":-59.76667,"lat":-20.01667,"pop":0},{"id":11723984,"name":"Aguaihy","lon":-57.29319,"lat":-25.79836,"pop":0},{"id":11723743,"name":"Aguaihy-mi","lon":-57.32077,"lat":-25.82823,"pop":0},{"id":3439466,"name":"Aguaity","lon":-57.02747,"lat":-25.33704,"pop":0},{"id":11723825,"name":"Aguaiy","lon":-57.27544,"lat":-25.84182,"pop":0},{"id":12171988,"name":"Aguapey","lon":-56.3296,"lat":-27.31003,"pop":0},{"id":12173408,"name":"Aguapey","lon":-57.44576,"lat":-25.1979,"pop":0},{"id":12173410,"name":"Aguapey Villa Don Bosco","lon":-57.44216,"lat":-25.1916,"pop":0},{"id":12173409,"name":"Aguapey Villa Pa’i Cleba","alt":["Aguapey Villa Pa'i Cleba"],"lon":-57.43985,"lat":-25.19458,"pop":0},{"id":11685007,"name":"Aguararé","alt":["Aguarare"],"lon":-56.23943,"lat":-27.20438,"pop":0},{"id":3439458,"name":"Aguaray","alt":["Aguara-i"],"lon":-58.51667,"lat":-19.85,"pop":0},{"id":11769679,"name":"Aguaray Guá","alt":["Aguaray Gua"],"lon":-54.78218,"lat":-25.33412,"pop":0},{"id":3867461,"name":"Aguay","lon":-61.21667,"lat":-19.45,"pop":0},{"id":3439452,"name":"Agüerito","lon":-56.66667,"lat":-22.91667,"pop":0},{"id":3867460,"name":"Agüero","lon":-61.21667,"lat":-23.55,"pop":0},{"id":3867459,"name":"Aguilera","lon":-60.35,"lat":-23.25,"pop":0},{"id":3867458,"name":"Aguirre","lon":-60.06667,"lat":-23.11667,"pop":0},{"id":11774300,"name":"Albardón","alt":["Albardon"],"lon":-56.22215,"lat":-26.18126,"pop":0},{"id":3439448,"name":"Alberdi","alt":["Juan Bautista Alberdi"],"lon":-58.14349,"lat":-26.18593,"pop":0},{"id":12172278,"name":"Alberdi Viejo","lon":-58.1561,"lat":-26.18443,"pop":0},{"id":3867457,"name":"Alborada","lon":-61.36667,"lat":-22.71667,"pop":0},{"id":12172063,"name":"Alborada","lon":-57.15263,"lat":-25.62511,"pop":0},{"id":3439447,"name":"Alborada Dos","lon":-55.71715,"lat":-27.29265,"pop":0},{"id":3439446,"name":"Alborada Uno","lon":-55.7,"lat":-27.26667,"pop":0},{"id":11979744,"name":"Alcaidia","lon":-57.24955,"lat":-24.77195,"pop":0},{"id":11730739,"name":"Aldama Cañada","alt":["Aldama Canada","Compania Canada Aldama","Compañía Cañada Aldama"],"lon":-57.38793,"lat":-25.41024,"pop":0},{"id":12173459,"name":"Aldana Cañada","alt":["Aldana Canada"],"lon":-57.41186,"lat":-25.40245,"pop":0},{"id":11715318,"name":"Alegre","lon":-56.13514,"lat":-24.336,"pop":0},{"id":11717220,"name":"Alegre","alt":["Potrero Alegre"],"lon":-57.86714,"lat":-26.02772,"pop":0},{"id":12173591,"name":"Alegre","lon":-57.46245,"lat":-25.49419,"pop":0},{"id":12173869,"name":"Alegre","lon":-57.13576,"lat":-25.38464,"pop":0},{"id":12173904,"name":"Alegre","lon":-56.27908,"lat":-25.61388,"pop":0},{"id":12173911,"name":"Alegre","lon":-56.46429,"lat":-25.68591,"pop":0},{"id":11770555,"name":"Alemán Cué","alt":["Aleman Cue"],"lon":-56.27091,"lat":-25.28601,"pop":0},{"id":11719593,"name":"Aleman-Cué","alt":["Aleman-Cue"],"lon":-57.37519,"lat":-25.57054,"pop":0},{"id":11719627,"name":"Alfonso XIII","lon":-57.11046,"lat":-25.6468,"pop":0},{"id":3867456,"name":"Alianza","lon":-61.13333,"lat":-23.63333,"pop":0},{"id":11772433,"name":"Alonso-Cué","alt":["Alonso-Cue"],"lon":-56.64708,"lat":-25.93366,"pop":0},{"id":12171797,"name":"Alto Jardín","alt":["Alto Jardin"],"lon":-55.65439,"lat":-27.09088,"pop":0},{"id":3439437,"name":"Alto Verá","alt":["Alto Vera"],"lon":-55.76828,"lat":-26.75291,"pop":642},{"id":11767554,"name":"Altona Campo Ocho","lon":-55.64921,"lat":-25.3837,"pop":0},{"id":3439439,"name":"Altos","lon":-57.25443,"lat":-25.26263,"pop":4763},{"id":3867455,"name":"Alurralde","alt":["Aluralde"],"lon":-62.23333,"lat":-22,"pop":0},{"id":3439436,"name":"Alvar Núñez Cabeza de Vaca","alt":["Alvar Nunez Cabeza de Vaca","Colonia Alvar Nunez Cabeza de Vaca","Colonia Alvar Núñez Cabeza de Vaca"],"lon":-54.35,"lat":-24.45,"pop":0},{"id":3439435,"name":"Amambay","lon":-55.78333,"lat":-25.93333,"pop":0},{"id":11766983,"name":"Amambay","lon":-56.3862,"lat":-25.18273,"pop":0},{"id":12169809,"name":"Amanecer","lon":-56.42895,"lat":-25.47403,"pop":0},{"id":3867454,"name":"Amarillo Pericote","alt":["Amarillo"],"lon":-61.95,"lat":-22.96667,"pop":0},{"id":3439430,"name":"Anahí","alt":["Anahi"],"lon":-54.87886,"lat":-24.26255,"pop":0},{"id":12173627,"name":"Anahí","alt":["Anahi"],"lon":-57.48906,"lat":-25.39572,"pop":0},{"id":11721882,"name":"Anasco","lon":-56.75993,"lat":-25.71996,"pop":0},{"id":3439427,"name":"Andres Aquirye","lon":-56.93333,"lat":-25.25,"pop":0},{"id":3439425,"name":"Angelito","lon":-55.46667,"lat":-25.8,"pop":0},{"id":3439426,"name":"Angelito","lon":-56.35,"lat":-23.21667,"pop":0},{"id":3439424,"name":"Angostura","lon":-57.57217,"lat":-25.57087,"pop":0},{"id":11739404,"name":"Angu’á Retá","alt":["Angu'a Reta"],"lon":-55.74702,"lat":-24.85221,"pop":0},{"id":11718587,"name":"Ánimas-Guazú","alt":["Animas-Guazu"],"lon":-57.56526,"lat":-25.67234,"pop":0},{"id":11762078,"name":"Anteojo","lon":-56.09727,"lat":-26.43337,"pop":0},{"id":3439423,"name":"Antequera","alt":["Colonia Antequera","Puerto Antequera"],"lon":-57.20221,"lat":-24.08526,"pop":2701},{"id":12173506,"name":"Antigua Imagen","lon":-57.5567,"lat":-25.42465,"pop":0},{"id":12174001,"name":"Apa","lon":-56.5196,"lat":-22.12152,"pop":0},{"id":3439419,"name":"Apipé","lon":-57.81667,"lat":-27.1,"pop":0},{"id":3439416,"name":"Apya","lon":-56.13333,"lat":-24.71667,"pop":0},{"id":11731568,"name":"Aquino Cué","alt":["Aquino Cue"],"lon":-56.9624,"lat":-25.27811,"pop":0},{"id":11762034,"name":"Ararupe","lon":-56.15635,"lat":-26.55917,"pop":0},{"id":12173640,"name":"Aratiri","lon":-57.47407,"lat":-25.34103,"pop":0},{"id":3439406,"name":"Arce Rojas","lon":-59.71667,"lat":-23.43333,"pop":0},{"id":11675323,"name":"Área Cinco","alt":["Area 5","Area Cinco","Área 5"],"lon":-54.61543,"lat":-25.55219,"pop":0},{"id":11675350,"name":"Área Cuatro","alt":["Area 4","Area Cuatro","Área 4"],"lon":-54.62873,"lat":-25.53588,"pop":0},{"id":11675279,"name":"Área Dos","alt":["Area Dos"],"lon":-54.60844,"lat":-25.52821,"pop":0},{"id":12174109,"name":"Área Ocho","alt":["Area 8","Area Ocho","Área 8"],"lon":-54.6342,"lat":-25.52733,"pop":0},{"id":12174097,"name":"Área Seis","alt":["Area 6","Area Seis","Área 6"],"lon":-54.62614,"lat":-25.40854,"pop":0},{"id":11675298,"name":"Área Tres","alt":["Area 3","Area Tres","Área 3"],"lon":-54.62336,"lat":-25.52788,"pop":0},{"id":11677146,"name":"Área Uno","alt":["Area 1","Area Uno","Área 1"],"lon":-54.6332,"lat":-25.5148,"pop":0},{"id":3439405,"name":"Areco","lon":-56.66667,"lat":-25.7,"pop":0},{"id":3439404,"name":"Arecutacuá","alt":["Arecutacua","Arecutacue","Arecutacué","Puerto Arecutacua","Puerto Naranjito"],"lon":-57.38333,"lat":-25.1,"pop":0},{"id":3439403,"name":"Areguá","alt":["Aregua"],"lon":-57.38472,"lat":-25.3125,"pop":11222},{"id":11673544,"name":"Arekaja","alt":["Barrio Arecaya"],"lon":-57.51395,"lat":-25.2016,"pop":0},{"id":11762048,"name":"Argaña-Cué","alt":["Argana-Cue"],"lon":-56.0997,"lat":-26.52501,"pop":0},{"id":12171803,"name":"Armonía","alt":["Armonia"],"lon":-55.6412,"lat":-27.07087,"pop":0},{"id":11762928,"name":"Arrocera Acurraín","alt":["Arrocera Acurrain"],"lon":-56.90747,"lat":-24.67708,"pop":0},{"id":11762758,"name":"Arrocera Caballero Cue","lon":-56.88701,"lat":-24.65336,"pop":0},{"id":3439401,"name":"Arrocera Softo","lon":-56.9,"lat":-26.73333,"pop":0},{"id":3439399,"name":"Arroyito","lon":-56.61667,"lat":-25.73333,"pop":0},{"id":3439400,"name":"Arroyito","lon":-56.77806,"lat":-23.17505,"pop":0},{"id":11762285,"name":"Arroyito","lon":-56.73533,"lat":-24.20653,"pop":0},{"id":12173939,"name":"Arroyito","lon":-56.33068,"lat":-25.94877,"pop":0},{"id":3439398,"name":"Arroyo Costa","lon":-56.85,"lat":-26.18333,"pop":0},{"id":11730748,"name":"Arroyo Estrella","alt":["Compania Arroyo Estrella","Compañía Arroyo Estrella"],"lon":-57.2952,"lat":-25.42365,"pop":0},{"id":12172304,"name":"Arroyo Havo","lon":-58.51332,"lat":-27.06974,"pop":0},{"id":3439397,"name":"Arroyo Horco","lon":-58.36667,"lat":-27.08333,"pop":0},{"id":12169886,"name":"Arroyo Hu","lon":-56.03287,"lat":-25.48709,"pop":0},{"id":11719634,"name":"Arroyo Porá","alt":["Arroyo Pora"],"lon":-56.99824,"lat":-25.64315,"pop":0},{"id":11773618,"name":"Arroyo Porá","alt":["Arroyo Pora"],"lon":-56.32299,"lat":-26.1671,"pop":0},{"id":12173544,"name":"Arroyo Seco","lon":-57.57061,"lat":-25.36435,"pop":0},{"id":3439395,"name":"Arroyos y Esteros","lon":-57.09728,"lat":-25.05505,"pop":2455},{"id":12173464,"name":"Arrúa","alt":["Arrua"],"lon":-57.43365,"lat":-25.37675,"pop":0},{"id":11719595,"name":"Arrua’i","alt":["Arrua'i","Arrua-i","Arrua-í"],"lon":-57.35743,"lat":-25.56603,"pop":0},{"id":12173444,"name":"Arsenio Érico","alt":["Arsenio Erico"],"lon":-57.3448,"lat":-25.39037,"pop":0},{"id":12172041,"name":"Asentamiento Adolfo Zaracho","lon":-56.35609,"lat":-26.20097,"pop":0},{"id":12173430,"name":"Asentamiento Aldama Cañada","alt":["Asentamiento Aldama Canada"],"lon":-57.38815,"lat":-25.41426,"pop":0},{"id":12173426,"name":"Asentamiento Aldama Cañada Dos","alt":["Asentamiento Aldama Canada 2","Asentamiento Aldama Canada Dos","Asentamiento Aldama Cañada 2"],"lon":-57.37716,"lat":-25.40317,"pop":0},{"id":12173493,"name":"Asentamiento Aldana Cañada","alt":["Asentamiento Aldana Canada"],"lon":-57.41795,"lat":-25.42732,"pop":0},{"id":12172016,"name":"Asentamiento Artemio Rojas","lon":-55.94676,"lat":-26.10687,"pop":0},{"id":12173315,"name":"Asentamiento Aurora Rincón del Peñón","alt":["Asentamiento Aurora Rincon del Penon"],"lon":-57.48682,"lat":-25.14731,"pop":0},{"id":12173389,"name":"Asentamiento Barcelona","lon":-57.42091,"lat":-25.16481,"pop":0},{"id":12169804,"name":"Asentamiento Bonanza","lon":-56.41698,"lat":-25.44553,"pop":0},{"id":12173441,"name":"Asentamiento Cañadita","alt":["Asentamiento Canadita"],"lon":-57.33951,"lat":-25.37534,"pop":0},{"id":12173392,"name":"Asentamiento Carmen Soler Salado","lon":-57.44912,"lat":-25.16762,"pop":0},{"id":12171679,"name":"Asentamiento Cerrito","lon":-56.45412,"lat":-24.658,"pop":0},{"id":12173593,"name":"Asentamiento Colón","alt":["Asentamiento Colon"],"lon":-57.45271,"lat":-25.49879,"pop":0},{"id":12169854,"name":"Asentamiento Constitución","alt":["Asentamiento Constitucion"],"lon":-56.03701,"lat":-25.4875,"pop":0},{"id":12173369,"name":"Asentamiento Diecinueve de Junio","alt":["Asentamiento 19 de Junio"],"lon":-57.45277,"lat":-25.15031,"pop":0},{"id":12173494,"name":"Asentamiento Diez de Agosto","alt":["Asentamiento 10 de Agosto"],"lon":-57.41139,"lat":-25.4356,"pop":0},{"id":12172004,"name":"Asentamiento Don Victoriano","lon":-56.07726,"lat":-26.18046,"pop":0},{"id":12169876,"name":"Asentamiento El Olivo","lon":-56.04136,"lat":-25.45827,"pop":0},{"id":12173373,"name":"Asentamiento El Peñón Centro","alt":["Asentamiento El Penon Centro"],"lon":-57.45236,"lat":-25.15695,"pop":0},{"id":12171766,"name":"Asentamiento El Progreso","lon":-57.53792,"lat":-25.08735,"pop":0},{"id":12173703,"name":"Asentamiento Espíritu Santo Isla Aveiro","alt":["Asentamiento Espiritu Santo Isla Aveiro"],"lon":-57.48549,"lat":-25.20369,"pop":0},{"id":12169852,"name":"Asentamiento Familia Unida","lon":-56.04194,"lat":-25.47742,"pop":0},{"id":12169821,"name":"Asentamiento Fortuna II","lon":-56.48208,"lat":-25.4746,"pop":0},{"id":12173413,"name":"Asentamiento Fulgencio Yegros Salado","lon":-57.43952,"lat":-25.18481,"pop":0},{"id":11719049,"name":"Asentamiento Indígena Alicia-Cué","alt":["Asentamiento Indigena Alicia-Cue"],"lon":-55.85155,"lat":-24.73308,"pop":0},{"id":12173613,"name":"Asentamiento Itá Yvate’i Dos","alt":["Asentamiento Ita Yvate'i 2","Asentamiento Ita Yvate'i Dos","Asentamiento Itá Yvate’i 2"],"lon":-57.48279,"lat":-25.60364,"pop":0},{"id":12173612,"name":"Asentamiento Itá Yvate’i Tres","alt":["Asentamiento Ita Yvate'i 3","Asentamiento Ita Yvate'i Tres","Asentamiento Itá Yvate’i 3"],"lon":-57.48381,"lat":-25.60808,"pop":0},{"id":12173611,"name":"Asentamiento Itá Yvate’i Uno","alt":["Asentamiento Ita Yvate'i 1","Asentamiento Ita Yvate'i Uno","Asentamiento Itá Yvate’i 1"],"lon":-57.47362,"lat":-25.60524,"pop":0},{"id":12171583,"name":"Asentamiento Jardín del Norte","alt":["Asentamiento Jardin del Norte"],"lon":-56.52206,"lat":-23.82457,"pop":0},{"id":12172015,"name":"Asentamiento Jorge de La Cueva","lon":-55.93848,"lat":-26.09981,"pop":0},{"id":12169916,"name":"Asentamiento Jóvenes Unidos","alt":["Asentamiento Jovenes Unidos"],"lon":-55.43089,"lat":-25.41668,"pop":0},{"id":11769459,"name":"Asentamiento Jurumi","alt":["Compania Nurumi","Compañía Ñurumí"],"lon":-55.92798,"lat":-25.48056,"pop":0},{"id":12173596,"name":"Asentamiento Kaugua","lon":-57.43659,"lat":-25.47959,"pop":0},{"id":12173621,"name":"Asentamiento Kokuere","lon":-57.38272,"lat":-25.51538,"pop":0},{"id":12169591,"name":"Asentamiento La Gloria I","lon":-56.42401,"lat":-25.44524,"pop":0},{"id":12169592,"name":"Asentamiento La Gloria II","lon":-56.42408,"lat":-25.4437,"pop":0},{"id":12171705,"name":"Asentamiento La Victoria","lon":-56.45379,"lat":-24.6793,"pop":0},{"id":12173397,"name":"Asentamiento La Victoria Montaña Alta","alt":["Asentamiento La Victoria Montana Alta"],"lon":-57.45867,"lat":-25.17003,"pop":0},{"id":12169836,"name":"Asentamiento Las Mercedes Dos","alt":["Asentamiento Las Mercedes 2"],"lon":-56.46292,"lat":-25.426,"pop":0},{"id":12169829,"name":"Asentamiento Las Mercedes Uno","alt":["Asentamiento Las Mercedes 1"],"lon":-56.46431,"lat":-25.44361,"pop":0},{"id":12174153,"name":"Asentamiento Libertad","lon":-54.66683,"lat":-25.57529,"pop":0},{"id":12173597,"name":"Asentamiento Librada","lon":-57.46798,"lat":-25.48982,"pop":0},{"id":12169476,"name":"Asentamiento Loma Clavel","lon":-55.63959,"lat":-24.12794,"pop":0},{"id":12171704,"name":"Asentamiento Lourdes","lon":-56.4524,"lat":-24.67947,"pop":0},{"id":12171603,"name":"Asentamiento María Auxiliadora","alt":["Asentamiento Maria Auxiliadora"],"lon":-56.40934,"lat":-24.52939,"pop":0},{"id":12169862,"name":"Asentamiento Mbokajaty","lon":-56.00125,"lat":-25.49118,"pop":0},{"id":12173414,"name":"Asentamiento Mbokajaty del Norte","lon":-57.38271,"lat":-25.36615,"pop":0},{"id":12173420,"name":"Asentamiento Mbokajaty del Sur","lon":-57.39521,"lat":-25.3939,"pop":0},{"id":12171874,"name":"Asentamiento Milagros Dos","alt":["Asentamiento Milagros 2"],"lon":-55.63813,"lat":-27.0515,"pop":0},{"id":12171873,"name":"Asentamiento Milagros Uno","alt":["Asentamiento Milagros 1"],"lon":-55.61329,"lat":-27.05926,"pop":0},{"id":12171701,"name":"Asentamiento Niño Jesús","alt":["Asentamiento Nino Jesus"],"lon":-56.44817,"lat":-24.67112,"pop":0},{"id":12174096,"name":"Asentamiento Niño Jesús","alt":["Asentamiento Nino Jesus"],"lon":-54.63032,"lat":-25.40069,"pop":0},{"id":12169483,"name":"Asentamiento Niño Salvador","alt":["Asentamiento Nino Salvador"],"lon":-55.89818,"lat":-24.53329,"pop":0},{"id":12169850,"name":"Asentamiento Nueva Esperanza","lon":-56.03433,"lat":-25.47844,"pop":0},{"id":12171817,"name":"Asentamiento Nueva Esperanza","lon":-55.89614,"lat":-27.3163,"pop":0},{"id":12172154,"name":"Asentamiento Nueva Esperanza","lon":-57.23632,"lat":-25.76318,"pop":0},{"id":12173699,"name":"Asentamiento Nueva Esperanza Isla Aveiro","lon":-57.4782,"lat":-25.19029,"pop":0},{"id":12173412,"name":"Asentamiento Nuevo Amanecer Aguapey","lon":-57.43986,"lat":-25.18743,"pop":0},{"id":12171848,"name":"Asentamiento Nuevo Amanecer II","lon":-55.82162,"lat":-27.34384,"pop":0},{"id":12172013,"name":"Asentamiento Ocho de Diciembre","alt":["Asentamiento 8 de Diciembre"],"lon":-55.92436,"lat":-26.10561,"pop":0},{"id":12169605,"name":"Asentamiento Paraíso","alt":["Asentamiento Paraiso"],"lon":-56.42846,"lat":-25.46379,"pop":0},{"id":12172053,"name":"Asentamiento Primero de Mayo","lon":-57.28776,"lat":-25.55241,"pop":0},{"id":12173492,"name":"Asentamiento Puerta del Sol","lon":-57.42818,"lat":-25.43515,"pop":0},{"id":12173356,"name":"Asentamiento Quince de Agosto Rincón del Peñón","alt":["Asentamiento 15 de Agosto Rincon del Penon","Asentamiento 15 de Agosto Rincón del Peñón","Asentamiento Quince de Agosto Rincon del Penon"],"lon":-57.46501,"lat":-25.12705,"pop":0},{"id":12169518,"name":"Asentamiento Quince de Mayo","alt":["Asentamiento 15 de Mayo"],"lon":-54.66197,"lat":-24.15743,"pop":0},{"id":12174152,"name":"Asentamiento Redención","alt":["Asentamiento Redencion"],"lon":-54.67549,"lat":-25.56531,"pop":0},{"id":12173452,"name":"Asentamiento Rosa Mística","alt":["Asentamiento Rosa Mistica"],"lon":-57.37382,"lat":-25.35756,"pop":0},{"id":12169475,"name":"Asentamiento Sagrada Familia","lon":-55.63617,"lat":-24.12226,"pop":0},{"id":12173375,"name":"Asentamiento Saladito Centro","lon":-57.45479,"lat":-25.15621,"pop":0},{"id":12173405,"name":"Asentamiento Salado","lon":-57.4488,"lat":-25.17847,"pop":0},{"id":12173701,"name":"Asentamiento San Agustín Mbajue","alt":["Asentamiento San Agustin Mbajue"],"lon":-57.46838,"lat":-25.18732,"pop":0},{"id":12173842,"name":"Asentamiento San Antonio","lon":-56.95477,"lat":-25.37744,"pop":0},{"id":12173619,"name":"Asentamiento San Antonio - Jerovia","lon":-57.37313,"lat":-25.51691,"pop":0},{"id":12173618,"name":"Asentamiento San Antonio - Nueva Esperanza","lon":-57.37265,"lat":-25.51426,"pop":0},{"id":12169923,"name":"Asentamiento San Antonio II","lon":-56.31701,"lat":-25.05251,"pop":0},{"id":12173395,"name":"Asentamiento San Cayetano Salado","lon":-57.45291,"lat":-25.17389,"pop":0},{"id":12171849,"name":"Asentamiento San Eugenio","lon":-55.82377,"lat":-27.33487,"pop":0},{"id":12169879,"name":"Asentamiento San Fernando-Walter Insfran","lon":-56.04921,"lat":-25.4809,"pop":0},{"id":12169559,"name":"Asentamiento San Francisco","lon":-56.32546,"lat":-25.05374,"pop":0},{"id":12171457,"name":"Asentamiento San Francisco","lon":-57.43359,"lat":-23.42785,"pop":0},{"id":12169494,"name":"Asentamiento San Isidro","lon":-55.70586,"lat":-24.48338,"pop":0},{"id":12174151,"name":"Asentamiento San Isidro","lon":-54.67552,"lat":-25.56862,"pop":0},{"id":12169557,"name":"Asentamiento San José","alt":["Asentamiento San Jose"],"lon":-56.33762,"lat":-25.05067,"pop":0},{"id":12171610,"name":"Asentamiento San José","alt":["Asentamiento San Jose"],"lon":-56.02269,"lat":-24.724,"pop":0},{"id":12171937,"name":"Asentamiento San Juan","lon":-55.26649,"lat":-26.52939,"pop":0},{"id":12173380,"name":"Asentamiento San Juan Centro","lon":-57.47055,"lat":-25.15982,"pop":0},{"id":12169558,"name":"Asentamiento San Miguel","lon":-56.33196,"lat":-25.05373,"pop":0},{"id":12169563,"name":"Asentamiento San Miguel","lon":-56.40909,"lat":-25.2025,"pop":0},{"id":12169887,"name":"Asentamiento San Miguel","lon":-56.05265,"lat":-25.44556,"pop":0},{"id":12173451,"name":"Asentamiento San Miguel","lon":-57.3726,"lat":-25.35423,"pop":0},{"id":12173374,"name":"Asentamiento San Miguel Centro","lon":-57.45115,"lat":-25.15594,"pop":0},{"id":12169865,"name":"Asentamiento San Pedro","lon":-55.98578,"lat":-25.4783,"pop":0},{"id":12173848,"name":"Asentamiento San Pedro y San Pablo","lon":-56.96068,"lat":-25.38796,"pop":0},{"id":12172040,"name":"Asentamiento San Rafael","lon":-56.35419,"lat":-26.20341,"pop":0},{"id":12172230,"name":"Asentamiento San Rafael","lon":-57.03584,"lat":-26.89872,"pop":0},{"id":12173595,"name":"Asentamiento San Rafael","lon":-57.44555,"lat":-25.48885,"pop":0},{"id":12171584,"name":"Asentamiento San Ramón","alt":["Asentamiento San Ramon"],"lon":-56.51814,"lat":-23.81799,"pop":0},{"id":12173484,"name":"Asentamiento San Roque","lon":-57.44283,"lat":-25.43139,"pop":0},{"id":12169586,"name":"Asentamiento Santa Elena","lon":-56.43572,"lat":-25.40505,"pop":0},{"id":12169873,"name":"Asentamiento Santa Isabel","lon":-56.03578,"lat":-25.4591,"pop":0},{"id":12173319,"name":"Asentamiento Santa Librada Dos Rincón del Peñón","alt":["Asentamiento Santa Librada 2 Rincon del Penon","Asentamiento Santa Librada 2 Rincón del Peñón","Asentamiento Santa Librada Dos Rincon del Penon"],"lon":-57.50244,"lat":-25.14291,"pop":0},{"id":12173318,"name":"Asentamiento Santa Librada Uno Rincón del Peñón","alt":["Asentamiento Santa Librada 1 Rincon del Penon","Asentamiento Santa Librada 1 Rincón del Peñón","Asentamiento Santa Librada Uno Rincon del Penon"],"lon":-57.50608,"lat":-25.14545,"pop":0},{"id":12169583,"name":"Asentamiento Santa Lucía","alt":["Asentamiento Santa Lucia"],"lon":-56.42879,"lat":-25.42854,"pop":0},{"id":12171455,"name":"Asentamiento Santa María","alt":["Asentamiento Santa Maria"],"lon":-57.42231,"lat":-23.42291,"pop":0},{"id":12173387,"name":"Asentamiento Santa Rosa","lon":-57.49535,"lat":-25.16432,"pop":0},{"id":12173491,"name":"Asentamiento Santa Rosa","lon":-57.42395,"lat":-25.42802,"pop":0},{"id":12171470,"name":"Asentamiento Santo Domingo","lon":-57.33501,"lat":-23.27235,"pop":0},{"id":12172066,"name":"Asentamiento Santo Domingo","lon":-57.15799,"lat":-25.62351,"pop":0},{"id":12174145,"name":"Asentamiento Santo Domingo","lon":-54.67567,"lat":-25.54951,"pop":0},{"id":12171468,"name":"Asentamiento Santo Domingo - Divino Niño Jesús","alt":["Asentamiento Santo Domingo - Divino Nino Jesus"],"lon":-57.33107,"lat":-23.26764,"pop":0},{"id":12171469,"name":"Asentamiento Santo Domingo - Ocho de Diciembre","alt":["Asentamiento Santo Domingo - 8 de Diciembre"],"lon":-57.33312,"lat":-23.26965,"pop":0},{"id":12173371,"name":"Asentamiento Santo Domingo Salado","lon":-57.44312,"lat":-25.15733,"pop":0},{"id":12169595,"name":"Asentamiento Seis de Enero","alt":["Asentamiento 6 de Enero"],"lon":-56.42289,"lat":-25.458,"pop":0},{"id":12169606,"name":"Asentamiento Siempre Verde I","lon":-56.42301,"lat":-25.46108,"pop":0},{"id":12169607,"name":"Asentamiento Siempre Verde II","lon":-56.4227,"lat":-25.45987,"pop":0},{"id":12173929,"name":"Asentamiento Sinaí Uno, Dos y Tres","alt":["Asentamiento Sinai 1  2 y 3","Asentamiento Sinai Uno  Dos y Tres","Asentamiento Sinaí 1  2 y 3","Asentamiento Sinaí Uno  Dos y Tres"],"lon":-56.45509,"lat":-25.79741,"pop":0},{"id":12169594,"name":"Asentamiento Sol Naciente","lon":-56.42191,"lat":-25.4449,"pop":0},{"id":12171769,"name":"Asentamiento Sueños y Esperanzas","alt":["Asentamiento Suenos y Esperanzas"],"lon":-57.54691,"lat":-25.08994,"pop":0},{"id":12172014,"name":"Asentamiento Tava Joaju Renda","lon":-55.94463,"lat":-26.12205,"pop":0},{"id":12171747,"name":"Asentamiento Tierra Prometida","lon":-57.54549,"lat":-24.99961,"pop":0},{"id":12173488,"name":"Asentamiento Toledo Cañada","alt":["Asentamiento Toledo Canada"],"lon":-57.42606,"lat":-25.43281,"pop":0},{"id":12169866,"name":"Asentamiento Toro Blanco","lon":-55.98726,"lat":-25.46859,"pop":0},{"id":12169837,"name":"Asentamiento Treintiuno de Julio","alt":["Asentamiento 31 de Julio"],"lon":-56.46043,"lat":-25.42561,"pop":0},{"id":12169593,"name":"Asentamiento Tres de Noviembre","alt":["Asentamiento 3 de Noviembre"],"lon":-56.42535,"lat":-25.4431,"pop":0},{"id":12169519,"name":"Asentamiento Urbano","lon":-54.67175,"lat":-24.15144,"pop":0},{"id":12173353,"name":"Asentamiento Veinticuatro de Mayo Rincón del Peñón","alt":["Asentamiento 24 de Mayo Rincon del Penon","Asentamiento 24 de Mayo Rincón del Peñón","Asentamiento Veinticuatro de Mayo Rincon del Penon"],"lon":-57.46518,"lat":-25.14867,"pop":0},{"id":12173390,"name":"Asentamiento Villa Cristina Salado","lon":-57.43434,"lat":-25.16652,"pop":0},{"id":12169888,"name":"Asentamiento Villa Jardín","alt":["Asentamiento Villa Jardin"],"lon":-56.04984,"lat":-25.44465,"pop":0},{"id":12173698,"name":"Asentamiento Villa Navidad","lon":-57.47431,"lat":-25.19078,"pop":0},{"id":12169874,"name":"Asentamiento Villa San Juan","lon":-56.03699,"lat":-25.44269,"pop":0},{"id":12169856,"name":"Asentamiento Villa Triunfo","lon":-56.02763,"lat":-25.48851,"pop":0},{"id":12169802,"name":"Asentamiento Virgen del Carmen","lon":-56.41262,"lat":-25.46119,"pop":0},{"id":12173427,"name":"Asentamiento Virgen del Rosario","lon":-57.37091,"lat":-25.40307,"pop":0},{"id":12169524,"name":"Asentamiento Virgen Serrana","lon":-54.7523,"lat":-24.25624,"pop":0},{"id":12173620,"name":"Asentamiento Vy’a Renda - San Antonio","alt":["Asentamiento Vy'a Renda - San Antonio"],"lon":-57.37776,"lat":-25.51583,"pop":0},{"id":11711869,"name":"Aserradero Panorama","lon":-55.32983,"lat":-24.43123,"pop":0},{"id":11711868,"name":"Aserradero San Antonio","lon":-55.48593,"lat":-24.4477,"pop":0},{"id":3439391,"name":"Asseradero","lon":-56.16667,"lat":-27.21667,"pop":0},{"id":3439390,"name":"Assetadero","lon":-55.85428,"lat":-27.36607,"pop":0},{"id":3439389,"name":"Asunción","alt":["ASU","Asounsion","Asounsyon","Asounsyòn","Asounthion","Assumptio","Assuncao","Assuncion","Assunção","Asuncion","Asunciono","Asuns'jon","Asuns'on","Asunsaun","Asunsion","Asunsjon","Asunsjona","Asunsjonas","Asunson","Asunsyon","Asunsyun","Asúnsjón","Gunung Berapi Asuncion","La Muy Noble y Leal Ciudad de Nuestra Senora Santa Maria de la Asuncion","La Muy Noble y Leal Ciudad de Nuestra Señora Santa María de la Asunción","Nuestra Senora Santa Maria de la Asuncion","Nuestra Señora Santa María de la Asunción","Paraguay","acunciyon","asnshn","asunshion","asunsion","asunsioni","asunsiyona","asusi'ona","aswnsywn","xa sun si xxng","ya song sen","Ασουνθιόν","Ασουνσιόν","Асунсион","Асунсьйон","Асунсьон","Асунсьён","Ասունսյոն","אסונסיאן","אסונסיון","آسونسیون","أسونسيون","ئاسۇنسىئون","اسنشن","اسونسیون","आसुन्सियोन","ਅਸੂੰਸੀਓਨ","அசுன்சியோன்","ಅಸೂನ್‌ಸಿಯಾನ್","อะซุนซิออง","ཨ་སུན་སི་འན།","ასუნსიონი","አሱንሲዮን","アスンシオン","亞松森","아순시온"],"lon":-57.647,"lat":-25.28646,"pop":1482200},{"id":3867451,"name":"Atajado","alt":["El Atajado"],"lon":-62.36667,"lat":-22.1,"pop":0},{"id":3439386,"name":"Atyrá","alt":["Atyra"],"lon":-57.17289,"lat":-25.2794,"pop":4768},{"id":3439384,"name":"Audivert","lon":-58.35,"lat":-20,"pop":0},{"id":3867450,"name":"Aurora","lon":-61.33333,"lat":-23.43333,"pop":0},{"id":12174058,"name":"Aurora","lon":-54.71754,"lat":-25.65894,"pop":0},{"id":12174085,"name":"Aurora","lon":-54.6499,"lat":-25.4157,"pop":0},{"id":11730597,"name":"Aveiro","alt":["Compania Aveiro","Compañía Aveiro"],"lon":-57.38289,"lat":-25.47385,"pop":0},{"id":12172328,"name":"Aviación","alt":["Aviacion"],"lon":-57.64395,"lat":-27.33524,"pop":0},{"id":11762049,"name":"Ayala-Cué","alt":["Ayala-Cue"],"lon":-56.11095,"lat":-26.49681,"pop":0},{"id":3439378,"name":"Ayolas","alt":["AYO","Juan de Ayolas"],"lon":-56.83953,"lat":-27.38421,"pop":12061},{"id":12171422,"name":"Azote’y","alt":["Azote'y"],"lon":-56.48978,"lat":-23.3269,"pop":0},{"id":12169578,"name":"Azucena","lon":-56.43902,"lat":-25.46077,"pop":0},{"id":12173890,"name":"Azucena","lon":-56.24247,"lat":-25.72047,"pop":0},{"id":11767766,"name":"Baez Ñu","alt":["Baez Nu"],"lon":-55.99322,"lat":-25.2822,"pop":0},{"id":11721962,"name":"Bajo Guazú","alt":["Bajo Guazu"],"lon":-56.90531,"lat":-25.5837,"pop":0},{"id":12169803,"name":"Balcón Ovetense","alt":["Balcon Ovetense"],"lon":-56.4219,"lat":-25.45138,"pop":0},{"id":3867448,"name":"Ballivián","lon":-62.16667,"lat":-22.68333,"pop":0},{"id":11673301,"name":"Bañado","alt":["Banado"],"lon":-57.64293,"lat":-25.33101,"pop":0},{"id":11673331,"name":"Bañado Cará Cará","alt":["Banado Cara Cara"],"lon":-57.59929,"lat":-25.25186,"pop":0},{"id":11715313,"name":"Banco Poí-Pucú","alt":["Banco Poi-Pucu"],"lon":-57.68239,"lat":-26.69692,"pop":0},{"id":3439372,"name":"Banco San Miguel","lon":-57.61667,"lat":-25.26667,"pop":0},{"id":3867447,"name":"Bandera Blanca","lon":-61.86667,"lat":-23.11667,"pop":0},{"id":11673411,"name":"Barcequillo","lon":-57.53764,"lat":-25.34508,"pop":0},{"id":11718591,"name":"Barrancas de Santa Rosa","lon":-57.69957,"lat":-25.66375,"pop":0},{"id":11718584,"name":"Barrancas Mercedes","lon":-57.70894,"lat":-25.72144,"pop":0},{"id":11722304,"name":"Barrero Azul","lon":-56.82968,"lat":-25.94124,"pop":0},{"id":3439369,"name":"Barrero Pyta","lon":-56.68333,"lat":-25.66667,"pop":0},{"id":11695258,"name":"Barrio 7 de Agosto Km 11","lon":-54.80616,"lat":-26.40325,"pop":200},{"id":12171845,"name":"Barrio Alegre","lon":-55.83191,"lat":-27.34344,"pop":0},{"id":12174046,"name":"Barrio Alejandrino","lon":-55.10457,"lat":-25.8142,"pop":0},{"id":9883715,"name":"Barrio Allegre","lon":-57.13878,"lat":-25.38478,"pop":0},{"id":11675352,"name":"Barrio Amambay","lon":-54.64705,"lat":-25.52178,"pop":0},{"id":12172137,"name":"Barrio Amistad","lon":-57.24447,"lat":-25.96938,"pop":0},{"id":3439367,"name":"Barrio Asunción","alt":["Barrio Asuncion"],"lon":-57.08606,"lat":-25.53398,"pop":0},{"id":11673659,"name":"Barrio B. R. González","alt":["Barrio B. R. Gonzalez"],"lon":-57.52426,"lat":-25.34777,"pop":0},{"id":9883721,"name":"Barrio Buena Vista","lon":-57.14942,"lat":-25.38284,"pop":0},{"id":11682211,"name":"Barrio Carupayty","lon":-55.8614,"lat":-27.33226,"pop":0},{"id":12169910,"name":"Barrio Centro","lon":-55.81968,"lat":-24.99609,"pop":0},{"id":11695253,"name":"Barrio Cerrito","lon":-54.81719,"lat":-26.53237,"pop":100},{"id":11695254,"name":"Barrio Chacoré","lon":-54.80517,"lat":-26.46081,"pop":200},{"id":12173856,"name":"Barrio Cinco","alt":["Barrio 5"],"lon":-57.28744,"lat":-25.30943,"pop":0},{"id":12171972,"name":"Barrio Cuatro","alt":["Barrio 4"],"lon":-56.22737,"lat":-26.93213,"pop":0},{"id":12172049,"name":"Barrio Cuatro","alt":["Barrio 4"],"lon":-57.23564,"lat":-25.48102,"pop":0},{"id":9883717,"name":"Barrio Daniel Escurra","lon":-57.13569,"lat":-25.39161,"pop":0},{"id":11673328,"name":"Barrio de La Residenta","lon":-57.55549,"lat":-25.23563,"pop":0},{"id":3439365,"name":"Barrio del Carmen","lon":-56.69931,"lat":-25.33702,"pop":0},{"id":11673625,"name":"Barrio Don Bosco","lon":-57.53444,"lat":-25.31742,"pop":0},{"id":12171970,"name":"Barrio Dos","alt":["Barrio 2"],"lon":-56.21675,"lat":-26.93619,"pop":0},{"id":12172047,"name":"Barrio Dos","alt":["Barrio 2"],"lon":-57.2369,"lat":-25.48975,"pop":0},{"id":11682215,"name":"Barrio Fabril","lon":-55.87053,"lat":-27.32855,"pop":0},{"id":12173744,"name":"Barrio Fátima","alt":["Barrio Fatima"],"lon":-57.0545,"lat":-25.46064,"pop":0},{"id":9883718,"name":"Barrio Industrial","lon":-57.14586,"lat":-25.38912,"pop":0},{"id":9883642,"name":"Barrio Inmaculada","lon":-57.44944,"lat":-23.39516,"pop":0},{"id":3439364,"name":"Barrio Itá-Cuá","alt":["Barrio Ita-Cua","Barrio Ita-cua","Barrio Itá-cuá"],"lon":-57.17442,"lat":-25.01116,"pop":0},{"id":9883641,"name":"Barrio Itacurubi","lon":-57.42541,"lat":-23.40406,"pop":0},{"id":9883716,"name":"Barrio Kennedy","lon":-57.13182,"lat":-25.38556,"pop":0},{"id":11673546,"name":"Barrio Monseñor Bogarín","alt":["Barrio Monsenor Bogarin"],"lon":-57.52171,"lat":-25.21497,"pop":0},{"id":12169903,"name":"Barrio Municipalidad","lon":-55.91882,"lat":-25.05356,"pop":0},{"id":12171948,"name":"Barrio Nuevo","lon":-55.77185,"lat":-26.7535,"pop":0},{"id":11743912,"name":"Barrio Nuevo Horizonte","lon":-55.01147,"lat":-26.76331,"pop":0},{"id":12171961,"name":"Barrio Obrero","lon":-56.01828,"lat":-27.09789,"pop":0},{"id":11769513,"name":"Barrio Ocho de Diciembre","lon":-55.32833,"lat":-25.37823,"pop":0},{"id":9883643,"name":"Barrio Oga Renda","lon":-57.42961,"lat":-23.38843,"pop":0},{"id":9883720,"name":"Barrio Pozo De La Virgen","lon":-57.14684,"lat":-25.3785,"pop":0},{"id":12173812,"name":"Barrio Rosa Mística","alt":["Barrio Rosa Mistica"],"lon":-57.1784,"lat":-25.28475,"pop":0},{"id":11673634,"name":"Barrio San Francisco","lon":-57.49233,"lat":-25.3192,"pop":0},{"id":11695248,"name":"Barrio San Isidro","lon":-54.84083,"lat":-26.50768,"pop":200},{"id":11761906,"name":"Barrio San Isidro","lon":-55.20726,"lat":-26.61524,"pop":0},{"id":3439361,"name":"Barrio San Isidro (2)","lon":-57.5,"lat":-25.36667,"pop":0},{"id":11744550,"name":"Barrio San Jorge","lon":-56.43907,"lat":-24.17199,"pop":0},{"id":11673409,"name":"Barrio San José","alt":["Barrio San Jose"],"lon":-57.56241,"lat":-25.34836,"pop":0},{"id":11673801,"name":"Barrio San José","alt":["Barrio San Jose"],"lon":-57.49633,"lat":-25.34027,"pop":0},{"id":12171957,"name":"Barrio San José","alt":["Barrio San Jose"],"lon":-55.80256,"lat":-27.22181,"pop":0},{"id":11743929,"name":"Barrio San Lorenzo","lon":-55.16455,"lat":-26.92872,"pop":0},{"id":11743931,"name":"Barrio San Luis","lon":-55.21823,"lat":-26.94634,"pop":0},{"id":3439360,"name":"Barrio San Miguel","lon":-56.06699,"lat":-25.43377,"pop":0},{"id":11743153,"name":"Barrio San Miguel","lon":-55.59867,"lat":-27.09114,"pop":0},{"id":11673807,"name":"Barrio San Pedro","lon":-57.48577,"lat":-25.36918,"pop":0},{"id":11675349,"name":"Barrio Santa Ana","lon":-54.63983,"lat":-25.53473,"pop":0},{"id":10342021,"name":"Barrio Santa Clara","lon":-57.29473,"lat":-25.30605,"pop":0},{"id":11744575,"name":"Barrio Santa Clara","lon":-56.43103,"lat":-24.21835,"pop":0},{"id":11673518,"name":"Barrio Santa Cruz","lon":-57.50985,"lat":-25.25318,"pop":0},{"id":11675270,"name":"Barrio Santa Inés","alt":["Barrio Santa Ines","Santa Ines","Santa Inés"],"lon":-54.6504,"lat":-25.56813,"pop":0},{"id":11673623,"name":"Barrio Santa Librada","lon":-57.53197,"lat":-25.30651,"pop":0},{"id":3439359,"name":"Barrio Santa Maria","lon":-55.82863,"lat":-25.37161,"pop":0},{"id":11743914,"name":"Barrio Santa Rosa","lon":-55.03032,"lat":-26.76673,"pop":0},{"id":11761901,"name":"Barrio Santo Domingo","lon":-55.12081,"lat":-26.67051,"pop":0},{"id":11695251,"name":"Barrio Segunda Línea","lon":-54.82264,"lat":-26.51513,"pop":200},{"id":12173445,"name":"Barrio Seis","alt":["Barrio 6"],"lon":-57.33278,"lat":-25.39439,"pop":0},{"id":12171971,"name":"Barrio Tres","alt":["Barrio 3"],"lon":-56.22432,"lat":-26.93905,"pop":0},{"id":12172048,"name":"Barrio Tres","alt":["Barrio 3"],"lon":-57.24052,"lat":-25.48501,"pop":0},{"id":11674770,"name":"Barrio Tres de Febrero","lon":-54.38031,"lat":-24.03964,"pop":0},{"id":12171969,"name":"Barrio Uno","alt":["Barrio 1"],"lon":-56.22053,"lat":-26.92919,"pop":0},{"id":12172046,"name":"Barrio Uno","alt":["Barrio 1"],"lon":-57.23163,"lat":-25.4861,"pop":0},{"id":11743152,"name":"Barrio Villa Alegre","lon":-55.58348,"lat":-27.0951,"pop":0},{"id":11673657,"name":"Barrio Villa del Maestro","lon":-57.52131,"lat":-25.34615,"pop":0},{"id":9883639,"name":"Barrio Villa Oliva","lon":-57.42828,"lat":-23.39694,"pop":0},{"id":9255321,"name":"Barrio Villa Univeritaria","lon":-57.52407,"lat":-25.33165,"pop":0},{"id":9883719,"name":"Barrio Ybu","lon":-57.14732,"lat":-25.38501,"pop":0},{"id":11769637,"name":"Barrio Yguazú","alt":["Barrio Yguazu"],"lon":-55.37025,"lat":-25.38448,"pop":0},{"id":11740932,"name":"Barro Blanco","lon":-54.93917,"lat":-25.11605,"pop":0},{"id":11742911,"name":"Barro Negro","lon":-54.94024,"lat":-25.14085,"pop":0},{"id":11717972,"name":"Basilio-Cué","alt":["Basilio-Cue"],"lon":-56.17361,"lat":-24.43488,"pop":0},{"id":3867446,"name":"Batallón Ingeniería Número Cuatro Aquidabán","alt":["Batallon Ingenieria No. 4 Aquidaban","Batallon Ingenieria Numero Cuatro Aquidaban","Batallon Ingeniero Numero Cuatro Aquidaban","Batallón Ingeniero Número Cuatro Aquidabán","Batallón Ingeniería No. 4 Aquidabán"],"lon":-60.96444,"lat":-21.75417,"pop":0},{"id":3439357,"name":"Batallón Ingeniero Número Cinco P.J. Caballero","lon":-58.71667,"lat":-24.65,"pop":0},{"id":3867445,"name":"Batallón Número Uno Palmar de las Islas","lon":-60.56667,"lat":-19.6,"pop":0},{"id":11713144,"name":"Baules","lon":-57.32718,"lat":-27.33635,"pop":0},{"id":3867444,"name":"Beatriz","lon":-62.31667,"lat":-21.81667,"pop":0},{"id":3439355,"name":"Belén","alt":["Belen"],"lon":-57.26175,"lat":-23.46987,"pop":1621},{"id":3439354,"name":"Belén Tuyá","alt":["Belen Tuya","Estancia Belen","Estancia Belén"],"lon":-56.58333,"lat":-26.41667,"pop":0},{"id":3439352,"name":"Bella Vista","alt":["Bella Vista de Alto Parana","Bella Vista de Alto Paraná","Colonia Bella Vista"],"lon":-55.5717,"lat":-27.0491,"pop":2334},{"id":3439353,"name":"Bella Vista","alt":["Bella Vista Norte"],"lon":-56.51523,"lat":-22.12226,"pop":5653},{"id":3867443,"name":"Bella Vista","lon":-62.11667,"lat":-22.78333,"pop":0},{"id":11673359,"name":"Bella Vista","lon":-57.59099,"lat":-25.27732,"pop":0},{"id":11739392,"name":"Bella Vista","lon":-55.62422,"lat":-24.81056,"pop":0},{"id":12174050,"name":"Bella Vista","lon":-55.08568,"lat":-25.79984,"pop":0},{"id":12174091,"name":"Bella Vista","lon":-54.65702,"lat":-25.40732,"pop":0},{"id":11724058,"name":"Beni Loma","lon":-57.33234,"lat":-25.79152,"pop":0},{"id":11773050,"name":"Benito-Cué","alt":["Benito-Cue"],"lon":-56.24381,"lat":-25.98027,"pop":0},{"id":3439348,"name":"Benjamín Aceval","alt":["Benjamin Aceval","Colonia Aceval","Colonia Benjamin Aceval","Colonia Benjamín Aceval"],"lon":-57.55239,"lat":-24.9974,"pop":7751},{"id":11767613,"name":"Bergthal Campo Siete","lon":-55.64208,"lat":-25.27725,"pop":0},{"id":11673395,"name":"Bernardino Caballero","alt":["General Caballero"],"lon":-57.56749,"lat":-25.3306,"pop":0},{"id":12171600,"name":"Bernardino Caballero","lon":-56.4493,"lat":-24.05913,"pop":0},{"id":12171872,"name":"Bernardino Caballero","lon":-55.61001,"lat":-27.06035,"pop":0},{"id":12173996,"name":"Bernardino Caballero","lon":-55.74568,"lat":-22.53748,"pop":0},{"id":12174010,"name":"Betarran","lon":-54.92014,"lat":-24.97407,"pop":0},{"id":11762087,"name":"Biyú","alt":["Biyu"],"lon":-56.10229,"lat":-26.28083,"pop":0},{"id":3439343,"name":"Blanco Nu","lon":-57.76667,"lat":-27.23333,"pop":0},{"id":3439342,"name":"Blas Garay","lon":-56.21667,"lat":-25.51667,"pop":0},{"id":11763187,"name":"Blumenbrt Tres","lon":-56.45942,"lat":-23.6673,"pop":0},{"id":11767612,"name":"Blumengard Campo Seis","lon":-55.63006,"lat":-25.28652,"pop":0},{"id":3439075,"name":"Blumengart","lon":-59.9033,"lat":-22.36548,"pop":0},{"id":11767604,"name":"Blumethal","lon":-55.71882,"lat":-25.40598,"pop":0},{"id":11766991,"name":"Boca Paso","lon":-56.39512,"lat":-25.23932,"pop":0},{"id":11773073,"name":"Bola Cuá","alt":["Bola Cua"],"lon":-56.11478,"lat":-25.75662,"pop":0},{"id":11744379,"name":"Bola-Cua","lon":-56.61048,"lat":-24.45584,"pop":0},{"id":11720194,"name":"Bolacuá","alt":["Bolacua"],"lon":-56.91622,"lat":-25.72686,"pop":0},{"id":11686221,"name":"Bonete","lon":-56.45362,"lat":-27.14684,"pop":0},{"id":3439332,"name":"Boquerón","lon":-58.36667,"lat":-26.96667,"pop":0},{"id":3439334,"name":"Boquerón","alt":["Boqueron"],"lon":-56.24232,"lat":-26.25266,"pop":0},{"id":11675401,"name":"Boquerón","alt":["Barrio Boqueron","Barrio Boquerón","Boqueron"],"lon":-54.62322,"lat":-25.52106,"pop":0},{"id":11682212,"name":"Boquerón","alt":["Boqueron"],"lon":-55.86073,"lat":-27.32861,"pop":0},{"id":11722296,"name":"Boquerón","alt":["Boqueron"],"lon":-56.95218,"lat":-25.968,"pop":0},{"id":11762083,"name":"Boquerón","alt":["Boqueron"],"lon":-56.18326,"lat":-26.44304,"pop":0},{"id":11767769,"name":"Boquerón","alt":["Boqueron"],"lon":-55.99413,"lat":-25.3571,"pop":0},{"id":12169580,"name":"Boquerón","alt":["Boqueron"],"lon":-56.44626,"lat":-25.46763,"pop":0},{"id":12171446,"name":"Boquerón","alt":["Boqueron"],"lon":-57.42951,"lat":-23.40339,"pop":0},{"id":12172185,"name":"Boquerón","alt":["Boqueron"],"lon":-57.04124,"lat":-26.53305,"pop":0},{"id":12172194,"name":"Boquerón","alt":["Boqueron"],"lon":-57.13853,"lat":-26.66982,"pop":0},{"id":12173583,"name":"Boquerón","alt":["Boqueron"],"lon":-57.40366,"lat":-25.30586,"pop":0},{"id":11713357,"name":"Boquerón y Sauce","alt":["Boqueron y Sauce"],"lon":-58.55354,"lat":-27.18314,"pop":0},{"id":3439330,"name":"Borja","alt":["Ihacanguazu","Ihacanguazú","Yhacangauzu"],"lon":-56.49801,"lat":-25.95272,"pop":325},{"id":11673338,"name":"Botánico","alt":["Botanico"],"lon":-57.57049,"lat":-25.24342,"pop":0},{"id":11717082,"name":"Brasil-I","lon":-56.02976,"lat":-24.3944,"pop":0},{"id":12172042,"name":"Brisas","lon":-56.37861,"lat":-26.18986,"pop":0},{"id":12174048,"name":"Buen Jesús","alt":["Buen Jesus"],"lon":-55.11155,"lat":-25.82341,"pop":0},{"id":3439325,"name":"Buena Vista","lon":-56.08334,"lat":-26.18705,"pop":1580},{"id":3439326,"name":"Buena Vista","lon":-55.56667,"lat":-25.91667,"pop":0},{"id":3867441,"name":"Buena Vista","lon":-62.58333,"lat":-22.3,"pop":0},{"id":11767614,"name":"Buena Vista","lon":-55.57283,"lat":-25.26017,"pop":0},{"id":12169892,"name":"Buena Vista","lon":-55.72425,"lat":-25.37297,"pop":0},{"id":12171832,"name":"Buena Vista","lon":-55.85193,"lat":-27.35693,"pop":0},{"id":12171893,"name":"Buena Vista","lon":-55.57614,"lat":-27.03451,"pop":0},{"id":11718603,"name":"Buey Rodeo","lon":-57.76879,"lat":-25.76351,"pop":0},{"id":11763286,"name":"Bumenthal Dos y Medio","lon":-56.47817,"lat":-23.68089,"pop":0},{"id":11763460,"name":"Ca’aguy Cupé","alt":["Ca'aguy Cupe"],"lon":-56.61453,"lat":-23.64185,"pop":0},{"id":11711880,"name":"Ca’Aro Ý","alt":["Ca'Aro Y"],"lon":-55.53501,"lat":-24.33939,"pop":0},{"id":3439320,"name":"Caacupé","alt":["Caacupe","Kaakupe","ka ku pei","kakupe","kayakwph","Каакупе","کائاکوپه","کاکوپے","კააკუპე","卡庫佩","카쿠페"],"lon":-57.14217,"lat":-25.38575,"pop":56864},{"id":3439321,"name":"Caacupé","lon":-58.65,"lat":-19.7,"pop":0},{"id":11769668,"name":"Caacupé","alt":["Caacupe"],"lon":-54.9731,"lat":-25.34448,"pop":0},{"id":12169554,"name":"Caacupé","alt":["Caacupe"],"lon":-56.24787,"lat":-25.07392,"pop":0},{"id":12171719,"name":"Caacupé","alt":["Caacupe"],"lon":-57.90138,"lat":-21.68861,"pop":0},{"id":12171934,"name":"Caacupé","alt":["Caacupe"],"lon":-55.26151,"lat":-26.53398,"pop":0},{"id":12171983,"name":"Caacupé","alt":["Caacupe"],"lon":-56.33679,"lat":-27.31584,"pop":0},{"id":12171993,"name":"Caacupé","alt":["Caacupe"],"lon":-56.52033,"lat":-27.09097,"pop":0},{"id":12172028,"name":"Caacupé","alt":["Caacupe"],"lon":-56.40512,"lat":-26.45803,"pop":0},{"id":12172210,"name":"Caacupé","alt":["Caacupe"],"lon":-56.94632,"lat":-26.77799,"pop":0},{"id":12172247,"name":"Caacupé","alt":["Caacupe"],"lon":-56.76643,"lat":-27.14459,"pop":0},{"id":11731554,"name":"Caacupé Í","alt":["Caacupe I"],"lon":-56.86111,"lat":-25.33952,"pop":0},{"id":3439366,"name":"Caacupemí","alt":["Barrio Caacupe Mi","Barrio Caacupé Mí","Caacupe-Mi","Caacupemi","Caacupé-Mí"],"lon":-57.56565,"lat":-25.22574,"pop":0},{"id":12174087,"name":"Caacupemí","alt":["Caacupemi"],"lon":-54.64286,"lat":-25.41876,"pop":0},{"id":11730729,"name":"Caacupemí Uno","alt":["Caacupemi 1","Caacupemi Uno","Caacupemí 1","Compania Caacupe Mi","Compañía Caacupe Mi"],"lon":-57.41812,"lat":-25.29691,"pop":0},{"id":3439316,"name":"Caaguazú","lon":-56.78333,"lat":-27.1,"pop":0},{"id":3439317,"name":"Caaguazú","alt":["Caaguazu"],"lon":-56.01603,"lat":-25.47104,"pop":54808},{"id":11730592,"name":"Caaguazú","alt":["Caaguazu","Compania Caaguazu","Compañía Caaguazú"],"lon":-57.36518,"lat":-25.46612,"pop":0},{"id":11731114,"name":"Caaguazú","alt":["Caaguazu"],"lon":-57.52631,"lat":-25.40918,"pop":0},{"id":11673813,"name":"Caaguy Cupé","alt":["Caaguy Cupe"],"lon":-57.52484,"lat":-25.21757,"pop":0},{"id":11772452,"name":"Caaguy Guazú","alt":["Caaguy Guazu"],"lon":-56.61548,"lat":-25.8293,"pop":0},{"id":3439309,"name":"Caaguy Poí","alt":["Caaguy Poi","Caagüy Poí"],"lon":-56.28247,"lat":-23.83046,"pop":0},{"id":3439308,"name":"Caaguy Porá","alt":["Caaguy Pora","Caagüy Porá"],"lon":-55.81063,"lat":-23.95006,"pop":0},{"id":11714822,"name":"Caaguý-Pucú","alt":["Caaguy-Pucu"],"lon":-57.72075,"lat":-26.80457,"pop":0},{"id":3439307,"name":"Caaguy-rupé","alt":["Caaguy cupe","Caaguy cupé","Caaguy-rupe"],"lon":-56.88333,"lat":-26.11667,"pop":0},{"id":3439304,"name":"Caapucú","alt":["Caapucu"],"lon":-57.18212,"lat":-26.23523,"pop":2284},{"id":11686291,"name":"Caapucú","alt":["Caapucu"],"lon":-56.67295,"lat":-27.22714,"pop":0},{"id":11723487,"name":"Caápucu-Mi","alt":["Caapucu-Mi"],"lon":-57.39935,"lat":-25.84384,"pop":0},{"id":3439302,"name":"Caarendy Guazú","lon":-55.21667,"lat":-25.46667,"pop":0},{"id":3439303,"name":"Caarendy Guazú","alt":["Caarendy Guazu"],"lon":-55.26019,"lat":-25.47571,"pop":0},{"id":11723260,"name":"Caaty-Mí","alt":["Caaty-Mi"],"lon":-56.81749,"lat":-25.90081,"pop":0},{"id":11767005,"name":"Caaty-Mí","alt":["Caaty-Mi"],"lon":-56.29487,"lat":-25.11276,"pop":0},{"id":11773706,"name":"Caaty-Mí","alt":["Caaty-Mi"],"lon":-56.43103,"lat":-26.08526,"pop":0},{"id":3439297,"name":"Caazapá","alt":["Caazapa","Kaasapa","Kaazapa","ka sa pa","kasapa","Каазапа","کاساپا","კაასაპა","卡薩帕","카사파"],"lon":-56.36806,"lat":-26.19583,"pop":23996},{"id":11762198,"name":"Cabacuá-í","alt":["Cabacua-i"],"lon":-55.85616,"lat":-26.28261,"pop":0},{"id":3439289,"name":"Caballero Punta","lon":-56.98924,"lat":-25.93197,"pop":0},{"id":11739386,"name":"Caballero-Cue","lon":-55.20298,"lat":-24.93315,"pop":0},{"id":3439288,"name":"Caballo Muerto","lon":-59.95,"lat":-23.53333,"pop":0},{"id":11712832,"name":"Cabaña María Milagros","alt":["Cabana Maria Milagros"],"lon":-57.04809,"lat":-26.84848,"pop":0},{"id":11767399,"name":"Cabaña San Antonin","alt":["Cabana San Antonin"],"lon":-55.74463,"lat":-25.29231,"pop":0},{"id":11773665,"name":"Cabaña Santa María","alt":["Cabana Santa Maria"],"lon":-56.3374,"lat":-26.14899,"pop":0},{"id":3439280,"name":"Cabayú Retá","alt":["Cabayu Reta","Cabayu-reta","Cabayú-retá"],"lon":-56.3818,"lat":-26.14397,"pop":0},{"id":11719045,"name":"Cabezuda","lon":-55.9126,"lat":-24.69098,"pop":0},{"id":11719046,"name":"Cabezudita","lon":-55.92371,"lat":-24.73429,"pop":0},{"id":11739542,"name":"Cabo Cue","lon":-55.84839,"lat":-24.78027,"pop":0},{"id":3439279,"name":"Cabo Juan","lon":-59.7,"lat":-23.01667,"pop":0},{"id":11686294,"name":"Cabral","lon":-56.71137,"lat":-27.15158,"pop":0},{"id":3439275,"name":"Cabral-cué","lon":-56.66667,"lat":-25.55,"pop":0},{"id":11716928,"name":"Cachí-Cué","alt":["Cachi-Cue"],"lon":-57.89233,"lat":-26.47725,"pop":0},{"id":3439274,"name":"Cacique","lon":-55.03859,"lat":-25.09249,"pop":0},{"id":3439273,"name":"Cacique Bueno","lon":-59.61667,"lat":-22.3,"pop":0},{"id":3439272,"name":"Cacique Ramón","lon":-59.78333,"lat":-22.46667,"pop":0},{"id":3439268,"name":"Cafetal Cerro Cuatia","lon":-55.61667,"lat":-23.13333,"pop":0},{"id":3439267,"name":"Cafetal San Antonio","lon":-55.7,"lat":-23.25,"pop":0},{"id":11762194,"name":"Caguaré","alt":["Caguare"],"lon":-55.949,"lat":-26.28976,"pop":0},{"id":3867438,"name":"Calixto Benítez","lon":-60.08333,"lat":-22.65,"pop":0},{"id":12172076,"name":"Calle","lon":-57.16609,"lat":-25.61148,"pop":0},{"id":12169838,"name":"Calle Arroz","lon":-56.44942,"lat":-25.41378,"pop":0},{"id":12174134,"name":"Calle Dieciséis Acaray","alt":["Calle 16 Acaray","Calle Dieciseis Acaray"],"lon":-54.75991,"lat":-25.47258,"pop":0},{"id":12174123,"name":"Calle Dieciséis Monday","alt":["Calle 16 Monday","Calle Dieciseis Monday"],"lon":-54.76023,"lat":-25.50053,"pop":0},{"id":12169828,"name":"Calle Giménez","alt":["Calle Gimenez"],"lon":-56.46574,"lat":-25.43935,"pop":0},{"id":12169812,"name":"Calle Hovy","lon":-56.42096,"lat":-25.4681,"pop":0},{"id":12169834,"name":"Calle Itacurubí","alt":["Calle Itacurubi"],"lon":-56.46689,"lat":-25.42899,"pop":0},{"id":12169815,"name":"Calle Moreira","lon":-56.39829,"lat":-25.45829,"pop":0},{"id":11719583,"name":"Calle Po-í","alt":["Calle Po-i"],"lon":-57.26209,"lat":-25.58618,"pop":0},{"id":11730594,"name":"Calle Po’i","alt":["Calle Po'i","Compania Calle Poi","Compañía Calle Poi"],"lon":-57.35347,"lat":-25.45242,"pop":0},{"id":12174150,"name":"Calle Siete","alt":["Calle 7"],"lon":-54.66058,"lat":-25.55343,"pop":0},{"id":11730598,"name":"Calle Yvaté","alt":["Calle Yvate","Compania Calle Ybate","Compañía Calle Ybaté"],"lon":-57.39709,"lat":-25.49128,"pop":0},{"id":11718561,"name":"Cambá Rembe","alt":["Camba Rembe"],"lon":-56.09986,"lat":-24.11927,"pop":0},{"id":11767768,"name":"Cambay","lon":-56.00126,"lat":-25.32398,"pop":0},{"id":3439256,"name":"Cambyretá","alt":["Cambyreta"],"lon":-55.76198,"lat":-27.3586,"pop":822},{"id":3439254,"name":"Campamento","lon":-58.66667,"lat":-21.93333,"pop":0},{"id":3439255,"name":"Campamento","lon":-58.5,"lat":-21.71667,"pop":0},{"id":3439253,"name":"Campamento Aña-retá","alt":["Campamento Ana-reta","Campo Ana-reta"],"lon":-58.91667,"lat":-20.6,"pop":0},{"id":3439252,"name":"Campamento Cabichu-í","lon":-58.48333,"lat":-20.38333,"pop":0},{"id":11719801,"name":"Campamento Cerro León","alt":["Campamento Cerro Leon"],"lon":-57.17955,"lat":-25.49761,"pop":0},{"id":3439251,"name":"Campamento Final","lon":-59.13333,"lat":-21.45,"pop":0},{"id":3439250,"name":"Campamento Mercedita","alt":["Campamento Santa Mercedita"],"lon":-58.56667,"lat":-20.41667,"pop":0},{"id":3439249,"name":"Campamento Michin","alt":["Campo Michin"],"lon":-59.48333,"lat":-19.75,"pop":0},{"id":3439247,"name":"Campamento Quince de Agosto","lon":-58.48333,"lat":-21.46667,"pop":0},{"id":3439248,"name":"Campamento Quince de Agosto","lon":-58.88333,"lat":-20.6,"pop":0},{"id":3439246,"name":"Campamento Rivarola","alt":["Campamento V. Rivarola"],"lon":-58.73333,"lat":-19.6,"pop":0},{"id":11766932,"name":"Campito","lon":-56.1807,"lat":-25.0537,"pop":0},{"id":3439244,"name":"Campo Aceval","lon":-59.85,"lat":-23.18333,"pop":0},{"id":3439463,"name":"Campo Agua É","alt":["Campo Agua E","Campo Aguajhe","Campo Aguajhé"],"lon":-55.50453,"lat":-24.45118,"pop":0},{"id":3439242,"name":"Campo Alegre","lon":-55.29031,"lat":-25.61599,"pop":0},{"id":3439243,"name":"Campo Alegre","lon":-59.85,"lat":-24.05,"pop":0},{"id":11743166,"name":"Campo Ángel","alt":["Campo Angel"],"lon":-55.70415,"lat":-27.01218,"pop":0},{"id":11770544,"name":"Campo Caaguazú","alt":["Campo Caaguazu"],"lon":-56.19716,"lat":-25.47084,"pop":0},{"id":11766942,"name":"Campo Caaity","lon":-56.15154,"lat":-25.10282,"pop":0},{"id":11766934,"name":"Campo Carandayty","lon":-56.20326,"lat":-25.0478,"pop":0},{"id":11734187,"name":"Campo Carreta","lon":-55.38977,"lat":-24.87817,"pop":0},{"id":11765900,"name":"Campo Caticuá","alt":["Campo Caticua"],"lon":-57.08326,"lat":-24.943,"pop":0},{"id":3439241,"name":"Campo Cuarentiocho","lon":-59.66667,"lat":-22.75,"pop":0},{"id":11718590,"name":"Campo de Pinasco","lon":-57.63186,"lat":-25.68955,"pop":0},{"id":3439240,"name":"Campo Esperanza","lon":-59.65,"lat":-22.33333,"pop":0},{"id":11770177,"name":"Campo Grande","alt":["Kilometro Veinte","Kilómetro Veinte"],"lon":-54.69466,"lat":-25.28507,"pop":0},{"id":12173711,"name":"Campo Grande","lon":-57.5304,"lat":-25.28027,"pop":0},{"id":11732294,"name":"Campo Guana","lon":-56.73279,"lat":-24.65324,"pop":0},{"id":11762926,"name":"Campo Guazú","alt":["Campo Guazu"],"lon":-56.86506,"lat":-24.58748,"pop":0},{"id":11744800,"name":"Campo Ignacio-Cué","alt":["Campo Ignacio-Cue"],"lon":-56.99602,"lat":-24.06278,"pop":0},{"id":3439239,"name":"Campo Lata","lon":-59.5,"lat":-22.26667,"pop":0},{"id":11770560,"name":"Campo Leiva-í","alt":["Campo Leiva-i"],"lon":-56.49174,"lat":-25.35062,"pop":0},{"id":11766949,"name":"Campo Limpio","lon":-56.47538,"lat":-25.10915,"pop":0},{"id":11732119,"name":"Campo Loma Jhovy","lon":-56.72926,"lat":-24.61652,"pop":0},{"id":11764755,"name":"Campo Loma Pero","lon":-57.01987,"lat":-24.33214,"pop":0},{"id":11712987,"name":"Campo Machol Cué","alt":["Campo Machol Cue"],"lon":-57.12483,"lat":-27.40534,"pop":0},{"id":11770090,"name":"Campo María Auxiliadora","alt":["Campo Maria Auxiliadora"],"lon":-55.17199,"lat":-25.50048,"pop":0},{"id":11767640,"name":"Campo Mburicá","alt":["Campo Mburica"],"lon":-55.61711,"lat":-25.41311,"pop":0},{"id":11767605,"name":"Campo Once Halbstadt","lon":-55.74169,"lat":-25.38582,"pop":0},{"id":11766935,"name":"Campo Paso Itá","alt":["Campo Paso Ita"],"lon":-56.2179,"lat":-25.0604,"pop":0},{"id":11713138,"name":"Campo Pindoty","lon":-57.38486,"lat":-27.38413,"pop":0},{"id":11770935,"name":"Campo Pindoty","lon":-56.49019,"lat":-25.44054,"pop":0},{"id":11770903,"name":"Campo Plácido","alt":["Campo Placido"],"lon":-56.51239,"lat":-25.38948,"pop":0},{"id":11739589,"name":"Campo Redondo","lon":-55.12569,"lat":-25.00596,"pop":0},{"id":3439236,"name":"Campo San Luis","lon":-55.91667,"lat":-22.31667,"pop":0},{"id":11762324,"name":"Campo Sanguina-Cue","lon":-56.52835,"lat":-24.01266,"pop":0},{"id":11767796,"name":"Campo Schonau","lon":-55.75074,"lat":-25.43276,"pop":0},{"id":11739532,"name":"Campo Seco","lon":-55.93463,"lat":-24.94472,"pop":0},{"id":11762782,"name":"Campo Taperé","alt":["Campo Tapere"],"lon":-56.77176,"lat":-24.6346,"pop":0},{"id":11717028,"name":"Campo Urrutía Ugarte y Compañía","alt":["Campo Urrutia Ugarte y Compania"],"lon":-57.47755,"lat":-26.27042,"pop":0},{"id":12174122,"name":"Campo Verde","lon":-54.74695,"lat":-25.50323,"pop":0},{"id":11766982,"name":"Campo-Í","alt":["Campo-I"],"lon":-56.42639,"lat":-25.18144,"pop":0},{"id":3439237,"name":"Campos","alt":["Fortin Campos"],"lon":-59.53333,"lat":-20.13333,"pop":0},{"id":11719620,"name":"Campos de Francia-Cué","alt":["Campos de Francia-Cue"],"lon":-57.03719,"lat":-25.73396,"pop":0},{"id":11719618,"name":"Campos de Liebigs","lon":-57.08085,"lat":-25.73703,"pop":0},{"id":12173461,"name":"Campos Verdes","lon":-57.40793,"lat":-25.37183,"pop":0},{"id":3439229,"name":"Caña de Castilla","lon":-58.28333,"lat":-24.18333,"pop":0},{"id":3439230,"name":"Caña de Castilla","lon":-58.43333,"lat":-23.43333,"pop":0},{"id":11719578,"name":"Cañada","alt":["Canada"],"lon":-57.48289,"lat":-25.63507,"pop":0},{"id":11723252,"name":"Cañada","alt":["Canada"],"lon":-56.95756,"lat":-25.94638,"pop":0},{"id":11723461,"name":"Cañada","alt":["Canada"],"lon":-56.77036,"lat":-25.79562,"pop":0},{"id":11731677,"name":"Cañada","alt":["Canada"],"lon":-57.11978,"lat":-25.40067,"pop":0},{"id":11762032,"name":"Cañada","alt":["Canada"],"lon":-56.15542,"lat":-26.6032,"pop":0},{"id":11772508,"name":"Cañada","alt":["Canada"],"lon":-56.41007,"lat":-25.81495,"pop":0},{"id":12169839,"name":"Cañada","alt":["Canada"],"lon":-55.99477,"lat":-25.52795,"pop":0},{"id":12171641,"name":"Cañada","alt":["Canada"],"lon":-56.90577,"lat":-24.44531,"pop":0},{"id":3867436,"name":"Cañada Blanca","lon":-61.91667,"lat":-22.13333,"pop":0},{"id":3439232,"name":"Cañada Calais","lon":-59.6,"lat":-22.15,"pop":0},{"id":11673363,"name":"Cañada del Ybyray","alt":["Canada del Ybyray"],"lon":-57.57869,"lat":-25.26872,"pop":0},{"id":12173680,"name":"Cañada Garay","alt":["Canada Garay"],"lon":-57.45213,"lat":-25.25793,"pop":0},{"id":11733305,"name":"Cañada Kiraitý","alt":["Canada Kiraity"],"lon":-56.62333,"lat":-24.77826,"pop":0},{"id":11721922,"name":"Cañada Ñupy","alt":["Canada Nupy"],"lon":-56.76424,"lat":-25.6001,"pop":0},{"id":3867434,"name":"Cañada Oruro","alt":["Canada Oruro","Canada Strongest","Cañada Strongest","Fortin Canada Oruro","Pista Strongest"],"lon":-62.4,"lat":-21.66667,"pop":0},{"id":11673324,"name":"Cañada San Miguel","alt":["Canada San Miguel","San Miguel"],"lon":-57.6338,"lat":-25.35759,"pop":0},{"id":11730584,"name":"Cañada San Rafael","alt":["Canada San Rafael","Compania Canada San Rafael","Compañía Cañada San Rafael"],"lon":-57.46513,"lat":-25.30371,"pop":0},{"id":11733329,"name":"Cañada Santa María","alt":["Canada Santa Maria"],"lon":-56.56542,"lat":-24.80186,"pop":0},{"id":11712512,"name":"Cañada Tebicuary","alt":["Canada Tebicuary"],"lon":-56.26812,"lat":-26.7389,"pop":0},{"id":11711718,"name":"Cañadita","alt":["Canadita"],"lon":-55.57645,"lat":-24.10521,"pop":0},{"id":11730755,"name":"Cañadita","alt":["Canadita","Compania Canadita","Compañía Cañadita"],"lon":-57.34616,"lat":-25.37882,"pop":0},{"id":11730908,"name":"Cañadita","alt":["Canadita"],"lon":-57.5274,"lat":-25.42623,"pop":0},{"id":11762028,"name":"Cañadita","alt":["Canadita"],"lon":-56.19857,"lat":-26.74248,"pop":0},{"id":3439228,"name":"Cañaverales","alt":["Canaverales","Estancia Canaverales","Estancia Cañaverales"],"lon":-58.8,"lat":-22.26667,"pop":0},{"id":3439227,"name":"Cancha Labrada","alt":["Cacha Labrada"],"lon":-59.65194,"lat":-19.60917,"pop":0},{"id":3439226,"name":"Cancha Pinilla","lon":-58.83333,"lat":-20.15,"pop":0},{"id":11773617,"name":"Candea Guazú","alt":["Candea Guazu"],"lon":-56.38214,"lat":-26.03517,"pop":0},{"id":11773709,"name":"Candea Mí","alt":["Candea Mi"],"lon":-56.44185,"lat":-26.05667,"pop":0},{"id":12173644,"name":"Candelaria","lon":-57.44175,"lat":-25.35096,"pop":0},{"id":11724387,"name":"Candelaria-Cue","lon":-55.74013,"lat":-24.52172,"pop":0},{"id":3439225,"name":"Candida Aohucarro","lon":-57.53333,"lat":-25.43333,"pop":0},{"id":3439224,"name":"Cañete","alt":["Canete","Canete-cue","Cañete-cue"],"lon":-56.45,"lat":-26.56667,"pop":0},{"id":3439222,"name":"Cañete-cué","lon":-56.71667,"lat":-26.55,"pop":0},{"id":3439223,"name":"Cañete-Cué","alt":["Canete Cue","Canete-Cue"],"lon":-56.48991,"lat":-26.54067,"pop":0},{"id":11719050,"name":"Cañete-Cué","alt":["Canete-Cue"],"lon":-55.87619,"lat":-24.68696,"pop":0},{"id":3439215,"name":"Caniza-cué","lon":-57.41667,"lat":-26.31667,"pop":0},{"id":3439214,"name":"Capiatá","alt":["Capiata","Capista","Kapiata","Kapiatã","Kapijata","Kapjata","ka pi ya ta","kapiata","kapyata","Капијата","کاپیاتا","კაპიატა","カピアタ","卡皮亞塔","카피아타"],"lon":-57.44545,"lat":-25.3552,"pop":198553},{"id":3439208,"name":"Capiibary","alt":["Capiíbary"],"lon":-56.02052,"lat":-24.7319,"pop":3537},{"id":11739591,"name":"Capiíbary","alt":["Capiibary"],"lon":-55.01012,"lat":-25.02201,"pop":0},{"id":3439194,"name":"Capiitindy","alt":["Capiityndy"],"lon":-56.05987,"lat":-26.44902,"pop":0},{"id":3439196,"name":"Capiitindy","alt":["Capibindi","Capiitindi"],"lon":-54.81667,"lat":-24.36667,"pop":0},{"id":11719652,"name":"Capilla Cué","alt":["Capilla Cue"],"lon":-57.09096,"lat":-25.5529,"pop":0},{"id":11731125,"name":"Capilla del Monte","lon":-57.52133,"lat":-25.37548,"pop":0},{"id":3439192,"name":"Capilla Tuyá","lon":-56.86667,"lat":-26.23333,"pop":0},{"id":11673666,"name":"Capilla-Cué","alt":["Capilla-Cue"],"lon":-57.51403,"lat":-25.36748,"pop":0},{"id":11773666,"name":"Capillita","lon":-56.40461,"lat":-26.17111,"pop":0},{"id":3439189,"name":"Capitán Bado","alt":["Capitan Bado"],"lon":-55.53876,"lat":-23.26733,"pop":9114},{"id":3867433,"name":"Capitán Castro","lon":-61.05,"lat":-22.7,"pop":0},{"id":11769452,"name":"Capitán Kué","alt":["Capitan Kue","Compania Capitan Cue","Compañía Capitán Cué"],"lon":-55.9263,"lat":-25.46208,"pop":0},{"id":3439185,"name":"Capitán Meza","alt":["Capitan Meza"],"lon":-55.56667,"lat":-27.01667,"pop":963},{"id":3439186,"name":"Capitán Meza","alt":["Capitan Meza","Colonia Capitan Meza","Colonia Capitán Meza"],"lon":-55.33605,"lat":-26.82749,"pop":0},{"id":12171901,"name":"Capitán Meza Kilómetro Dieciséis A","alt":["Capitan Meza Kilometro 16 A","Capitan Meza Kilometro Dieciseis A","Capitán Meza Kilómetro 16 A"],"lon":-55.33035,"lat":-26.81737,"pop":0},{"id":12171902,"name":"Capitán Meza Kilómetro Dieciséis B","alt":["Capitan Meza Kilometro 16 B","Capitan Meza Kilometro Dieciseis B","Capitán Meza Kilómetro 16 B"],"lon":-55.33114,"lat":-26.83726,"pop":0},{"id":3439184,"name":"Capitán Miranda","alt":["Capitan Miranda","Colonia Capitan Miranda","Colonia Capitán Miranda"],"lon":-55.79837,"lat":-27.21946,"pop":2498},{"id":11743178,"name":"Capitán Miranda","alt":["Capitan Miranda"],"lon":-55.719,"lat":-27.28028,"pop":0},{"id":3867427,"name":"Capitán Pablo Lagerenza","alt":["Capitan Pablo Lagerenza","Fortin Ingavi","Fortín Ingavi","Ingavi","Lagerenza","Mayor Pablo Lagerenza","Mayor Paulo Lagerenza"],"lon":-60.78333,"lat":-19.91667,"pop":1200},{"id":12169576,"name":"Capitán Roa","alt":["Capitan Roa"],"lon":-56.447,"lat":-25.44089,"pop":0},{"id":3439180,"name":"Capitán Vicente A. Matiauda","alt":["Capitan Vicente A. Matiauda","Vicente Matiauda"],"lon":-55.6,"lat":-27.23333,"pop":0},{"id":12173463,"name":"CAPSA","lon":-57.42837,"lat":-25.36904,"pop":0},{"id":11773391,"name":"Caracara-í","alt":["Caracara-i"],"lon":-56.53931,"lat":-26.21567,"pop":0},{"id":3439179,"name":"Caracoles","alt":["Fortin Camalotes","Fortin Caracoles","Fortín Camalotes","Fortín Caracoles"],"lon":-59.55,"lat":-24.13333,"pop":0},{"id":12172270,"name":"Caracolito","lon":-58.14299,"lat":-26.18964,"pop":0},{"id":3439178,"name":"Caraguatá","lon":-56.08333,"lat":-27.25,"pop":0},{"id":3439175,"name":"Caraguatay","lon":-56.82693,"lat":-25.23844,"pop":1637},{"id":12173794,"name":"Caraguatay","lon":-57.35751,"lat":-25.12511,"pop":0},{"id":11730742,"name":"Caraguatayty","alt":["Compania Caraguata-i-ty","Compañía Caraguata-í-tý"],"lon":-57.35046,"lat":-25.47898,"pop":0},{"id":11714799,"name":"Carandaytý","alt":["Carandayty"],"lon":-58.10567,"lat":-26.87247,"pop":0},{"id":11716957,"name":"Carandayty-Avevó","alt":["Carandayty-Avevo"],"lon":-57.77305,"lat":-26.334,"pop":0},{"id":3439167,"name":"Carapeguá","alt":["Carapegua"],"lon":-57.24677,"lat":-25.76344,"pop":5784},{"id":3439163,"name":"Carayaó","alt":["Carayao"],"lon":-56.39878,"lat":-25.1975,"pop":2473},{"id":11719617,"name":"Cardús","alt":["Cardus"],"lon":-57.1219,"lat":-25.73531,"pop":0},{"id":11744376,"name":"Careaga-Cue","lon":-56.5519,"lat":-24.33658,"pop":0},{"id":3439162,"name":"Cargué","lon":-57.86667,"lat":-25.08333,"pop":0},{"id":11774276,"name":"Caridad","lon":-56.02034,"lat":-26.12595,"pop":0},{"id":3439159,"name":"Carlos Antonio López","alt":["Carlos Antonio Lopez","Colonia Carlos Antonio Lopez","Colonia Carlos Antonio López"],"lon":-54.7569,"lat":-26.39853,"pop":1496},{"id":11673290,"name":"Carlos Antonio López","alt":["Carlos Antonio Lopez","Presidente Carlos Antonio Lopez","Presidente Carlos Antonio López"],"lon":-57.6591,"lat":-25.29328,"pop":0},{"id":12171825,"name":"Carlos Antonio López","alt":["Carlos Antonio Lopez"],"lon":-55.87095,"lat":-27.32909,"pop":0},{"id":12171837,"name":"Carmelitas","lon":-55.85028,"lat":-27.34002,"pop":0},{"id":12174036,"name":"Carmelitas","lon":-55.08706,"lat":-25.78811,"pop":0},{"id":3439065,"name":"Carmelo Peralta","alt":["Colonia Carmelo Peralta"],"lon":-57.90729,"lat":-21.67985,"pop":0},{"id":3439156,"name":"Carmen del Paraná","alt":["Carmen","Carmen del Parana"],"lon":-56.15243,"lat":-27.22232,"pop":4196},{"id":3867423,"name":"Carmen Inés","lon":-62.4,"lat":-22.41667,"pop":0},{"id":3867424,"name":"Carmencita","lon":-62.26667,"lat":-22.48333,"pop":0},{"id":12173851,"name":"Carmencita","lon":-56.96905,"lat":-25.38373,"pop":0},{"id":11675448,"name":"Carolina - Las Mercedes - Mburukuyá","alt":["Barrio Mburucuya","Barrio Mburucuyá","Carolina - Las Mercedes - Mburukuya"],"lon":-54.66018,"lat":-25.48976,"pop":0},{"id":11772455,"name":"Caroveni","lon":-56.5089,"lat":-25.78747,"pop":0},{"id":11772465,"name":"Caroveni Nuevo","lon":-56.48981,"lat":-25.7806,"pop":0},{"id":11772509,"name":"Caroveni Viejo","lon":-56.48806,"lat":-25.81191,"pop":0},{"id":11766943,"name":"Carpa Cué","alt":["Carpa Cue"],"lon":-56.05162,"lat":-25.10089,"pop":0},{"id":3439151,"name":"Carreria","lon":-58.11667,"lat":-21.55,"pop":0},{"id":3439146,"name":"Cascabel","alt":["Cascahal"],"lon":-58.4,"lat":-20.31667,"pop":0},{"id":12173857,"name":"Casco Histórico","alt":["Casco Historico"],"lon":-57.29437,"lat":-25.31231,"pop":0},{"id":12171734,"name":"Casco Urbano","lon":-59.83175,"lat":-22.38165,"pop":0},{"id":12173645,"name":"Casco Urbano","lon":-57.44099,"lat":-25.34454,"pop":0},{"id":3439144,"name":"Castillo Cué","lon":-57.48333,"lat":-27.18333,"pop":0},{"id":3439143,"name":"Catorce de Mayo","lon":-58.73333,"lat":-19.63333,"pop":0},{"id":12173912,"name":"Catorce de Setiembre","alt":["14 de Setiembre"],"lon":-56.46568,"lat":-25.69107,"pop":0},{"id":11762321,"name":"Catupyry","lon":-55.581,"lat":-26.50356,"pop":0},{"id":3439142,"name":"Cebolla","alt":["Potrero Zebolla","Zebolla","Zebollo"],"lon":-57.66667,"lat":-22.38333,"pop":0},{"id":3439141,"name":"Cecina","lon":-55.8,"lat":-25.93333,"pop":0},{"id":12174135,"name":"Cedrales","lon":-54.74172,"lat":-25.48701,"pop":0},{"id":3439140,"name":"Celada Cué","lon":-57.95,"lat":-23.86667,"pop":0},{"id":3439139,"name":"Celia","alt":["Calia"],"lon":-58.21667,"lat":-22.48333,"pop":0},{"id":3867422,"name":"Celina","lon":-62.41667,"lat":-21.85,"pop":0},{"id":12169885,"name":"Centenario","lon":-56.00512,"lat":-25.46708,"pop":0},{"id":3439138,"name":"Centinela","lon":-57.18333,"lat":-24.13333,"pop":0},{"id":11673335,"name":"Central","lon":-57.56588,"lat":-25.22966,"pop":0},{"id":11673533,"name":"Central","alt":["Barrio Central"],"lon":-57.53493,"lat":-25.21129,"pop":0},{"id":12171720,"name":"Central","lon":-58.16983,"lat":-20.23433,"pop":0},{"id":12171743,"name":"Central","lon":-57.5546,"lat":-24.99165,"pop":0},{"id":12171919,"name":"Central","lon":-55.08394,"lat":-26.67492,"pop":0},{"id":12171977,"name":"Central","lon":-56.20596,"lat":-26.83283,"pop":0},{"id":12172123,"name":"Central","lon":-56.98796,"lat":-26.23391,"pop":0},{"id":12172145,"name":"Central","lon":-57.11286,"lat":-25.91156,"pop":0},{"id":12172155,"name":"Central","lon":-57.24449,"lat":-25.76684,"pop":0},{"id":12172167,"name":"Central","lon":-57.18017,"lat":-26.23371,"pop":0},{"id":12172258,"name":"Central","lon":-57.16533,"lat":-27.37852,"pop":0},{"id":12172326,"name":"Central","lon":-57.64425,"lat":-27.33846,"pop":0},{"id":12173303,"name":"Central II","lon":-57.52963,"lat":-25.2021,"pop":0},{"id":12169467,"name":"Centro","lon":-55.44143,"lat":-23.89338,"pop":0},{"id":12169481,"name":"Centro","lon":-55.88468,"lat":-24.52952,"pop":0},{"id":12169484,"name":"Centro","lon":-55.69427,"lat":-24.47158,"pop":0},{"id":12169497,"name":"Centro","lon":-54.85614,"lat":-24.50428,"pop":0},{"id":12169521,"name":"Centro","lon":-54.7619,"lat":-24.24939,"pop":0},{"id":12169566,"name":"Centro","lon":-56.40102,"lat":-25.19372,"pop":0},{"id":12169571,"name":"Centro","lon":-56.54926,"lat":-25.40531,"pop":0},{"id":12169575,"name":"Centro","lon":-56.44244,"lat":-25.44444,"pop":0},{"id":12169843,"name":"Centro","lon":-55.99404,"lat":-25.54071,"pop":0},{"id":12169845,"name":"Centro","lon":-56.01609,"lat":-25.46666,"pop":0},{"id":12169889,"name":"Centro","lon":-56.04323,"lat":-25.02603,"pop":0},{"id":12169900,"name":"Centro","lon":-55.9211,"lat":-25.05918,"pop":0},{"id":12169915,"name":"Centro","lon":-55.42842,"lat":-25.41291,"pop":0},{"id":12169918,"name":"Centro","lon":-56.19271,"lat":-25.33731,"pop":0},{"id":12171445,"name":"Centro","lon":-57.44753,"lat":-23.40777,"pop":0},{"id":12171465,"name":"Centro","lon":-57.32904,"lat":-23.27778,"pop":0},{"id":12171476,"name":"Centro","lon":-57.28841,"lat":-22.24374,"pop":0},{"id":12171611,"name":"Centro","lon":-56.01755,"lat":-24.72822,"pop":0},{"id":12171621,"name":"Centro","lon":-56.35653,"lat":-24.84921,"pop":0},{"id":12171626,"name":"Centro","lon":-56.52594,"lat":-24.80932,"pop":0},{"id":12171629,"name":"Centro","lon":-56.72692,"lat":-24.81375,"pop":0},{"id":12171695,"name":"Centro","lon":-56.44318,"lat":-24.66443,"pop":0},{"id":12171721,"name":"Centro","lon":-60.03301,"lat":-22.34837,"pop":0},{"id":12171738,"name":"Centro","lon":-58.82249,"lat":-24.7521,"pop":0},{"id":12171770,"name":"Centro","lon":-59.80281,"lat":-24.08395,"pop":0},{"id":12171800,"name":"Centro","lon":-55.6473,"lat":-27.08062,"pop":0},{"id":12171883,"name":"Centro","lon":-55.63044,"lat":-27.05675,"pop":0},{"id":12171940,"name":"Centro","lon":-55.551,"lat":-26.86881,"pop":0},{"id":12171947,"name":"Centro","lon":-55.76812,"lat":-26.75227,"pop":0},{"id":12171950,"name":"Centro","lon":-55.89065,"lat":-26.99404,"pop":0},{"id":12171953,"name":"Centro","lon":-55.74395,"lat":-27.05867,"pop":0},{"id":12171958,"name":"Centro","lon":-55.79809,"lat":-27.21782,"pop":0},{"id":12171982,"name":"Centro","lon":-56.33177,"lat":-27.31591,"pop":0},{"id":12171994,"name":"Centro","lon":-56.27897,"lat":-26.74494,"pop":0},{"id":12172017,"name":"Centro","lon":-55.943,"lat":-26.04152,"pop":0},{"id":12172060,"name":"Centro","lon":-57.15253,"lat":-25.61909,"pop":0},{"id":12172084,"name":"Centro","lon":-57.03622,"lat":-25.64389,"pop":0},{"id":12172109,"name":"Centro","lon":-56.6743,"lat":-25.91465,"pop":0},{"id":12172177,"name":"Centro","lon":-57.12619,"lat":-26.40642,"pop":0},{"id":12172193,"name":"Centro","lon":-57.14538,"lat":-26.66871,"pop":0},{"id":12172207,"name":"Centro","lon":-56.94108,"lat":-26.78613,"pop":0},{"id":12172236,"name":"Centro","lon":-56.85478,"lat":-26.8922,"pop":0},{"id":12172263,"name":"Centro","lon":-57.85736,"lat":-26.01568,"pop":0},{"id":12172279,"name":"Centro","lon":-58.14343,"lat":-26.1837,"pop":0},{"id":12172282,"name":"Centro","lon":-57.90348,"lat":-26.67095,"pop":0},{"id":12172316,"name":"Centro","lon":-58.36902,"lat":-27.20058,"pop":0},{"id":12172317,"name":"Centro","lon":-58.23029,"lat":-27.14634,"pop":0},{"id":12173496,"name":"Centro","lon":-57.44465,"lat":-25.43948,"pop":0},{"id":12173516,"name":"Centro","lon":-57.54737,"lat":-25.39341,"pop":0},{"id":12173543,"name":"Centro","lon":-57.5814,"lat":-25.37484,"pop":0},{"id":12173741,"name":"Centro","lon":-57.04297,"lat":-25.46495,"pop":0},{"id":12173747,"name":"Centro","lon":-56.87159,"lat":-25.5933,"pop":0},{"id":12173764,"name":"Centro","lon":-56.72683,"lat":-25.34235,"pop":0},{"id":12173773,"name":"Centro","lon":-56.82568,"lat":-25.23888,"pop":0},{"id":12173774,"name":"Centro","lon":-56.76397,"lat":-24.95476,"pop":0},{"id":12173786,"name":"Centro","lon":-57.09627,"lat":-25.05466,"pop":0},{"id":12173825,"name":"Centro","lon":-57.08196,"lat":-25.26434,"pop":0},{"id":12173835,"name":"Centro","lon":-56.89898,"lat":-25.3078,"pop":0},{"id":12173870,"name":"Centro","lon":-57.13997,"lat":-25.38673,"pop":0},{"id":12173881,"name":"Centro","lon":-56.00105,"lat":-25.71702,"pop":0},{"id":12173884,"name":"Centro","lon":-56.33983,"lat":-25.61494,"pop":0},{"id":12173900,"name":"Centro","lon":-56.27677,"lat":-25.61747,"pop":0},{"id":12173913,"name":"Centro","lon":-56.52322,"lat":-25.74272,"pop":0},{"id":12173924,"name":"Centro","lon":-56.44849,"lat":-25.78248,"pop":0},{"id":12173960,"name":"Centro","lon":-56.64769,"lat":-25.77814,"pop":0},{"id":12174002,"name":"Centro","lon":-56.51779,"lat":-22.11719,"pop":0},{"id":12174008,"name":"Centro","lon":-54.9124,"lat":-24.9764,"pop":0},{"id":12174018,"name":"Centro","lon":-55.15122,"lat":-24.9855,"pop":0},{"id":12174030,"name":"Centro","lon":-54.99582,"lat":-25.66321,"pop":0},{"id":12174051,"name":"Centro","lon":-55.09135,"lat":-25.7981,"pop":0},{"id":12174055,"name":"Centro","lon":-54.90422,"lat":-25.81706,"pop":0},{"id":12174057,"name":"Centro","lon":-54.72446,"lat":-25.65977,"pop":0},{"id":12174065,"name":"Centro","lon":-54.68016,"lat":-25.98028,"pop":0},{"id":12174066,"name":"Centro","lon":-55.05809,"lat":-26.11134,"pop":0},{"id":12174068,"name":"Centro","lon":-55.18592,"lat":-25.9746,"pop":0},{"id":12173372,"name":"Centro Caacupemí","alt":["Centro Caacupemi"],"lon":-57.44938,"lat":-25.15441,"pop":0},{"id":12173388,"name":"Centro Paraíso","alt":["Centro Paraiso"],"lon":-57.46143,"lat":-25.16478,"pop":0},{"id":12173383,"name":"Centro San Antonio","lon":-57.47987,"lat":-25.16869,"pop":0},{"id":12173385,"name":"Centro San Francisco","lon":-57.47776,"lat":-25.17291,"pop":0},{"id":12173381,"name":"Centro San José","alt":["Centro San Jose"],"lon":-57.47537,"lat":-25.16542,"pop":0},{"id":12172246,"name":"Centro San Juan","lon":-56.75861,"lat":-27.14399,"pop":0},{"id":12173378,"name":"Centro San Juan","lon":-57.46693,"lat":-25.15869,"pop":0},{"id":12173376,"name":"Centro San Pedro","lon":-57.45848,"lat":-25.15872,"pop":0},{"id":12173386,"name":"Centro San Ramón","alt":["Centro San Ramon"],"lon":-57.47896,"lat":-25.17904,"pop":0},{"id":12173379,"name":"Centro San Roque","lon":-57.47785,"lat":-25.16064,"pop":0},{"id":12173382,"name":"Centro Santa Librada","lon":-57.46958,"lat":-25.16845,"pop":0},{"id":12173384,"name":"Centro Santa Lucia","lon":-57.48626,"lat":-25.16681,"pop":0},{"id":12173536,"name":"Centro Urbano","lon":-57.62761,"lat":-25.34659,"pop":0},{"id":12174024,"name":"Centro Urbano","lon":-55.00142,"lat":-25.46267,"pop":0},{"id":3439133,"name":"Cerrito","lon":-57.64119,"lat":-27.34215,"pop":1036},{"id":3439134,"name":"Cerrito","lon":-57.46667,"lat":-26.4,"pop":0},{"id":3439135,"name":"Cerrito","lon":-57,"lat":-23.83333,"pop":0},{"id":11673806,"name":"Cerrito","alt":["Barrio Cerrito"],"lon":-57.48138,"lat":-25.35306,"pop":0},{"id":11719570,"name":"Cerrito","lon":-57.30768,"lat":-25.70948,"pop":0},{"id":11723744,"name":"Cerrito","lon":-57.32887,"lat":-25.85766,"pop":0},{"id":11772437,"name":"Cerrito","lon":-56.69001,"lat":-25.91213,"pop":0},{"id":11772445,"name":"Cerrito","lon":-56.58611,"lat":-25.8656,"pop":0},{"id":11773085,"name":"Cerrito","lon":-56.52701,"lat":-25.77439,"pop":0},{"id":11773668,"name":"Cerrito","lon":-56.37898,"lat":-26.18792,"pop":0},{"id":12171678,"name":"Cerrito","lon":-56.45421,"lat":-24.65519,"pop":0},{"id":3439131,"name":"Cerrito Caaguazú","lon":-54.88333,"lat":-24.61667,"pop":0},{"id":12169582,"name":"Cerrito Ruguá","alt":["Cerrito Rugua"],"lon":-56.43671,"lat":-25.43497,"pop":0},{"id":12171753,"name":"Cerro","lon":-57.51821,"lat":-25.09265,"pop":0},{"id":12171798,"name":"Cerro Cora","lon":-55.66501,"lat":-27.08931,"pop":0},{"id":12172186,"name":"Cerro Cora","lon":-57.04083,"lat":-26.52943,"pop":0},{"id":3439130,"name":"Cerro Corá","alt":["Cerro Cora"],"lon":-55.98333,"lat":-22.61667,"pop":0},{"id":11721926,"name":"Cerro Corá","alt":["Cerro Cora"],"lon":-56.95437,"lat":-25.58317,"pop":0},{"id":11772494,"name":"Cerro Corá","alt":["Cerro Cora"],"lon":-56.30073,"lat":-25.9349,"pop":0},{"id":11773057,"name":"Cerro Corá","alt":["Cerro Cora"],"lon":-56.19424,"lat":-25.78842,"pop":0},{"id":12169491,"name":"Cerro Corá","alt":["Cerro Cora"],"lon":-55.69641,"lat":-24.47719,"pop":0},{"id":3439129,"name":"Cerro Cora-i","lon":-55.83333,"lat":-22.58333,"pop":0},{"id":11766933,"name":"Cerro Cué","alt":["Cerro Cue"],"lon":-56.15844,"lat":-25.06392,"pop":0},{"id":11719599,"name":"Cerro Guy","lon":-57.30303,"lat":-25.57724,"pop":0},{"id":11723462,"name":"Cerro Guy","lon":-56.81051,"lat":-25.76397,"pop":0},{"id":11730751,"name":"Cerro Guy","alt":["Compania Cerro Guy","Compañía Cerro Guy"],"lon":-57.29763,"lat":-25.39089,"pop":0},{"id":11766946,"name":"Cerro Guy","lon":-56.42968,"lat":-25.01445,"pop":0},{"id":12173735,"name":"Cerro Guy Dos","alt":["Cerro Guy 2"],"lon":-57.30085,"lat":-25.40267,"pop":0},{"id":12173736,"name":"Cerro Guy Kilómetro Treinta y Cinco","alt":["Cerro Guy Kilometro 35","Cerro Guy Kilometro Treinta y Cinco","Cerro Guy Kilómetro 35"],"lon":-57.30644,"lat":-25.40118,"pop":0},{"id":12173616,"name":"Cerro Kora","alt":["Cerro Cora"],"lon":-57.3592,"lat":-25.5136,"pop":0},{"id":11772532,"name":"Cerro León","alt":["Cerro Leon"],"lon":-56.25787,"lat":-25.78785,"pop":0},{"id":11713132,"name":"Cerro Patria Cue","lon":-57.3641,"lat":-27.28317,"pop":0},{"id":11721909,"name":"Cerro Roké","alt":["Cerro Roke"],"lon":-56.95668,"lat":-25.64812,"pop":0},{"id":11767011,"name":"Cerro Saijhú","alt":["Cerro Saijhu"],"lon":-56.36056,"lat":-25.22251,"pop":0},{"id":11767010,"name":"Cerro Saingó","alt":["Cerro Saingo"],"lon":-56.35451,"lat":-25.19595,"pop":0},{"id":3439126,"name":"Cerro Sarambi","alt":["Campo Cerro Sarambi","Campo Cerro Sarambí"],"lon":-56.16667,"lat":-22.75,"pop":0},{"id":11721894,"name":"Cerro Verde","lon":-56.95433,"lat":-25.69585,"pop":0},{"id":3439120,"name":"Chaco-i","lon":-57.64647,"lat":-25.2464,"pop":0},{"id":11719577,"name":"Chaco-í","alt":["Chaco-i"],"lon":-57.49748,"lat":-25.6644,"pop":0},{"id":11723901,"name":"Chaco-í","alt":["Chaco-i"],"lon":-57.26161,"lat":-25.82374,"pop":0},{"id":11764145,"name":"Chaco-Í","alt":["Chaco-I"],"lon":-56.73538,"lat":-23.84788,"pop":0},{"id":12172271,"name":"Chaco’i","alt":["Chaco'i"],"lon":-58.14594,"lat":-26.18761,"pop":0},{"id":12172306,"name":"Chaco’i","alt":["Chaco'i"],"lon":-58.50415,"lat":-27.06857,"pop":0},{"id":12173503,"name":"Chaco’i","alt":["Chaco'i"],"lon":-57.50235,"lat":-25.46079,"pop":0},{"id":11744378,"name":"Chacoí","alt":["Chacoi"],"lon":-56.61578,"lat":-24.34906,"pop":0},{"id":11682224,"name":"Chaipe","alt":["Chaipé"],"lon":-55.83097,"lat":-27.31604,"pop":0},{"id":11770076,"name":"Chapiré","alt":["Chapire"],"lon":-55.48729,"lat":-25.52356,"pop":0},{"id":3439115,"name":"Charagua","lon":-56.36667,"lat":-22.61667,"pop":0},{"id":3439113,"name":"Charara","lon":-57.28333,"lat":-26.16667,"pop":0},{"id":3439114,"name":"Charará","alt":["Charara","Comis"],"lon":-55.4,"lat":-26.05,"pop":0},{"id":11723272,"name":"Chauria","lon":-56.93035,"lat":-25.85916,"pop":0},{"id":11726209,"name":"Chávez-Cué","alt":["Chavez-Cue"],"lon":-56.00648,"lat":-24.50259,"pop":0},{"id":12174163,"name":"Che La Reina","lon":-54.63829,"lat":-25.49597,"pop":0},{"id":12172133,"name":"Che Pueblo Porã Dos","alt":["Che Pueblo Pora 2","Che Pueblo Pora Dos","Che Pueblo Porã 2"],"lon":-57.02755,"lat":-26.01099,"pop":0},{"id":12172128,"name":"Che Pueblo Porã Uno","alt":["Che Pueblo Pora 1","Che Pueblo Pora Uno","Che Pueblo Porã 1"],"lon":-57.00729,"lat":-26.02356,"pop":0},{"id":3867418,"name":"China Muerta","lon":-61.6,"lat":-22.35,"pop":0},{"id":3439110,"name":"Chingüelo","lon":-55.91667,"lat":-22.66667,"pop":0},{"id":11723458,"name":"Chini","lon":-56.8551,"lat":-25.80763,"pop":0},{"id":12172200,"name":"Chino","lon":-57.14993,"lat":-26.66067,"pop":0},{"id":11770553,"name":"Chiquita","lon":-56.07433,"lat":-25.2904,"pop":0},{"id":11721895,"name":"Chircal","lon":-56.98916,"lat":-25.70445,"pop":0},{"id":11719609,"name":"Chircaty","lon":-57.3557,"lat":-25.52882,"pop":0},{"id":3867417,"name":"Chivilar","lon":-61.61667,"lat":-23.31667,"pop":0},{"id":11719654,"name":"Chololó-i","alt":["Chololo-i"],"lon":-57.02847,"lat":-25.553,"pop":0},{"id":3439108,"name":"Chore","lon":-56.58251,"lat":-24.18606,"pop":0},{"id":11767608,"name":"Chortitz Campo Tres","lon":-55.58869,"lat":-25.28388,"pop":0},{"id":3439103,"name":"Ciervo Blanco","lon":-57.85,"lat":-26.46667,"pop":0},{"id":11716914,"name":"Ciervo Blanco","lon":-57.9228,"lat":-26.47677,"pop":0},{"id":11773052,"name":"Ciervo Cuá","alt":["Ciervo Cua"],"lon":-56.22333,"lat":-25.95586,"pop":0},{"id":11762203,"name":"Ciervo-Cuá","alt":["Ciervo-Cua"],"lon":-55.78607,"lat":-26.30363,"pop":0},{"id":3439101,"name":"Ciudad del Este","alt":["AGT","Ciudad Presidente Stroessner","Presidente Stroessner","Puerto Presidente Stroessner","S'judad-del'-Ehste","S'judad-del'-Este","Sijudad del Este","Siudad del Este","Siudad del Estė","Sjudad Del Este","Sjudad del Este","dong fang shi","siudadeudel-eseute","siw dad del xe s te","sywdad dl asth","Сиудад дел Есте","Сијудад дел Есте","Сьюдад-дель-Есте","Сьюдад-дель-Эсте","Сјудад дел Есте","סיודאד דעל עסטע","סיודד דל אסטה","سیوداد دل استه","سیوداد دیل استے","ซิวดัดเดลเอสเต","სიუდად-დელ-ესტე","シウダー・デル・エステ","東方市","시우다드델에스테"],"lon":-54.61111,"lat":-25.50972,"pop":301815},{"id":12172184,"name":"Ciudad del Este","lon":-57.03635,"lat":-26.53037,"pop":0},{"id":11673292,"name":"Ciudad Nueva","lon":-57.61713,"lat":-25.29531,"pop":0},{"id":11675446,"name":"Ciudad Nueva","lon":-54.67045,"lat":-25.51775,"pop":0},{"id":12169496,"name":"Ciudad Nueva","lon":-55.68059,"lat":-24.48001,"pop":0},{"id":12169806,"name":"Ciudad Nueva","lon":-56.43485,"lat":-25.48196,"pop":0},{"id":12171763,"name":"Ciudad Nueva","lon":-57.5341,"lat":-25.07858,"pop":0},{"id":12171830,"name":"Ciudad Nueva","lon":-55.85345,"lat":-27.34621,"pop":0},{"id":12172058,"name":"Ciudad Nueva","lon":-57.15746,"lat":-25.61598,"pop":0},{"id":12172179,"name":"Ciudad Nueva","lon":-57.03952,"lat":-26.54036,"pop":0},{"id":11733325,"name":"Cobas-Cue","lon":-56.54885,"lat":-24.78686,"pop":0},{"id":3867415,"name":"Cobija","lon":-61.18333,"lat":-20.43333,"pop":0},{"id":11762312,"name":"Cochiy","lon":-55.93413,"lat":-26.72946,"pop":0},{"id":3439098,"name":"Cocueré","lon":-57.53333,"lat":-26.8,"pop":0},{"id":11724385,"name":"Cocueré Guazú","alt":["Cocuere Guazu"],"lon":-55.67562,"lat":-24.50569,"pop":0},{"id":11772462,"name":"Cocueré Guazú","alt":["Cocuere Guazu"],"lon":-56.52419,"lat":-25.75506,"pop":0},{"id":3867414,"name":"Codo Kononi","lon":-62.28333,"lat":-21.85,"pop":0},{"id":12172289,"name":"Colinas de Pilar","lon":-58.30922,"lat":-26.88206,"pop":0},{"id":12171806,"name":"Colinas del Sur","lon":-55.64857,"lat":-27.06843,"pop":0},{"id":3867413,"name":"Collar Ahorcado","alt":["Collar Ahorcada"],"lon":-61.83333,"lat":-23.13333,"pop":0},{"id":3439096,"name":"Colón","lon":-57.55,"lat":-23.18333,"pop":0},{"id":12173592,"name":"Colón","alt":["Colon"],"lon":-57.45386,"lat":-25.49513,"pop":0},{"id":3439089,"name":"Colonia A. Goiburú","alt":["Colonia A. Goiburu","Colonia Goiburu","Colonia Goiburú"],"lon":-56.9,"lat":-26.16667,"pop":0},{"id":11768290,"name":"Colonia Abatí Tygué","alt":["Colonia Abati Tygue"],"lon":-54.67917,"lat":-26.17009,"pop":0},{"id":11743194,"name":"Colonia Aca Carayá","alt":["Colonia Aca Caraya"],"lon":-55.45582,"lat":-27.00516,"pop":0},{"id":11743949,"name":"Colonia Acá Carayá","alt":["Colonia Aca Caraya"],"lon":-55.45231,"lat":-26.98125,"pop":0},{"id":3439093,"name":"Colonia Aca-Yuasa","lon":-56.88333,"lat":-25.86667,"pop":0},{"id":3439094,"name":"Colonia Acaray","lon":-54.83333,"lat":-25.31667,"pop":0},{"id":11770182,"name":"Colonia Acaray","lon":-54.67483,"lat":-25.37814,"pop":0},{"id":3439091,"name":"Colonia Acuña de Figueroa","alt":["Colonia Acuna Figueroa","Colonia Acuna de Figueroa","Colonia Acuña Figueroa"],"lon":-57.19086,"lat":-25.2162,"pop":0},{"id":3439090,"name":"Colonia Adriano Iralá","alt":["Colonia Adriano Irala","Colonia Dr. A. Yrala"],"lon":-56.98333,"lat":-25.63333,"pop":0},{"id":11812601,"name":"Colonia Agrícola Nuevo Mundo S.A.","alt":["Colonia Agricola Nuevo Mundo S.A."],"lon":-55.00709,"lat":-24.063,"pop":0},{"id":3438956,"name":"Colonia Agustín Molas","alt":["Colonia Agustin Molas","Colonia Presbitero A. Molas","Colonia Presbítero A. Molas"],"lon":-56.66931,"lat":-26.05685,"pop":0},{"id":3439088,"name":"Colonia Agustín R. Pinedo","lon":-56.28333,"lat":-22.75,"pop":0},{"id":3439087,"name":"Colonia Alberdi","lon":-58.11667,"lat":-26.15,"pop":0},{"id":3439086,"name":"Colonia Alborada","lon":-54.63333,"lat":-23.96667,"pop":0},{"id":11674141,"name":"Colonia Alborada","lon":-54.7554,"lat":-24.02223,"pop":0},{"id":11768311,"name":"Colonia Alborada","lon":-54.81499,"lat":-26.63361,"pop":0},{"id":3439085,"name":"Colonia Alejo García","lon":-56.9,"lat":-27.38333,"pop":0},{"id":3439083,"name":"Colonia Alto Paraná","alt":["Colonia Alto Parana"],"lon":-55.62754,"lat":-26.79159,"pop":0},{"id":3439082,"name":"Colonia Alto Verá","alt":["Colonia Alto Vera"],"lon":-55.67813,"lat":-26.70592,"pop":0},{"id":11743813,"name":"Colonia Alto Verá","alt":["Colonia Alto Vera"],"lon":-55.78007,"lat":-26.79551,"pop":0},{"id":3439081,"name":"Colonia Altura","lon":-56.30131,"lat":-25.20032,"pop":0},{"id":3439080,"name":"Colonia Aparypa","lon":-57.04514,"lat":-25.18261,"pop":0},{"id":3439079,"name":"Colonia Ape-Aimé","alt":["Colonia Ape-Aime"],"lon":-54.83886,"lat":-26.58117,"pop":0},{"id":3439394,"name":"Colonia Arroyo Verde","alt":["Arroyo Verde"],"lon":-56.96645,"lat":-26.89715,"pop":0},{"id":3867412,"name":"Colonia Austria-í","lon":-61.75,"lat":-22.06667,"pop":0},{"id":11743149,"name":"Colonia Bella Vista","lon":-55.5975,"lat":-27.02473,"pop":0},{"id":11743150,"name":"Colonia Bella Vista-i","lon":-55.56895,"lat":-27.06177,"pop":0},{"id":3439078,"name":"Colonia Bergthal","alt":["Colonia Bergtal"],"lon":-55.61164,"lat":-25.3048,"pop":0},{"id":3439076,"name":"Colonia Blas A. Garay","alt":["Colonia Blas Garay"],"lon":-56.25497,"lat":-25.49686,"pop":0},{"id":3439077,"name":"Colonia Blas Garay","alt":["Colonia Blas A. Garay"],"lon":-56.23333,"lat":-25.46667,"pop":0},{"id":3439074,"name":"Colonia Bogado-cué","lon":-57.31667,"lat":-23.2,"pop":0},{"id":3439073,"name":"Colonia Boquerón","alt":["Colonia Boqueron"],"lon":-56.53572,"lat":-25.94952,"pop":0},{"id":11743948,"name":"Colonia Caarendy","lon":-55.37483,"lat":-26.94196,"pop":0},{"id":3439072,"name":"Colonia Caárendy","alt":["Colonia Caarendy","Puerto Caarendy"],"lon":-55.45,"lat":-26.93333,"pop":0},{"id":3439071,"name":"Colonia Cadete Pastor Pando","lon":-58.9,"lat":-24.4,"pop":0},{"id":11709869,"name":"Colonia Canindeyú","alt":["Colonia Canindeyu"],"lon":-54.35591,"lat":-24.03996,"pop":0},{"id":3439070,"name":"Colonia Caninobyú","lon":-54.45,"lat":-23.95,"pop":0},{"id":11773387,"name":"Colonia Capitán Brizuela","alt":["Colonia Capitan Brizuela"],"lon":-56.56247,"lat":-26.13813,"pop":0},{"id":3439069,"name":"Colonia Capitán F. Leguizamón","lon":-56.23333,"lat":-26.75,"pop":0},{"id":11743944,"name":"Colonia Capitán Meza","alt":["Colonia Capitan Meza"],"lon":-55.33743,"lat":-26.82973,"pop":0},{"id":11769455,"name":"Colonia Capitán Pedro Urbina","alt":["Colonia Capitan Pedro Urbina"],"lon":-54.70169,"lat":-26.30353,"pop":0},{"id":3439068,"name":"Colonia Capitán V. Brizuela","lon":-56.5,"lat":-25.96667,"pop":0},{"id":11743158,"name":"Colonia Capitán Vicente Matiauda","alt":["Colonia Capitan Vicente Matiauda"],"lon":-55.6836,"lat":-27.23113,"pop":0},{"id":3439067,"name":"Colonia Carlos A. López","alt":["Colonia Carlos A. Lopez"],"lon":-56.95411,"lat":-25.72021,"pop":0},{"id":11768353,"name":"Colonia Carlos Antonio López","alt":["Colonia Carlos Antonio Lopez"],"lon":-54.7484,"lat":-26.39587,"pop":0},{"id":3439066,"name":"Colonia Carlos Pfanell","alt":["Carlos Pfanel","Colonia Carlos Peanell","Colonia PFannl"],"lon":-56.23333,"lat":-25.65,"pop":0},{"id":3439064,"name":"Colonia Casualidad","lon":-56.51667,"lat":-22.68333,"pop":0},{"id":3439063,"name":"Colonia Catorce de Mayo","lon":-56.38333,"lat":-25.81667,"pop":0},{"id":11767013,"name":"Colonia Cerro Corá","alt":["Colonia Cerro Cora"],"lon":-56.34147,"lat":-25.23222,"pop":0},{"id":3439061,"name":"Colonia Cerro Memby","lon":-56.36667,"lat":-22.83333,"pop":0},{"id":11711884,"name":"Colonia Chiripá Fortuna","alt":["Colonia Chiripa Fortuna"],"lon":-55.72609,"lat":-24.41401,"pop":0},{"id":11762286,"name":"Colonia Co’e Potí","alt":["Colonia Co'e Poti"],"lon":-56.52994,"lat":-24.18915,"pop":0},{"id":11762283,"name":"Colonia Cocuerá","alt":["Colonia Cocuera"],"lon":-56.72268,"lat":-24.16893,"pop":0},{"id":11744572,"name":"Colonia Coe Pyta Primero","lon":-56.46877,"lat":-24.20276,"pop":0},{"id":11744574,"name":"Colonia Coe Pyta Segundo","lon":-56.45952,"lat":-24.23477,"pop":0},{"id":11712432,"name":"Colonia Coeyú","alt":["Colonia Coeyu"],"lon":-56.91062,"lat":-27.37073,"pop":0},{"id":11720193,"name":"Colonia Comandante Julián Insfran","alt":["Colonia Comandante Julian Insfran","Ex Guazucua","Ex Guazucuá"],"lon":-56.98552,"lat":-25.73909,"pop":0},{"id":3439058,"name":"Colonia Costa Jhoby","alt":["Colonia Costa Jhovy","Colonia Mariscal Lopez"],"lon":-55.58333,"lat":-23.31667,"pop":0},{"id":3439057,"name":"Colonia Cumanda Kay","alt":["Colonia Cumandá Kay"],"lon":-54.85966,"lat":-24.43736,"pop":0},{"id":3439056,"name":"Colonia Curupayty","lon":-56.98333,"lat":-25.41667,"pop":0},{"id":3439054,"name":"Colonia de Mompox","alt":["Colonia Mompox"],"lon":-56.98333,"lat":-25.2,"pop":0},{"id":3439055,"name":"Colonia Defensores del Chaco","lon":-56.40882,"lat":-24.47847,"pop":0},{"id":11732153,"name":"Colonia Defensores del Chaco","lon":-56.53518,"lat":-24.54962,"pop":0},{"id":3439053,"name":"Colonia Doctor Domingo Montanaro","lon":-56.20868,"lat":-25.45018,"pop":0},{"id":11731135,"name":"Colonia Doctor José Gaspar Rodríguez de Francia","alt":["Colonia Doctor Jose Gaspar Rodriguez de Francia"],"lon":-57.69797,"lat":-25.30045,"pop":0},{"id":3439013,"name":"Colonia Doctor Juan León Mallorquín","alt":["Colonia Doctor Juan Leon Mallorquin","Colonia J.L. Mallorquin","Colonia J.L. Mallorquín"],"lon":-55.24799,"lat":-25.44521,"pop":0},{"id":11731814,"name":"Colonia Doctor Juan Ramón Chávez","alt":["Colonia Doctor Juan Ramon Chavez"],"lon":-56.31448,"lat":-24.95656,"pop":0},{"id":11739581,"name":"Colonia Doctor Juan Ramón Chávez","alt":["Colonia Doctor Juan Ramon Chavez"],"lon":-56.22404,"lat":-24.95289,"pop":0},{"id":3439012,"name":"Colonia Doctor Manuel Frutos","alt":["Colonia Joan M. Frutos","Colonia Juan Manuel Frutos"],"lon":-56.24715,"lat":-25.45735,"pop":0},{"id":11684413,"name":"Colonia Domingo Bado","lon":-56.19435,"lat":-27.08135,"pop":0},{"id":3438933,"name":"Colonia Don Antonio","alt":["Colonia San Antonio"],"lon":-56.5801,"lat":-25.99395,"pop":0},{"id":11743932,"name":"Colonia Edelira","lon":-55.19674,"lat":-26.86778,"pop":0},{"id":3439052,"name":"Colonia Eligio Ayala","lon":-56.83333,"lat":-26.23333,"pop":0},{"id":11712790,"name":"Colonia Emilio Acevedo","lon":-56.85236,"lat":-26.85026,"pop":0},{"id":3439051,"name":"Colonia Escalada","lon":-56.26667,"lat":-25.93333,"pop":0},{"id":11770913,"name":"Colonia Esperanza","lon":-56.71757,"lat":-25.37524,"pop":0},{"id":3439050,"name":"Colonia Estrella","lon":-55.93333,"lat":-22.3,"pop":0},{"id":3439048,"name":"Colonia Ex Combatiente","alt":["Colonia Arroyita Ex-combatientes"],"lon":-55.8,"lat":-25.55,"pop":0},{"id":3439049,"name":"Colonia Ex Combatiente","lon":-56.91667,"lat":-23.3,"pop":0},{"id":3439047,"name":"Colonia Ex Enfermera del Chaco","lon":-56.75,"lat":-23.15,"pop":0},{"id":3439037,"name":"Colonia F. R. Moreno","lon":-55.2,"lat":-25.7,"pop":0},{"id":11743163,"name":"Colonia Federico Chávez","alt":["Colonia Federico Chavez"],"lon":-55.65302,"lat":-27.12214,"pop":0},{"id":11743191,"name":"Colonia Federico Chávez","alt":["Colonia Federico Chavez"],"lon":-55.67487,"lat":-27.34659,"pop":0},{"id":3439045,"name":"Colonia Felicidad","lon":-56.38525,"lat":-24.18433,"pop":0},{"id":11731618,"name":"Colonia Felipe Matiauda","lon":-56.3548,"lat":-24.84596,"pop":0},{"id":3439043,"name":"Colonia Fernando de la Mora","lon":-57.06667,"lat":-23.41667,"pop":0},{"id":3439042,"name":"Colonia Fernando de Trejo y Sanabria","lon":-54.45,"lat":-24.8,"pop":0},{"id":3439041,"name":"Colonia Fernheim","alt":["Colonia Ferheim"],"lon":-59.83333,"lat":-22.25,"pop":0},{"id":11762972,"name":"Colonia Fidel Maíz","alt":["Colonia Fidel Maiz"],"lon":-56.90003,"lat":-24.95061,"pop":0},{"id":11743961,"name":"Colonia Fordi","lon":-55.56578,"lat":-26.99461,"pop":0},{"id":3439040,"name":"Colonia Fordi-í","alt":["Colonia Fordi-i"],"lon":-55.49649,"lat":-27.06543,"pop":0},{"id":11683453,"name":"Colonia Fram","lon":-56.08982,"lat":-27.0427,"pop":0},{"id":3439038,"name":"Colonia Friesland","lon":-56.72976,"lat":-24.64249,"pop":0},{"id":11762891,"name":"Colonia Friesland","lon":-56.79677,"lat":-24.58037,"pop":0},{"id":3439036,"name":"Colonia Gaboto","alt":["Colonia Santa Gaboto"],"lon":-57.98333,"lat":-26.26667,"pop":0},{"id":3439034,"name":"Colonia Genaro Romero","lon":-56.48333,"lat":-25.48333,"pop":0},{"id":3439035,"name":"Colonia Genaro Romero","lon":-56.43333,"lat":-25.35,"pop":0},{"id":3439026,"name":"Colonia General Alejandro Fretes Davalos","alt":["Colonia General Alejandro F. Davalos","Colonia General de Division A. Fretes Davalos","Colonia General de División A. Fretes Dávalos"],"lon":-55.15832,"lat":-24.46157,"pop":0},{"id":3439032,"name":"Colonia General Alfredo Stroessner","lon":-55.7069,"lat":-25.36395,"pop":11558},{"id":3439030,"name":"Colonia General Bernardino Caballero","lon":-57.12892,"lat":-25.22464,"pop":0},{"id":3439031,"name":"Colonia General Bernardino Caballero","lon":-54.99298,"lat":-24.30212,"pop":0},{"id":11723247,"name":"Colonia General César Barrientos","alt":["Colonia General Cesar Barrientos"],"lon":-56.85759,"lat":-25.95361,"pop":0},{"id":3439027,"name":"Colonia General de División A. Fretes Dávalos","lon":-56.51667,"lat":-23.36667,"pop":0},{"id":3439024,"name":"Colonia General Díaz","lon":-54.95,"lat":-24.7,"pop":0},{"id":3439025,"name":"Colonia General Díaz","lon":-57.23333,"lat":-23.41667,"pop":0},{"id":11744925,"name":"Colonia General Elizardo Aquino","lon":-56.90572,"lat":-24.45534,"pop":0},{"id":3439023,"name":"Colonia General P. Colmán","lon":-55.06667,"lat":-25.73333,"pop":0},{"id":3439028,"name":"Colonia General Patricio Colmán","alt":["Colonia General Colman","Colonia General Patricio Colman"],"lon":-56.35351,"lat":-26.58464,"pop":0},{"id":3439022,"name":"Colonia General Roa","lon":-57.58333,"lat":-27.28333,"pop":0},{"id":11675036,"name":"Colonia Guadalupe","lon":-54.43814,"lat":-24.29288,"pop":0},{"id":11743169,"name":"Colonia Guaraní","alt":["Colonia Guarani"],"lon":-55.72661,"lat":-27.07628,"pop":0},{"id":3439019,"name":"Colonia Hector L. Vega","alt":["Colonia Hector L. Vera"],"lon":-56.74013,"lat":-25.8183,"pop":0},{"id":3439020,"name":"Colonia Hector-Cué","alt":["Colonia Hector-Cue"],"lon":-56.99051,"lat":-26.82509,"pop":0},{"id":3439018,"name":"Colonia Hernandarias","lon":-57.18333,"lat":-23.3,"pop":0},{"id":3439017,"name":"Colonia Herrera Vega","alt":["Colonia Herrera Vegas"],"lon":-55.71667,"lat":-27.21667,"pop":0},{"id":11743168,"name":"Colonia Hohenau","lon":-55.70283,"lat":-27.05425,"pop":0},{"id":3439016,"name":"Colonia Hondo","lon":-56.26635,"lat":-25.16239,"pop":0},{"id":11681942,"name":"Colonia Independencia","lon":-55.82663,"lat":-27.38305,"pop":0},{"id":11743469,"name":"Colonia Independencia","lon":-56.17775,"lat":-26.95203,"pop":0},{"id":11762287,"name":"Colonia Industrial Cue","lon":-56.54859,"lat":-24.15951,"pop":0},{"id":3439015,"name":"Colonia J. Cancio Flecha","lon":-56.8,"lat":-25.58333,"pop":0},{"id":3439014,"name":"Colonia J.E. Estigarribia","lon":-54.8,"lat":-25.01667,"pop":0},{"id":11723459,"name":"Colonia Japonesa","lon":-56.82575,"lat":-25.77901,"pop":0},{"id":3439011,"name":"Colonia Jorge L. Moreira","alt":["Colonia Jorje L. Moreira"],"lon":-57.17121,"lat":-25.6217,"pop":0},{"id":3439010,"name":"Colonia José Berges","alt":["Colonia Jose Beger","Colonia Jose Berges","Colonia José Beger"],"lon":-56.9,"lat":-23.43333,"pop":0},{"id":3439009,"name":"Colonia José Domingo Ocampo","alt":["Colonia Jose Docampos","Colonia Jose Domingo Ocampo","Colonia José Docampos"],"lon":-55.43303,"lat":-25.42456,"pop":0},{"id":12173684,"name":"Colonia Juan de Salazar","lon":-57.47004,"lat":-25.21034,"pop":0},{"id":3439008,"name":"Colonia Juan Sinforiano Bogarín","alt":["Colonia Juan Sinforiano Bogarin"],"lon":-56.08319,"lat":-25.09394,"pop":0},{"id":11769440,"name":"Colonia Julio Otaño","alt":["Colonia Julio Otano"],"lon":-54.75742,"lat":-26.35258,"pop":0},{"id":11762276,"name":"Colonia La Niña","alt":["Colonia La Nina"],"lon":-56.72032,"lat":-24.09707,"pop":0},{"id":3439005,"name":"Colonia la Pastora","lon":-56.56832,"lat":-25.25846,"pop":0},{"id":3439006,"name":"Colonia La Pastora","alt":["Colonia la Pastora"],"lon":-56.53953,"lat":-25.21744,"pop":0},{"id":3439004,"name":"Colonia Laura","lon":-54.92835,"lat":-25.26939,"pop":0},{"id":3439003,"name":"Colonia Liberación","alt":["Colonia Liberacion"],"lon":-56.6417,"lat":-24.16073,"pop":0},{"id":3439002,"name":"Colonia Limoy","lon":-54.86667,"lat":-24.78333,"pop":0},{"id":3439001,"name":"Colonia Lomas Valentinas","lon":-57.51667,"lat":-25.51667,"pop":0},{"id":11767736,"name":"Colonia Lomas Valentinas","lon":-54.65279,"lat":-26.20199,"pop":0},{"id":11767551,"name":"Colonia Luz y Esperanza","lon":-55.67589,"lat":-25.35081,"pop":0},{"id":3438983,"name":"Colonia M. Domínguez","lon":-57.8,"lat":-25.85,"pop":0},{"id":3438999,"name":"Colonia M.A. Molas","lon":-57.7,"lat":-25.95,"pop":0},{"id":3439000,"name":"Colonia Maka","lon":-57.58333,"lat":-25.21667,"pop":0},{"id":3438998,"name":"Colonia Manitoba","lon":-56.56594,"lat":-23.56813,"pop":0},{"id":3438997,"name":"Colonia Maria Auxiliadora","lon":-56.5,"lat":-24.45,"pop":0},{"id":3438996,"name":"Colonia María Auxiliadora","alt":["Colonia Maria Auxiliadora"],"lon":-56.20188,"lat":-25.48675,"pop":0},{"id":11720728,"name":"Colonia Mariscal Francisco Solano Lopez","lon":-54.97673,"lat":-24.27327,"pop":0},{"id":3438993,"name":"Colonia Mariscal López","lon":-55.6,"lat":-23.31667,"pop":0},{"id":3438994,"name":"Colonia Mariscal López","lon":-55.56667,"lat":-22.78333,"pop":0},{"id":3438992,"name":"Colonia Martínez de Irala","lon":-56,"lat":-26.15,"pop":0},{"id":3438991,"name":"Colonia Mauricio José Troche","alt":["Colonia Cosme","Colonia Mauricio J. Troche","Colonia Mauricio Jose Troche","Cosme","Mauricio Jose Troche","Mauricio José Troche"],"lon":-56.28333,"lat":-25.56667,"pop":2368},{"id":3438990,"name":"Colonia Mayor Hermosa","lon":-56.36667,"lat":-23.95,"pop":0},{"id":11769462,"name":"Colonia Mayor Julio Otaño","alt":["Colonia Mayor Julio Otano"],"lon":-54.72622,"lat":-26.33192,"pop":0},{"id":3438989,"name":"Colonia Mayor Nicolás Arguello","alt":["Colonia Mayor Nicolas Arguello","Mayor Nicolas Arguello"],"lon":-56.18333,"lat":-26.18333,"pop":0},{"id":3438988,"name":"Colonia Mayor Otaño","lon":-54.9,"lat":-26.61667,"pop":0},{"id":3438987,"name":"Colonia Mbareté","lon":-54.86667,"lat":-26.05,"pop":0},{"id":11744452,"name":"Colonia Mbareté","alt":["Colonia Mbarete"],"lon":-56.66376,"lat":-24.33292,"pop":0},{"id":11715286,"name":"Colonia Mburicá","alt":["Colonia Mburica"],"lon":-58.18781,"lat":-26.68288,"pop":0},{"id":3438986,"name":"Colonia Mburicá Potrero","alt":["Colonia Mburica Potrero","Mburica Potrero","Mburicá Potrero"],"lon":-56.11667,"lat":-26.13333,"pop":0},{"id":3438985,"name":"Colonia Mburucuya","lon":-55.84815,"lat":-24.5212,"pop":0},{"id":3438984,"name":"Colonia Mburupy","lon":-56.30621,"lat":-25.4327,"pop":0},{"id":11770938,"name":"Colonia Mbururú-Py","alt":["Colonia Mbururu-Py"],"lon":-56.21972,"lat":-25.43453,"pop":0},{"id":3438982,"name":"Colonia Medianera","lon":-54.81667,"lat":-26.11667,"pop":0},{"id":3438981,"name":"Colonia Menno","lon":-59.81667,"lat":-22.36667,"pop":5615},{"id":3438980,"name":"Colonia Mennonita","alt":["Colonia Memnonista","Colonia Mennonita Canadiense","Colonia Mennonitas","Colonia Menonitas"],"lon":-60,"lat":-22.5,"pop":0},{"id":11731540,"name":"Colonia Mennonita","lon":-56.90746,"lat":-25.43005,"pop":0},{"id":3438979,"name":"Colonia Mesquita","lon":-54.63333,"lat":-25.76667,"pop":0},{"id":3438976,"name":"Colonia Miranda","lon":-56.83333,"lat":-22.96667,"pop":0},{"id":3438975,"name":"Colonia Mons Bogarin","lon":-56.05,"lat":-25.1,"pop":0},{"id":3438974,"name":"Colonia Montanaro","lon":-56.2,"lat":-25.43333,"pop":0},{"id":3438973,"name":"Colonia Ñande Mbaepá","lon":-58.41667,"lat":-24.78333,"pop":0},{"id":11744388,"name":"Colonia Ñandeyara","alt":["Colonia Nandeyara"],"lon":-56.74009,"lat":-24.32314,"pop":0},{"id":11744611,"name":"Colonia Naranjito","lon":-56.29313,"lat":-24.00528,"pop":0},{"id":11743919,"name":"Colonia Natalicio","lon":-55.14688,"lat":-26.8176,"pop":0},{"id":11721932,"name":"Colonia Natalicio Vasconcellos","lon":-56.36802,"lat":-24.27505,"pop":0},{"id":11732291,"name":"Colonia Navidad","lon":-56.69042,"lat":-24.69143,"pop":0},{"id":3867411,"name":"Colonia Neuland","lon":-60.11667,"lat":-22.66667,"pop":2816},{"id":3438972,"name":"Colonia Nueva Australia","alt":["Nueva Australia"],"lon":-56.58333,"lat":-25.41667,"pop":0},{"id":11684415,"name":"Colonia Nueva Caucacia","lon":-56.18171,"lat":-27.13037,"pop":0},{"id":11769676,"name":"Colonia Nueva Esperanza","lon":-54.91474,"lat":-25.35639,"pop":0},{"id":3437653,"name":"Colonia Nueva Germania","alt":["Nueva Germania"],"lon":-56.70091,"lat":-23.91137,"pop":1206},{"id":3438971,"name":"Colonia Nueva Independencia","lon":-55.65,"lat":-22.93333,"pop":0},{"id":11762893,"name":"Colonia Número Cinco","alt":["Colonia Numero Cinco","Ruckenau"],"lon":-56.77283,"lat":-24.59483,"pop":0},{"id":11764740,"name":"Colonia Número Cinco","alt":["Colonia Numero Cinco","Tiefenbrunn"],"lon":-57.01343,"lat":-24.27144,"pop":0},