[{"id":12110772,"name":"(former) Diocese of Tomis/Constanta","lon":28.64935,"lat":44.18074,"pop":0},{"id":664644,"name":"1 Decembrie","lon":27.81176,"lat":46.35871,"pop":417},{"id":856315,"name":"1 Decembrie","alt":["30 Decembrie","Copaceni-Carada","Copacenii de Sus","Copăceni-Carada","Copăcenii de Sus","Regele Ferdinand"],"lon":26.05806,"lat":44.29083,"pop":7817},{"id":679035,"name":"2 Mai","alt":["Doua-Maiu","Două-Maiu"],"lon":28.57613,"lat":43.78541,"pop":0},{"id":679032,"name":"23 August","alt":["Bratianu","Colonia Ipeil","Douazeci si Trei August","Douăzeci şi Trei August","Ion Bratianu","Ion Brătianu","Ion C. Bratianu","Ion C. Brătianu"],"lon":22.3993,"lat":45.52303,"pop":674},{"id":679033,"name":"23 August","alt":["23 (Douazeci si Trei) August","23 (Douăzeci şi Trei) August","Douazeci si Trei August","Douăzeci şi Trei August","Valea Boiereasca","Valea Boierească"],"lon":22.76282,"lat":44.7161,"pop":417},{"id":679034,"name":"23 August","alt":["Domnita Elena","Domniţa Elena","Tatlageac Mare"],"lon":28.58333,"lat":43.91667,"pop":2849},{"id":686716,"name":"Abram","lon":22.38333,"lat":47.31667,"pop":3291},{"id":686715,"name":"Abrămuţ","alt":["Abramut"],"lon":22.25,"lat":47.31667,"pop":2962},{"id":686712,"name":"Abrud","alt":["Abrudbanya","Abrudbánya","Aktenburg","Opstina Abrud","Opština Abrud","a bu lu de","abrw","Абруд","ابرو","阿布鲁德"],"lon":23.06339,"lat":46.27406,"pop":6122},{"id":686713,"name":"Abrud","alt":["Mulciova","Mutciova"],"lon":27.97832,"lat":44.14594,"pop":0},{"id":686710,"name":"Abrud-Sat","lon":23.06098,"lat":46.28166,"pop":1355},{"id":686709,"name":"Abucea","lon":22.54231,"lat":45.90683,"pop":57},{"id":686708,"name":"Abud","alt":["Szekelyabod","Szèkelyabòd"],"lon":24.91636,"lat":46.5251,"pop":226},{"id":686707,"name":"Abuș","alt":["Abus","Abuş"],"lon":24.38295,"lat":46.35777,"pop":358},{"id":686706,"name":"Academia","lon":27.65,"lat":46.35,"pop":0},{"id":686705,"name":"Acăţari","alt":["Acatar","Acătar","Akosfalva","Ákosfalva"],"lon":24.63324,"lat":46.47975,"pop":4719},{"id":686700,"name":"Acâş","alt":["Acas","Acis","Acîş"],"lon":22.78333,"lat":47.53333,"pop":0},{"id":686703,"name":"Acbaşi","lon":28.43333,"lat":43.8,"pop":0},{"id":686702,"name":"Achimețești","lon":22.80442,"lat":46.38501,"pop":30},{"id":686701,"name":"Aciliu","lon":23.87755,"lat":45.8305,"pop":374},{"id":686698,"name":"Aciua","lon":23.3639,"lat":47.68141,"pop":188},{"id":686697,"name":"Aciuța","alt":["Aciuta","Acsfalva","Acsucza","Ácsfalva"],"lon":22.45199,"lat":46.2883,"pop":295},{"id":686696,"name":"Acmariu","lon":23.36337,"lat":45.96598,"pop":503},{"id":686695,"name":"Acriș","alt":["Acris","Acrisu","Acriş","Acrişu"],"lon":25.99247,"lat":45.63673,"pop":1056},{"id":686694,"name":"Ada Kaleh","alt":["Adakale"],"lon":22.45,"lat":44.71667,"pop":0},{"id":686691,"name":"Adalin","alt":["Adalinu"],"lon":23.43763,"lat":47.01303,"pop":253},{"id":686690,"name":"Adam","lon":27.73296,"lat":46.02868,"pop":798},{"id":686688,"name":"Adamclisi","lon":27.95,"lat":44.08333,"pop":2247},{"id":686685,"name":"Adămeşti","lon":23.8,"lat":46.56667,"pop":0},{"id":686686,"name":"Adămeşti","lon":25.26667,"lat":44,"pop":0},{"id":686684,"name":"Adămuş","alt":["Adamus"],"lon":24.23333,"lat":46.3,"pop":5905},{"id":686682,"name":"Adășeni","alt":["Adaseni","Adasenii","Adăşeni","Adăşenii"],"lon":26.93789,"lat":48.0692,"pop":1167},{"id":686678,"name":"Adânca","alt":["Adanca","Adinca","Adincata","Adînca","Adîncata"],"lon":25.61005,"lat":44.9225,"pop":2101},{"id":686672,"name":"Adâncata","alt":["Adancata","Adincata","Adîncata"],"lon":24.95,"lat":44,"pop":0},{"id":686673,"name":"Adâncata","alt":["Adancata","Adaseni","Adincata","Adîncata","Adăseni"],"lon":26.3,"lat":47.73333,"pop":7779},{"id":686674,"name":"Adâncata","alt":["Adancata","Adanoata","Adincata","Adânoata","Adîncata"],"lon":26.43333,"lat":44.76667,"pop":3083},{"id":686675,"name":"Adâncata","alt":["Adancata","Adincata","Adîncata"],"lon":23.74013,"lat":44.48234,"pop":131},{"id":686676,"name":"Adâncata","alt":["Adancata","Adincata","Adîncata","Polucci","Poluci"],"lon":27.88333,"lat":44.15,"pop":0},{"id":686680,"name":"Adea","lon":21.58433,"lat":46.55511,"pop":1025},{"id":686669,"name":"Adjud","alt":["Ad Judul"],"lon":27.16667,"lat":46.1,"pop":17298},{"id":686668,"name":"Adjudeni","lon":26.94903,"lat":47.01408,"pop":4456},{"id":686667,"name":"Adjudu Vechi","alt":["Adjudu-Vechiu","Adjudul-Vechi","Adjudul-Vechiu"],"lon":27.18891,"lat":46.13485,"pop":1508},{"id":686665,"name":"Adoni","alt":["Adom"],"lon":22.17582,"lat":47.43239,"pop":855},{"id":686663,"name":"Adrian","lon":23.12716,"lat":47.90369,"pop":536},{"id":686664,"name":"Adrian","alt":["Gorgenyadorjan","Görgenyadorjàn"],"lon":24.83324,"lat":46.78209,"pop":322},{"id":686662,"name":"Adrianu Mare","alt":["Adrianul Mare","Nagyadorjan","Nagyadorjàn"],"lon":24.80324,"lat":46.49357,"pop":145},{"id":686661,"name":"Adrianu Mic","alt":["Adrianul Mic","Kisadorjan","Kisadorjàn"],"lon":24.78333,"lat":46.5,"pop":0},{"id":686656,"name":"Adunaţi","lon":25.63333,"lat":44.71667,"pop":0},{"id":686657,"name":"Adunaţi","lon":25.43333,"lat":45.18333,"pop":0},{"id":686658,"name":"Adunaţi","alt":["Adunati","Adunatii-Proviti","Adunatii-Provitii","Adunaţii-Proviti","Adunaţii-Proviţii"],"lon":25.61667,"lat":45.13333,"pop":2239},{"id":686659,"name":"Adunaţi","lon":25.55,"lat":44.81667,"pop":0},{"id":686660,"name":"Adunați","lon":25.02933,"lat":44.45197,"pop":290},{"id":686652,"name":"Adunații Teiului","lon":23.05436,"lat":44.51877,"pop":183},{"id":686654,"name":"Adunații-Copăceni","alt":["Adunatii-Copaceni","Adunaţii-Copăceni"],"lon":26.04929,"lat":44.25413,"pop":3424},{"id":673640,"name":"Ady Endre","alt":["Ermindszent","Mecentiu","Mecenţiu","Mesentea","Érmindszent"],"lon":22.61667,"lat":47.58333,"pop":124},{"id":686651,"name":"Afânata","alt":["Afanata","Afinata","Afînata"],"lon":23.97747,"lat":44.70649,"pop":201},{"id":686650,"name":"Afrimeşti","lon":24.76353,"lat":44.47838,"pop":0},{"id":686645,"name":"Afumaţi","lon":26.55,"lat":45.4,"pop":0},{"id":686646,"name":"Afumaţi","lon":27.45,"lat":46.35,"pop":0},{"id":686647,"name":"Afumați","lon":24.45379,"lat":44.76949,"pop":190},{"id":686648,"name":"Afumaţi","alt":["Afumati"],"lon":26.26667,"lat":44.51667,"pop":6696},{"id":686649,"name":"Afumaţi","lon":23.46667,"lat":44,"pop":3247},{"id":10942294,"name":"Agadici","alt":["Agadics"],"lon":21.69559,"lat":45.10913,"pop":202},{"id":686640,"name":"Agafeni","alt":["Agapieni"],"lon":26,"lat":47.2,"pop":0},{"id":686639,"name":"Agafton","lon":26.5982,"lat":47.70909,"pop":452},{"id":686638,"name":"Agapia","lon":26.28333,"lat":47.16667,"pop":4517},{"id":686633,"name":"Agaua","lon":28.07604,"lat":44.83432,"pop":502},{"id":686636,"name":"Agăş","alt":["Agas"],"lon":26.21667,"lat":46.48333,"pop":6619},{"id":686634,"name":"Agăştin","lon":26.36667,"lat":46.53333,"pop":0},{"id":686619,"name":"Agârbiciu","alt":["Agarbiciu","Agarbiciul","Agirbiciu","Agârbiciul","Agîrbiciu"],"lon":23.27887,"lat":46.77021,"pop":564},{"id":686620,"name":"Agârbiciu","alt":["Agarbiciu","Agarbiciul","Agirbiciu","Agârbiciul","Agîrbiciu"],"lon":24.19386,"lat":46.06764,"pop":1522},{"id":686617,"name":"Agârcia","alt":["Agarcia","Agircia","Agîrcia"],"lon":26.29523,"lat":46.92653,"pop":251},{"id":686632,"name":"Aghireș","alt":["Aghires","Egrespatak"],"lon":23.01764,"lat":47.16164,"pop":1196},{"id":686629,"name":"Aghireșu","alt":["Aghires","Aghiresu","Aghiresul","Aghireş","Aghireşu","Aghireşul","Aghiris","Aghiriş"],"lon":23.23773,"lat":46.87209,"pop":1375},{"id":686627,"name":"Aghireșu-Fabrici","alt":["Egeres-banyatelep","Egeres-bányatelep","Egeres-gyartelep","Egeres-gyártelep"],"lon":23.27129,"lat":46.8669,"pop":3193},{"id":686626,"name":"Agigea","lon":28.61079,"lat":44.09258,"pop":5405},{"id":686622,"name":"Agighiol","alt":["Agi Geul","Hagighiol"],"lon":28.87628,"lat":45.03362,"pop":1830},{"id":686616,"name":"Agnita","alt":["Opstina Agnita","Opština Agnita","Szentagota","Szentágota","a ge ni ta","agnyt","Агнита","Агніта","اگنیت","阿格尼塔"],"lon":24.61667,"lat":45.96667,"pop":10505},{"id":686615,"name":"Agrieș","lon":24.13491,"lat":47.40022,"pop":1024},{"id":686613,"name":"Agrieş-Luncă","lon":24.13333,"lat":47.4,"pop":0},{"id":686614,"name":"Agrieșel","lon":24.09387,"lat":47.40052,"pop":284},{"id":686612,"name":"Agrij","lon":23.09918,"lat":47.06685,"pop":1374},{"id":686608,"name":"Agriș","alt":["Agris","Agriş","Egri"],"lon":23.0034,"lat":47.88075,"pop":1058},{"id":686609,"name":"Agriș","lon":23.52054,"lat":46.59354,"pop":608},{"id":686607,"name":"Agrișteu","alt":["Agristeu","Agristeul","Agrişteu","Agrişteul","Egresto","Egrestö"],"lon":24.68479,"lat":46.39227,"pop":733},{"id":686606,"name":"Agrișu de Jos","alt":["Agrisu de Jos","Agrisul de Jos","Agrişu de Jos"],"lon":24.23761,"lat":47.15703,"pop":402},{"id":686605,"name":"Agrișu de Sus","alt":["Agrisu de Sus","Agrisul de Sus","Agrişu de Sus","Agrişul de Sus"],"lon":24.22982,"lat":47.15106,"pop":221},{"id":686602,"name":"Agrișu Mare","alt":["Agris","Agrisu Mare","Agriş","Agrişu Mare"],"lon":21.75558,"lat":46.27243,"pop":1013},{"id":686600,"name":"Agrişu Mic","alt":["Agris","Agrisu Mic","Agrisul Mic","Agrişul Mic","Belegregy","Bélegregy"],"lon":22.03333,"lat":46.51667,"pop":0},{"id":686598,"name":"Agudu","lon":26.73333,"lat":45.2,"pop":0},{"id":686597,"name":"Aita Mare","alt":["Nagyaita","Nagyajta"],"lon":25.55,"lat":45.96667,"pop":1750},{"id":686595,"name":"Aita Medie","alt":["Aita Mijl","Aita de Mijloc","Aita-Mijlocie","Kozep Ada","Kozepajta","Közèpajta"],"lon":25.61234,"lat":45.97573,"pop":864},{"id":686594,"name":"Aita Seacă","alt":["Aita Seaca","Szarazajta","Szàrazajta"],"lon":25.69457,"lat":46.03905,"pop":883},{"id":686592,"name":"Aiton","alt":["Anton"],"lon":23.73333,"lat":46.68333,"pop":1331},{"id":686590,"name":"Aiud","alt":["Ajud","Ajudas","Ajuds","Egidiopolis","Nagyenyed","Opstina Aiud","Opština Aiud","Strassburg","Strassburg am Mieresch","Straßburg am Mieresch","a you de","ayw","Айуд","Аюд","Ајуд","ایو","阿尤德"],"lon":23.72128,"lat":46.31006,"pop":28341},{"id":686589,"name":"Aiudul de Sus","alt":["Aiudu de Sus","Aiudul-de-Sus"],"lon":23.69053,"lat":46.31653,"pop":2276},{"id":686587,"name":"Alămor","lon":23.9937,"lat":45.93003,"pop":1037},{"id":686583,"name":"Alba","lon":26.47736,"lat":48.15859,"pop":1599},{"id":686584,"name":"Alba","alt":["Ac Cadan","Ac Cadân","Ac-Cadin","Ac-Cadîn","Alba Iulia"],"lon":28.51859,"lat":45.06405,"pop":361},{"id":686578,"name":"Alba Iulia","alt":["Alba Julia","Alba Julija","Alba Júlia","Alba-Julia","Alba-Julija","Almpa Ioulia","Aoba Youliya","Apulon","Balgrad","Belgrad-i Erdel","Belgrada","Bălgrad","Ciudadela Blanca","Dsulafehervaru","Erdel Belgradi","Erdel Belgradı","Erdeljski Biograd","Fehervaru","Gyulafehervar","Gyulafehérvár","Karlovsky Belehrad","Karlovský Bělehrad","Karlsburg","QAY","Stolicny Belehrad","Stolicný Belehrad","Vojvodov Belgrad","Vojvodov Biograd","Vojvodov Bjalgrad","Weissenburg","Weisskirchen","Weißenburg","Weißkirchen","Weyssenburg","a er ba you li ya","alba aywlya","alba ywlya","alba-iulia","albaiullia","alpa luliya","Àobā Yóulìyà","Άλμπα Ιούλια","Алба Јулија","Алба Юлия","Алба-Юлия","Алба-Юлія","אלבה יוליה","آلبا ایولیا","ألبا يوليا","البا ایولیا","البا یولیا","அல்பா லூலியா","ალბა-იულია","アルバ・ユリア","阿爾巴尤利亞","알바이울리아"],"lon":23.58333,"lat":46.06667,"pop":66085},{"id":686580,"name":"Albac","alt":["Albak","Fehervoelgy","Fehérvölgy","Gmina Albac","Opstina Albac","Opština Albac","a er ba ke xiang","albak","Албак","ألباك","الباک","阿尔巴克乡"],"lon":22.95164,"lat":46.45246,"pop":2168},{"id":686577,"name":"Albeanu-Mănciulescu","alt":["Albeanu-Manciulescu","Odaile Albeanu","Odăile Albeanu"],"lon":26.5,"lat":44.4,"pop":0},{"id":686576,"name":"Albeasca","lon":24.78333,"lat":44.98333,"pop":0},{"id":686575,"name":"Albele","lon":26.67338,"lat":46.36487,"pop":688},{"id":686573,"name":"Albele-Băi","lon":23.8,"lat":45.88333,"pop":0},{"id":686570,"name":"Albeni","lon":26.85,"lat":46.46667,"pop":0},{"id":686571,"name":"Albeni","lon":23.6,"lat":45.03333,"pop":2820},{"id":686572,"name":"Albeni","lon":25.26015,"lat":44.39745,"pop":414},{"id":686555,"name":"Albeşti","lon":26.58333,"lat":45.45,"pop":0},{"id":686556,"name":"Albeşti","lon":27.06667,"lat":47.7,"pop":6578},{"id":686557,"name":"Albești","lon":27.10494,"lat":47.18516,"pop":403},{"id":686558,"name":"Albești","lon":22.25076,"lat":46.77085,"pop":410},{"id":686559,"name":"Albești","lon":27.55285,"lat":46.69613,"pop":239},{"id":686560,"name":"Albeşti","alt":["Albestii","Albeştii"],"lon":27.86667,"lat":46.5,"pop":3279},{"id":686561,"name":"Albeşti","alt":["Albesti","Ferihaza"],"lon":24.85,"lat":46.23333,"pop":5382},{"id":686562,"name":"Albeşti","lon":25.0078,"lat":45.30955,"pop":4503},{"id":686563,"name":"Albești","alt":["Albescii","Albesti","Albeşti"],"lon":26.92608,"lat":44.99017,"pop":952},{"id":686564,"name":"Albești","lon":24.46062,"lat":44.68929,"pop":590},{"id":686565,"name":"Albeşti","lon":27.13333,"lat":44.53333,"pop":2702},{"id":686566,"name":"Albești","alt":["Albesli","Albesti","Albeşti"],"lon":23.76704,"lat":44.37456,"pop":670},{"id":686567,"name":"Albești","lon":25.12007,"lat":44.06825,"pop":816},{"id":686568,"name":"Albeşti","alt":["Albesti","Sarighial","Sarighiol","Sarighoil"],"lon":28.41667,"lat":43.8,"pop":3459},{"id":686543,"name":"Albești-Muru","alt":["Albesti-Muru","Albesti-de Mur","Albestii","Albestii-Muru","Albeşti-Muru","Albeşti-de Mur","Albeştii","Albeştii-Muru"],"lon":26.20899,"lat":44.9444,"pop":1114},{"id":686542,"name":"Albeşti-Paleologu","alt":["Albesti-Paleologu","Albestii-Paleolog","Albestii-Paleologu","Albeştii-Paleolog","Albeştii-Paleologu","Paleologu"],"lon":26.21667,"lat":44.95,"pop":5695},{"id":686545,"name":"Albeștii Bistriței","lon":24.45114,"lat":46.99301,"pop":193},{"id":7871362,"name":"Albeştii de Argeş","lon":24.66667,"lat":45.21667,"pop":0},{"id":686544,"name":"Albeştii Pământeni","alt":["Albesti","Albesti-Pamanteni","Albesti-Paminteni","Albestii Pamanteni","Albestii Paminteni","Albestii-Pamanteni","Albeşti","Albeşti-Pământeni","Albeşti-Pămînteni","Albeştii Pămînteni","Albeştii-Pământeni","Pamanteni","Paminteni","Pământeni","Pămînteni"],"lon":24.66667,"lat":45.21667,"pop":5815},{"id":686539,"name":"Albeștii Ungureni","alt":["Albesti-Ungureni","Albestii-Ungureni","Albeşti-Ungureni","Albeştii-Ungureni","Ungureni"],"lon":24.67254,"lat":45.22529,"pop":2251},{"id":686538,"name":"Albeta","alt":["Albota"],"lon":24.11667,"lat":45.11667,"pop":0},{"id":686537,"name":"Albi","lon":24.24667,"lat":45.93594,"pop":21},{"id":686532,"name":"Albina","lon":22.9625,"lat":44.63306,"pop":0},{"id":686533,"name":"Albina","lon":27.376,"lat":46.65909,"pop":0},{"id":686534,"name":"Albina","lon":21.37538,"lat":45.7148,"pop":319},{"id":686535,"name":"Albina","alt":["Ciucea","Ciucia"],"lon":27.87269,"lat":45.1676,"pop":323},{"id":686536,"name":"Albina","alt":["Albin"],"lon":28.2,"lat":44.73333,"pop":0},{"id":686530,"name":"Albinari","lon":26.26667,"lat":45.41667,"pop":0},{"id":686531,"name":"Albinari","alt":["Albinarii"],"lon":26.15706,"lat":45.21085,"pop":105},{"id":686528,"name":"Albiș","lon":22.24528,"lat":47.39024,"pop":1059},{"id":686529,"name":"Albiș","lon":26.00652,"lat":45.93572,"pop":434},{"id":686527,"name":"Albița","lon":28.14519,"lat":46.79748,"pop":70},{"id":686523,"name":"Albota","lon":24.85,"lat":44.78333,"pop":1865},{"id":686524,"name":"Albota de Jos","alt":["Mosteni","Moşteni"],"lon":24.83333,"lat":44.76667,"pop":3866},{"id":686519,"name":"Albotele","lon":25.08306,"lat":44.89715,"pop":414},{"id":686522,"name":"Alboteşti","lon":26.48333,"lat":46.46667,"pop":0},{"id":686520,"name":"Albuleşti","alt":["Albule","Albulesti"],"lon":25.06667,"lat":45.05,"pop":0},{"id":686521,"name":"Albulești","lon":23.20397,"lat":44.5156,"pop":903},{"id":686518,"name":"Aldămaş","alt":["Adamas","Adămaş","Aldamas","Aldamasul","Aldămaşul","Valea Almas","Valea Almaş","Valea Almos","Valea Almoş"],"lon":26.08333,"lat":46.55,"pop":0},{"id":686517,"name":"Aldea","alt":["Abasfalva","Abàsfalva"],"lon":25.43496,"lat":46.25249,"pop":386},{"id":686516,"name":"Aldeni","lon":26.75676,"lat":45.31913,"pop":568},{"id":686510,"name":"Aldeşti","lon":26.86667,"lat":46.78333,"pop":0},{"id":686511,"name":"Aldești","alt":["Aldesti","Aldofalva","Algya","Algyest","Áldófalva","Álgyest"],"lon":22.0417,"lat":46.39463,"pop":630},{"id":686512,"name":"Aldești","lon":27.91453,"lat":46.1321,"pop":463},{"id":686513,"name":"Aldești","lon":24.43158,"lat":45.0642,"pop":434},{"id":686514,"name":"Aldeşti","alt":["Aldesti","Otesti","Oteşti"],"lon":24.38333,"lat":44.7,"pop":0},{"id":686508,"name":"Alecuș","lon":23.99794,"lat":46.29128,"pop":285},{"id":686507,"name":"Aleşd","alt":["Alesd"],"lon":22.41667,"lat":47.06667,"pop":10264},{"id":686504,"name":"Aleşi","alt":["Alesi","Alesii Cioconesti","Aleşii Cioconeşti"],"lon":25.83333,"lat":44.63333,"pop":0},{"id":686503,"name":"Aleuș","lon":22.63096,"lat":47.14699,"pop":400},{"id":686501,"name":"Alexandria","alt":["Alexandri"],"lon":24.81667,"lat":45.26667,"pop":0},{"id":686502,"name":"Alexandria","alt":["Aleksandrija","Alexandria i Romania","alkzandrya","allegsandeulia","alyksandrya","arekusandoria","ya li shan de li ya","Александрия","Александрија","Александрія","أليكساندريا","الکزاندریا","الیکساندریا، رومانیہ","الیگزاندریا ،رومانیہ","アレクサンドリア","亚历山德里亚","알렉산드리아"],"lon":25.33333,"lat":43.98333,"pop":49346},{"id":686499,"name":"Alexandrina","lon":25.45,"lat":43.81667,"pop":0},{"id":686500,"name":"Alexandrina","lon":26.88333,"lat":46.4,"pop":0},{"id":686498,"name":"Alexandrița","alt":["Alexandria","Alexandrita","Alexandriţa","Sandortelke","Sàndortelke"],"lon":25.31562,"lat":46.2345,"pop":49},{"id":686497,"name":"Alexandru cel Bun","alt":["Alexandra-cel-Bun"],"lon":27.29519,"lat":47.45798,"pop":571},{"id":686495,"name":"Alexandru I. Cuza","alt":["Alexandru Ioan Cuza","Cuza-Voda","Cuza-Vodă"],"lon":26.85,"lat":47.13333,"pop":841},{"id":686496,"name":"Alexandru I. Cuza","lon":26.48328,"lat":44.42785,"pop":0},{"id":686492,"name":"Alexandru Odobescu","alt":["Mucestii de Jos","Muceştii de Jos"],"lon":26.91285,"lat":45.51585,"pop":600},{"id":686493,"name":"Alexandru Odobescu","alt":["Barza"],"lon":27.08333,"lat":44.26667,"pop":3062},{"id":686491,"name":"Alexandru Vaida Voivod","alt":["Alexandru Vaida Voevod"],"lon":27.15,"lat":45.58333,"pop":0},{"id":686490,"name":"Alexandru Vlahuță","alt":["Alexandru Vlahuta","Alexandru Vlăhuţă","Satu Nou"],"lon":27.09936,"lat":45.56604,"pop":47},{"id":686489,"name":"Alexandru Vlăhuţă","alt":["Alexandru Vlahuta","Patrascani","Pătrăşcani"],"lon":27.63333,"lat":46.41667,"pop":3139},{"id":686484,"name":"Alexeni","lon":25.13333,"lat":47.31667,"pop":0},{"id":686485,"name":"Alexeni","alt":["Panoasa","Paraschiveni","Pănoasa"],"lon":27.3686,"lat":46.97008,"pop":553},{"id":686486,"name":"Alexeni","alt":["Alexieni"],"lon":23.24891,"lat":45.13598,"pop":283},{"id":686487,"name":"Alexeni","lon":26.7,"lat":44.68333,"pop":2478},{"id":686481,"name":"Alexești","lon":27.4446,"lat":46.87747,"pop":44},{"id":686482,"name":"Alexeşti","alt":["Aisesti","Aiseşti","Alexesti"],"lon":23.86667,"lat":44.96667,"pop":0},{"id":686478,"name":"Aliceni","lon":23.30659,"lat":47.96459,"pop":439},{"id":686479,"name":"Aliceni","lon":26.86402,"lat":45.26298,"pop":535},{"id":686476,"name":"Aliman","lon":25.06667,"lat":43.91667,"pop":0},{"id":686477,"name":"Aliman","alt":["Alimanul"],"lon":27.85,"lat":44.18333,"pop":3015},{"id":686474,"name":"Alimănești","lon":24.53895,"lat":44.25693,"pop":2659},{"id":686473,"name":"Alimpeşti","alt":["Alimpesti"],"lon":23.8,"lat":45.08333,"pop":2232},{"id":686471,"name":"Alioș","alt":["Alios","Aliosch","Alioş","Allios","Allyos","Temesillesd","Temesillésd"],"lon":21.49291,"lat":46.0379,"pop":960},{"id":686469,"name":"Aliza","lon":22.73103,"lat":47.69542,"pop":35},{"id":686468,"name":"Alma","lon":24.48037,"lat":46.21359,"pop":884},{"id":686435,"name":"Alma Vii","alt":["Alma intre Vii","Alma între Vii"],"lon":24.4336,"lat":46.04773,"pop":336},{"id":686457,"name":"Almaș","lon":26.34432,"lat":47.00935,"pop":560},{"id":686458,"name":"Almaş","alt":["Almas","Almaș","Almás","Haromalmas","Háromalmás"],"lon":22.23333,"lat":46.28333,"pop":2957},{"id":686451,"name":"Almaș-Săliște","alt":["Almas-Saliste","Almas-Seliste","Almaş-Selişte","Almaş-Sălişte"],"lon":22.52216,"lat":46.06015,"pop":215},{"id":686449,"name":"Almaşu","alt":["Almasu","Almasul","Almaşul","Varalmas","Varalmás"],"lon":23.12965,"lat":46.94546,"pop":2801},{"id":686446,"name":"Almașu de Mijloc","alt":["Almasu de Mijloc","Almasul-de-Mijoc","Almaşu de Mijloc","Almaşul-de-Mijoc"],"lon":23.10654,"lat":46.06693,"pop":238},{"id":686442,"name":"Almașu Mare","alt":["Almasu Mare","Almasul Mare","Almaşu Mare","Almaşul Mare"],"lon":22.53285,"lat":47.32817,"pop":960},{"id":686443,"name":"Almaşu Mare","alt":["Aimasul Mare","Aimaşul Mare","Almasel","Almasu Mare","Almasul-Mare","Almaşel","Almaşul-Mare"],"lon":23.11721,"lat":46.11014,"pop":1649},{"id":686438,"name":"Almașu Mic","alt":["Almasu Mic","Almasul-Mic","Almaşu Mic","Almaşul-Mic"],"lon":22.51032,"lat":47.31728,"pop":552},{"id":686439,"name":"Almașu Mic","lon":22.13518,"lat":47.17131,"pop":209},{"id":686440,"name":"Almașu Mic","alt":["Almasu Mic","Almasul Mic","Almaşu Mic","Almăşul Mic"],"lon":22.89483,"lat":45.81859,"pop":88},{"id":686437,"name":"Almașu Mic de Munte","alt":["Almasu Mic de Munte","Almasul-Mic-de-Munte","Almaşu Mic de Munte","Almaşul-Mic-de-Munte"],"lon":23.08131,"lat":46.0563,"pop":128},{"id":686436,"name":"Almaşu-Sec","alt":["Almasu-Sec","Almasul Sec","Almaşul Sec"],"lon":22.86667,"lat":45.85,"pop":0},{"id":686463,"name":"Almăj","lon":23.71667,"lat":44.45,"pop":529},{"id":686464,"name":"Almăjel","lon":23.59432,"lat":44.5561,"pop":117},{"id":686465,"name":"Almăjel","lon":23.65,"lat":44.5,"pop":0},{"id":686466,"name":"Almăjel","alt":["Almajel","Almajelu","Almăjelu"],"lon":23.02956,"lat":44.38307,"pop":939},{"id":686460,"name":"Almălău","alt":["Almalau","Alntalau","Alntalău"],"lon":27.34345,"lat":44.0849,"pop":981},{"id":686452,"name":"Almăşel","alt":["Almas","Almasel","Almás"],"lon":22.43333,"lat":46.08333,"pop":0},{"id":686434,"name":"Alparea","alt":["Alpare"],"lon":22.04812,"lat":47.03054,"pop":1010},{"id":686432,"name":"Altdorf","alt":["Aldorf"],"lon":24.51667,"lat":47.16667,"pop":0},{"id":686429,"name":"Altringen","alt":["Kisrekas","Kisrékas","Rekeshely"],"lon":21.55495,"lat":45.98241,"pop":37},{"id":686431,"name":"Alțâna","alt":["Alcina","Altina","Alzen","Alțîna"],"lon":24.46667,"lat":45.93333,"pop":1094},{"id":686401,"name":"Alun","lon":23.1597,"lat":45.60855,"pop":130},{"id":686428,"name":"Alun","lon":22.6875,"lat":45.70753,"pop":52},{"id":686427,"name":"Alungeni","alt":["Futasfalva","Futàsfalva"],"lon":26.02557,"lat":46.01746,"pop":387},{"id":686418,"name":"Aluniș","lon":23.27619,"lat":47.38521,"pop":754},{"id":686419,"name":"Aluniş","alt":["Alunis"],"lon":23.75,"lat":47.03333,"pop":1370},{"id":686420,"name":"Aluniş","alt":["Magyaro"],"lon":24.79855,"lat":46.89287,"pop":3258},{"id":686421,"name":"Aluniș","alt":["Alunis","Alunisu","Aluniş","Alunişu"],"lon":26.41632,"lat":45.4086,"pop":178},{"id":686422,"name":"Aluniș","lon":25.13997,"lat":45.23457,"pop":6},{"id":686423,"name":"Aluniş","alt":["Alunis"],"lon":25.86667,"lat":45.2,"pop":3677},{"id":686424,"name":"Aluniș","alt":["Alunis","Alunisul","Aluniş","Alunişul"],"lon":25.30924,"lat":45.08751,"pop":154},{"id":686425,"name":"Aluniș","alt":["Alunis","Aluniş","Scurtu","Scurtul"],"lon":23.64266,"lat":44.73887,"pop":139},{"id":10903356,"name":"Aluniș","alt":["Cseralja"],"lon":21.48926,"lat":46.09351,"pop":929},{"id":10943002,"name":"Aluniș","alt":["Szekelymagyaros","Székelymagyaros"],"lon":25.18368,"lat":46.26435,"pop":151},{"id":686407,"name":"Alunișu","alt":["Alunisu de Jos","Alunişu de Jos"],"lon":24.55,"lat":44.71667,"pop":409},{"id":686409,"name":"Alunișu","lon":22.94319,"lat":46.83209,"pop":210},{"id":686410,"name":"Alunișu","alt":["Alunisu","Alunisul","Alunişu","Alunişul"],"lon":24.77427,"lat":45.2951,"pop":23},{"id":686411,"name":"Alunișu","alt":["Alunisu","Alunişu","Valea Porcului"],"lon":24.59551,"lat":45.06669,"pop":338},{"id":686412,"name":"Alunișu","alt":["Alunisu","Alunişu","Cocosu","Cocosul","Cocoşu","Cocoşul"],"lon":25.72993,"lat":44.72365,"pop":252},{"id":686413,"name":"Alunișu","alt":["Alunisu","Alunişu","Filipescu"],"lon":26.05837,"lat":44.33883,"pop":1245},{"id":686406,"name":"Alunişu de Sus","alt":["Alunisu de Sus","Alunisul de Sus","Alunişul de Sus"],"lon":24.53333,"lat":44.75,"pop":0},{"id":686403,"name":"Alunişul","alt":["Alunisul","Hapai","Hăpăi"],"lon":26.26667,"lat":47.88333,"pop":0},{"id":686404,"name":"Alunișul","alt":["Alunisul","Alunişul","Gaureni","Găureni"],"lon":24.27906,"lat":47.39146,"pop":461},{"id":686405,"name":"Alunișul","alt":["Alunisul","Alunişul","Ciolani"],"lon":22.8604,"lat":44.63456,"pop":92},{"id":686402,"name":"Alunu","alt":["Alunul"],"lon":23.81667,"lat":45.01667,"pop":4495},{"id":686398,"name":"Amara","alt":["Amara Veche"],"lon":27.29244,"lat":45.24866,"pop":1733},{"id":686399,"name":"Amara","lon":27.31667,"lat":44.61667,"pop":7557},{"id":686390,"name":"Amara Nouă","lon":27.28333,"lat":45.25,"pop":0},{"id":10944706,"name":"Amara Nouă","lon":27.34208,"lat":44.61401,"pop":7},{"id":686380,"name":"Amaru","alt":["Amarul"],"lon":26.58333,"lat":44.93333,"pop":2749},{"id":686376,"name":"Amați","alt":["Amat","Amati","Amaţ","Amaţi"],"lon":22.91951,"lat":47.74314,"pop":896},{"id":686388,"name":"Amărăşti","lon":24.15,"lat":44.76667,"pop":2109},{"id":686389,"name":"Amărăști","lon":23.72767,"lat":44.58597,"pop":601},{"id":686386,"name":"Amărăştii de Jos","alt":["Amarasti-de-Jos","Amarastii de Jos","Amăraşti-de-Jos"],"lon":24.16667,"lat":43.95,"pop":5870},{"id":686384,"name":"Amărăştii de Sus","alt":["Amarastii de Sus"],"lon":24.15,"lat":43.98333,"pop":3879},{"id":686382,"name":"Amărăştii-Dos","lon":24.15,"lat":44.76667,"pop":0},{"id":686381,"name":"Amărăştii-Faţă","lon":24.15,"lat":44.76667,"pop":0},{"id":686375,"name":"Ambru","lon":23.28333,"lat":46.38333,"pop":0},{"id":686374,"name":"Ambud","lon":22.94372,"lat":47.77157,"pop":999},{"id":686372,"name":"Amnaș","alt":["Amnas","Amnaş"],"lon":23.9,"lat":45.84613,"pop":389},{"id":686369,"name":"Ampoița","lon":23.45011,"lat":46.11761,"pop":700},{"id":686366,"name":"Amzacea","lon":28.4,"lat":43.95,"pop":2647},{"id":686362,"name":"Andacs","lon":21.7,"lat":46.81667,"pop":0},{"id":686361,"name":"Andici","lon":23.91937,"lat":46.64776,"pop":0},{"id":686360,"name":"Andolina","lon":27.03333,"lat":44.2,"pop":0},{"id":686358,"name":"Andrăşeşti","alt":["Andrasesti"],"lon":27.13333,"lat":44.56667,"pop":2272},{"id":686355,"name":"Andreeni","alt":["Andrasfalva","Andràsfalva"],"lon":25.0243,"lat":46.34689,"pop":150},{"id":686352,"name":"Andreeşti","lon":24.2,"lat":44.81667,"pop":0},{"id":686354,"name":"Andreești","lon":23.55099,"lat":44.78948,"pop":972},{"id":12493996,"name":"Andrei Mureșanu Cluj-Napoca","lon":23.60612,"lat":46.75922,"pop":0},{"id":686346,"name":"Andrei Șaguna","lon":21.39175,"lat":46.2881,"pop":1824},{"id":686350,"name":"Andreiaşu de Jos","alt":["Andreiasu de Jos","Andriesu","Andriesu-de-Jos","Andriesul-de-Jos","Andrieşu","Andrieşu-de-Jos","Andrieşul-de-Jos"],"lon":26.83333,"lat":45.75,"pop":2000},{"id":686348,"name":"Andreiaşu de Sus","alt":["Andreiasu de Sus","Andriesu-de-Sus","Andriesul de Sus","Andrieşu-de-Sus","Andrieşul de Sus"],"lon":26.86667,"lat":45.71667,"pop":0},{"id":686353,"name":"Andreiești","lon":24.27953,"lat":45.21836,"pop":307},{"id":686345,"name":"Andreneasa","alt":["Andreneasza","Andrènèàsza"],"lon":25.02239,"lat":46.9676,"pop":0},{"id":686344,"name":"Andrica","alt":["Andreica"],"lon":21.56667,"lat":45.86667,"pop":0},{"id":686343,"name":"Andrid","lon":22.35,"lat":47.51667,"pop":2627},{"id":686341,"name":"Andrieşeni","alt":["Andrieseni"],"lon":27.28333,"lat":47.53333,"pop":4501},{"id":686339,"name":"Andrieşeşti","lon":26.83333,"lat":46.63333,"pop":0},{"id":686338,"name":"Androchel","lon":24.46667,"lat":45.93333,"pop":0},{"id":686337,"name":"Androeni","lon":23.23333,"lat":45.35,"pop":0},{"id":686336,"name":"Andronache","lon":26.15,"lat":44.48333,"pop":0},{"id":686335,"name":"Androneşti","alt":["Andronesti","Andronestilor","Androneştilor"],"lon":25.11667,"lat":47.33333,"pop":0},{"id":686334,"name":"Angeleşti","alt":["Angelesti","Anghelesti","Angheleşti"],"lon":23.85,"lat":45.06667,"pop":0},{"id":686330,"name":"Angheleşti","lon":24.11667,"lat":45.1,"pop":0},{"id":686331,"name":"Anghelești","lon":23.09805,"lat":46.24552,"pop":91},{"id":686332,"name":"Anghelești","alt":["Anghelesti","Anghelestii","Angheleşti","Angheleştii"],"lon":27.06459,"lat":46.07875,"pop":1249},{"id":686333,"name":"Anghelești","lon":25.6437,"lat":44.33702,"pop":163},{"id":686329,"name":"Angheluș","alt":["Anghelus","Angheluş","Angyalos"],"lon":25.88696,"lat":45.87868,"pop":681},{"id":686328,"name":"Angheluţa","lon":27.5,"lat":46.33333,"pop":0},{"id":686327,"name":"Anghinești","lon":24.66527,"lat":45.07332,"pop":298},{"id":686326,"name":"Angofa","lon":24.78418,"lat":46.18658,"pop":4},{"id":686325,"name":"Anieș","lon":24.76853,"lat":47.41347,"pop":1588},{"id":686324,"name":"Anina","alt":["Staierdorfanina","Stajerlakanina","Steierdorf","Stájerlakanina","a ni na","anyna","Анина","Аніна","انینا","阿尼納"],"lon":21.85694,"lat":45.07944,"pop":8689},{"id":686322,"name":"Anini","alt":["Valea Epei","Valea Iepei"],"lon":26.47503,"lat":45.35263,"pop":99},{"id":686321,"name":"Aninișu din Deal","alt":["Aninisu din Deal","Aninişu din Deal","Aninsul din Deal","Aninşul din Deal"],"lon":23.61679,"lat":45.17779,"pop":285},{"id":686320,"name":"Aninișu din Vale","alt":["Aninisiu-din-Vale","Aninisu","Aninisu din Vale","Aninisul-din-Vale","Aninişiu-din-Vale","Aninişu","Aninişu din Vale","Aninişul-din-Vale"],"lon":23.60867,"lat":45.17404,"pop":570},{"id":686310,"name":"Aninoasa","lon":26.36667,"lat":45.23333,"pop":0},{"id":686311,"name":"Aninoasa","lon":24,"lat":44.91667,"pop":0},{"id":686312,"name":"Aninoasa","lon":23.26667,"lat":44.83333,"pop":0},{"id":686313,"name":"Aninoasa","alt":["Egerpatak","Аниноаса"],"lon":25.96697,"lat":45.81671,"pop":414},{"id":686314,"name":"Aninoasa","lon":26.03333,"lat":45.66667,"pop":0},{"id":686315,"name":"Aninoasa","lon":23.31505,"lat":45.40924,"pop":4998},{"id":686316,"name":"Aninoasa","lon":24.93333,"lat":45.18333,"pop":3334},{"id":686317,"name":"Aninoasa","lon":25.43333,"lat":44.96667,"pop":5907},{"id":686318,"name":"Aninoasa","lon":24.15431,"lat":44.79391,"pop":403},{"id":686319,"name":"Aninoasa","lon":23.48333,"lat":44.75,"pop":4288},{"id":686303,"name":"Aninoșani","lon":25.22983,"lat":45.06953,"pop":125},{"id":686302,"name":"Ant","lon":21.46755,"lat":46.66635,"pop":230},{"id":686301,"name":"Antăș","alt":["Anlas","Anlăş","Antas","Antăş"],"lon":23.58119,"lat":47.11222,"pop":44},{"id":686300,"name":"Antoceni","alt":["Antocenii"],"lon":26.47642,"lat":47.33272,"pop":359},{"id":686299,"name":"Antofiloaia","lon":26.14479,"lat":44.86159,"pop":81},{"id":686298,"name":"Antohești","alt":["Antohesti","Antohestii","Antoheşti","Antoheştii","Antonesti","Antoneşti","Petresti","Petreşti"],"lon":27.24502,"lat":46.55099,"pop":220},{"id":686295,"name":"Antoneşti","lon":25.96667,"lat":46.56667,"pop":0},{"id":686296,"name":"Antoneşti","lon":23.28333,"lat":44.71667,"pop":0},{"id":686297,"name":"Antonești","lon":25.18395,"lat":44.11764,"pop":468},{"id":686294,"name":"Apa","lon":23.2,"lat":47.76667,"pop":2842},{"id":686291,"name":"Apa Asău","lon":26.37373,"lat":46.49682,"pop":1579},{"id":686284,"name":"Apa Neagră","lon":22.85936,"lat":44.9953,"pop":419},{"id":686282,"name":"Apa Sărată","alt":["Ap Sarata","Ap Sărată","Apa Sarata"],"lon":25,"lat":45.23333,"pop":0},{"id":686289,"name":"Apadia","lon":22.04816,"lat":45.39023,"pop":320},{"id":686288,"name":"Apahida","lon":23.75,"lat":46.81667,"pop":8658},{"id":686285,"name":"Apalina","alt":["Abafaja","Abafàja"],"lon":24.69447,"lat":46.75212,"pop":2863},{"id":686277,"name":"Apateu","alt":["Apateul"],"lon":22.99491,"lat":47.77289,"pop":315},{"id":686278,"name":"Apateu","lon":21.92408,"lat":46.97217,"pop":288},{"id":686279,"name":"Apateu","lon":21.78333,"lat":46.61667,"pop":3622},{"id":686275,"name":"Apatiu","lon":24.18618,"lat":46.99968,"pop":319},{"id":686281,"name":"Apaţa","alt":["Apata"],"lon":25.51667,"lat":45.95,"pop":2929},{"id":686283,"name":"Apărătorii Patriei","alt":["Aparatorii Patriei"],"lon":26.14021,"lat":44.37405,"pop":0},{"id":686274,"name":"Apele Vii","lon":24.06667,"lat":44.06667,"pop":2462},{"id":686272,"name":"Apold","lon":24.81667,"lat":46.11667,"pop":3086},{"id":686270,"name":"Apoldu de Jos","alt":["Apoldul-de-Jos"],"lon":23.85,"lat":45.86667,"pop":1506},{"id":686268,"name":"Apoldu de Sus","alt":["Apoldul-de-Sus","Grosspold"],"lon":23.83333,"lat":45.85,"pop":0},{"id":686264,"name":"Apostari","alt":["Apostarii"],"lon":26.8,"lat":45.5,"pop":0},{"id":686265,"name":"Apostari","lon":26.66667,"lat":45.48333,"pop":0},{"id":686263,"name":"Apostolache","lon":26.26667,"lat":45.13333,"pop":2311},{"id":686261,"name":"Apoș","alt":["Aposdorf","Szaszapatfalva","Szászapátfalva"],"lon":24.55,"lat":46.03333,"pop":276},{"id":686260,"name":"Aprodu Purice","lon":26.41667,"lat":47.26667,"pop":0},{"id":686259,"name":"Aprozi","lon":26.50213,"lat":44.26616,"pop":1264},{"id":686256,"name":"Araci","lon":25.65482,"lat":45.81187,"pop":1373},{"id":686254,"name":"Arad","alt":["ARW","Altarad","Aradia","Aradinum Vetus","Micalaca","Micălaca","Mikelaka","Murasel","Muresel","Mureşel","Murăşel","O-Arad","Orodinum","Zsigmondhaza","Zsigmondháza","Ō-Arad","ʻrd","Арад","ערד"],"lon":21.31667,"lat":46.18333,"pop":169065},{"id":686252,"name":"Arada","lon":22.95,"lat":46.5,"pop":0},{"id":686250,"name":"Aradu Nou","alt":["Aradul Nou","Neo-Aradinum","Neuarad","Ujarad","Újarad"],"lon":21.32429,"lat":46.14678,"pop":0},{"id":686248,"name":"Arama","lon":25.56667,"lat":47.4,"pop":0},{"id":686249,"name":"Arama","lon":27.11438,"lat":47.39829,"pop":685},{"id":686241,"name":"Aranghel","alt":["Aranghelul","Aranghelul-Buda"],"lon":24.31728,"lat":45.11673,"pop":146},{"id":686247,"name":"Arămești","alt":["Aramesti","Armanesti","Armăneşti","Arămeşti","Liliac Armanesti","Liliac Armăneşti"],"lon":26.81809,"lat":46.77911,"pop":51},{"id":686246,"name":"Arămeşti-Boereşti","lon":26.81667,"lat":46.76667,"pop":0},{"id":686245,"name":"Arămeşti-Răzeşi","lon":26.81667,"lat":46.76667,"pop":0},{"id":686244,"name":"Arămoaia","lon":26.61985,"lat":47.07248,"pop":139},{"id":686242,"name":"Arăneag","alt":["Araneag","Araniag","Arăniag"],"lon":21.77798,"lat":46.25294,"pop":467},{"id":686240,"name":"Arănieș","lon":22.7393,"lat":45.79493,"pop":64},{"id":10942258,"name":"Arbănași","lon":26.73688,"lat":45.39898,"pop":8},{"id":12519168,"name":"Arbora","lon":27.20272,"lat":47.49323,"pop":0},{"id":686239,"name":"Arbore","lon":25.93333,"lat":47.73333,"pop":6736},{"id":686237,"name":"Arborea","lon":26.52013,"lat":48.0514,"pop":763},{"id":686236,"name":"Arcalia","lon":24.36574,"lat":47.08075,"pop":697},{"id":686235,"name":"Arcani","lon":23.13333,"lat":45.08333,"pop":1424},{"id":686233,"name":"Arcanu","lon":26.98848,"lat":44.83667,"pop":498},{"id":686232,"name":"Arcești","lon":24.23421,"lat":44.46645,"pop":521},{"id":686230,"name":"Arcești Cot","alt":["Arcesti-Cot","Arcestii-Cot","Arceşti-Cot"],"lon":24.26944,"lat":44.45763,"pop":789},{"id":686229,"name":"Archia","lon":22.8989,"lat":45.84408,"pop":84},{"id":686228,"name":"Archid","lon":23.01353,"lat":47.34519,"pop":523},{"id":686226,"name":"Archiş","alt":["Archis","Archiș","Arkis","Arkus","Belarkos","Bélárkos","Árkis","Árkus"],"lon":22.05,"lat":46.48333,"pop":1667},{"id":686224,"name":"Archita","lon":25.08722,"lat":46.18069,"pop":760},{"id":686221,"name":"Archiud","alt":["Arhiud"],"lon":24.43924,"lat":46.89032,"pop":805},{"id":686219,"name":"Arcuda","lon":25.86667,"lat":44.48333,"pop":0},{"id":686218,"name":"Arcuș","alt":["Arcus","Arcuş","Arkos","Árkos"],"lon":25.77673,"lat":45.90077,"pop":1248},{"id":686216,"name":"Ardan","lon":24.67219,"lat":47.0299,"pop":891},{"id":686215,"name":"Ardealu","alt":["Ardeal","Ardealul","Asinlar","Asînlar","Hasanlar"],"lon":28.31551,"lat":44.97343,"pop":0},{"id":686214,"name":"Ardeleni","lon":25.65,"lat":43.83333,"pop":0},{"id":686213,"name":"Ardeluţa","lon":26.19655,"lat":46.72618,"pop":0},{"id":686212,"name":"Ardeoani","alt":["Ardedani"],"lon":26.6,"lat":46.53333,"pop":2532},{"id":686210,"name":"Ardeova","lon":23.10717,"lat":46.79553,"pop":123},{"id":686209,"name":"Arderea","lon":23.13333,"lat":44.91667,"pop":0},{"id":686208,"name":"Ardeu","alt":["Ardeul"],"lon":23.14507,"lat":46.02234,"pop":74},{"id":686206,"name":"Ardud","alt":["Arded","Erdeed","Erdod","Erdöd","Erdőd","Opstina Ardud","Opština Ardud","a er du de","ardwd","Ардуд","اردود","阿爾杜德"],"lon":22.88333,"lat":47.63333,"pop":6357},{"id":686204,"name":"Ardud-Vii","alt":["Ardud","Erdeed","Erdod","Erdőd"],"lon":22.93617,"lat":47.64608,"pop":123},{"id":686203,"name":"Ardusat","lon":23.36667,"lat":47.65,"pop":2513},{"id":686201,"name":"Arduzel","alt":["Arduzal"],"lon":23.26686,"lat":47.44804,"pop":980},{"id":686200,"name":"Arefu","alt":["Arefii","Areful"],"lon":24.6,"lat":45.33333,"pop":1300},{"id":686197,"name":"Argăsileşti","alt":["Argasalesti","Argasilesti","Argăsâleşti"],"lon":26.41667,"lat":45.5,"pop":0},{"id":686196,"name":"Argea","alt":["Argeaua"],"lon":27.26158,"lat":46.04347,"pop":369},{"id":686195,"name":"Argel","lon":25.47049,"lat":47.76136,"pop":1059},{"id":686188,"name":"Argestru","alt":["Argestrul"],"lon":25.32358,"lat":47.38156,"pop":717},{"id":686191,"name":"Argeșani","lon":24.70579,"lat":45.05913,"pop":485},{"id":686190,"name":"Argeșelu","alt":["Argeselu","Argeşelu","Ciumesti","Ciumeşti"],"lon":24.87115,"lat":44.9274,"pop":1501},{"id":686187,"name":"Argeşul","alt":["Argesu","Argesul","Argeşu","Parlita","Pirlita","Pârlita","Pîrlita"],"lon":26.05,"lat":44.26667,"pop":0},{"id":686186,"name":"Argetoaia","lon":23.36667,"lat":44.51667,"pop":4862},{"id":686184,"name":"Argetoaia de Jos","lon":23.4,"lat":44.5,"pop":0},{"id":686182,"name":"Arghira","lon":26.4725,"lat":47.45412,"pop":1214},{"id":686181,"name":"Arghișu","alt":["Arghiresu","Arghireşu","Arghis","Arghisu","Arghiş","Arghişu","Argisu","Argişu"],"lon":23.24123,"lat":46.93653,"pop":222},{"id":686180,"name":"Arginești","alt":["Arginesti","Argineşti","Argintesti","Arginteşti"],"lon":23.41467,"lat":44.57397,"pop":556},{"id":686179,"name":"Argintari","lon":24.36667,"lat":45.1,"pop":0},{"id":686177,"name":"Ariceştii de Jos","lon":25.83333,"lat":44.93333,"pop":0},{"id":686176,"name":"Ariceştii de Sus","alt":["Aricesti-de-Sus","Aricestii de Sus","Ariceşti-de-Sus"],"lon":25.83333,"lat":44.95,"pop":0},{"id":686173,"name":"Ariceștii Zeletin","alt":["Aricesti","Aricești"],"lon":26.17957,"lat":45.22221,"pop":982},{"id":686175,"name":"Ariceştii-Rahtivani","lon":25.83333,"lat":44.95,"pop":8764},{"id":686171,"name":"Aricioaia","lon":24.22352,"lat":44.92092,"pop":55},{"id":686170,"name":"Ariciu","alt":["Ariciul"],"lon":27.52176,"lat":45.36878,"pop":184},{"id":686167,"name":"Arieşeni","alt":["Arieseni"],"lon":22.75741,"lat":46.47641,"pop":1876},{"id":686165,"name":"Arieșu de Câmp","alt":["Ariesu de Cimp","Arieșu de Cîmp","Mezoaranyos","Mezőaranyos"],"lon":23.4,"lat":47.65,"pop":274},{"id":686164,"name":"Arieșu de Pădure","alt":["Ariesu de Padure","Ariesul de Padure","Arieşu de Pădure","Arieşul de Pădure"],"lon":23.47911,"lat":47.58624,"pop":253},{"id":686160,"name":"Arin","lon":25.43333,"lat":47.35,"pop":0},{"id":664212,"name":"Arini","alt":["Magyarfalu","Ungureni","Unguri"],"lon":27.18333,"lat":46.35,"pop":1295},{"id":686158,"name":"Arini","lon":26.63333,"lat":47.51667,"pop":0},{"id":686159,"name":"Arini","lon":25.56609,"lat":45.88713,"pop":737},{"id":686157,"name":"Ariniş","lon":23.23333,"lat":47.5,"pop":1192},{"id":686155,"name":"Arioneștii Noi","lon":26.20003,"lat":44.98905,"pop":262},{"id":686154,"name":"Arioneștii Vechi","lon":26.21982,"lat":44.99167,"pop":353},{"id":686153,"name":"Ariușd","lon":25.67843,"lat":45.77801,"pop":498},{"id":686152,"name":"Arjoci","lon":22.9548,"lat":44.97995,"pop":135},{"id":686151,"name":"Armădia","lon":21.98333,"lat":45.68333,"pop":0},{"id":686148,"name":"Armășeni","alt":["Armaseni","Armasenii","Armăşeni","Armăşenii"],"lon":27.2517,"lat":46.84517,"pop":418},{"id":686149,"name":"Armășeni","lon":27.98122,"lat":46.80638,"pop":234},{"id":686150,"name":"Armășeni","alt":["Armaseni","Armăşeni","Menasag","Ménaság"],"lon":25.96043,"lat":46.35363,"pop":726},{"id":686146,"name":"Armășenii Noi","alt":["Armaseni Noi","Armasenii Noi","Armăşeni Noi","Armăşenii Noi","Menasag-Ujfalu"],"lon":25.9656,"lat":46.33095,"pop":334},{"id":686144,"name":"Armășești","lon":24.01352,"lat":45.01788,"pop":743},{"id":686145,"name":"Armăşeşti","lon":26.58333,"lat":44.75,"pop":7243},{"id":686141,"name":"Armășoaia","alt":["Armasoaia","Armăşoaia","Radiu","Rediu","Rediu-Armasoaia","Rediu-Armăşoaia","Rediul","Rădiu"],"lon":27.38409,"lat":46.68831,"pop":521},{"id":686139,"name":"Armeni","lon":23.97527,"lat":45.96616,"pop":794},{"id":686140,"name":"Armeni","lon":27.19458,"lat":45.60072,"pop":190},{"id":686136,"name":"Armeniş","lon":24.83333,"lat":46.43333,"pop":0},{"id":686137,"name":"Armeniş","alt":["Armenis"],"lon":22.31667,"lat":45.2,"pop":2613},{"id":686134,"name":"Arnota","lon":24.81667,"lat":44.76667,"pop":0},{"id":686131,"name":"Aroneanu","lon":27.6,"lat":47.2,"pop":2916},{"id":686132,"name":"Aronești","alt":["Aromesti","Aromeşti","Aronesti","Aroneşti"],"lon":23.12666,"lat":46.43648,"pop":9},{"id":686128,"name":"Arpadia","lon":23.57604,"lat":44.63882,"pop":93},{"id":686129,"name":"Arpadia","lon":24.68333,"lat":44.1,"pop":0},{"id":686126,"name":"Arpaşu de Jos","alt":["Arpas","Arpasu de Jos","Arpasul-de-Jos","Arpaş","Arpaşul-de-Jos"],"lon":24.61667,"lat":45.78333,"pop":2733},{"id":686124,"name":"Arpașu de Sus","alt":["Arpasu de Sus","Arpasul-de-Sus","Arpaşu de Sus","Arpaşul-de-Sus"],"lon":24.61906,"lat":45.73436,"pop":1283},{"id":686127,"name":"Arpășel","alt":["Arpasel","Arpod","Arpăşel"],"lon":21.71968,"lat":46.73863,"pop":905},{"id":686123,"name":"Arsa","alt":["Capucci","Kopuci","Papuci"],"lon":28.46497,"lat":43.83877,"pop":607},{"id":686122,"name":"Arsanca","lon":24.24175,"lat":45.0082,"pop":224},{"id":686121,"name":"Arsele","lon":26.3,"lat":45.45,"pop":0},{"id":686120,"name":"Arseneasca","alt":["Arseneasa"],"lon":25.36667,"lat":47.51667,"pop":0},{"id":686113,"name":"Arsura","lon":28.02222,"lat":46.81333,"pop":1984},{"id":686107,"name":"Arsuri","lon":23.31667,"lat":45.15,"pop":181},{"id":686108,"name":"Arsuri","lon":23.41667,"lat":45.45,"pop":0},{"id":686109,"name":"Arsuri","alt":["Arsurile"],"lon":25.31667,"lat":44.73333,"pop":0},{"id":686110,"name":"Arsuri","lon":23.26667,"lat":45.45,"pop":0},{"id":686111,"name":"Arsuri","lon":22.42875,"lat":45.12234,"pop":41},{"id":686119,"name":"Arșeni","alt":["Arseni","Arsenii","Arşeni","Arşenii"],"lon":23.43384,"lat":45.17717,"pop":65},{"id":686114,"name":"Arşiţa","lon":24.43333,"lat":47.71667,"pop":0},{"id":686115,"name":"Arșița","lon":24.8346,"lat":47.35915,"pop":521},{"id":686116,"name":"Arșița","alt":["Arsica","Ársica"],"lon":24.99571,"lat":46.78737,"pop":74},{"id":686117,"name":"Arșița","lon":27.62573,"lat":46.55999,"pop":39},{"id":686118,"name":"Arșița","lon":26.83248,"lat":45.73824,"pop":231},{"id":686106,"name":"Artanu","alt":["Arianu"],"lon":23.22223,"lat":44.78736,"pop":706},{"id":686104,"name":"Arțari","lon":26.31859,"lat":47.76302,"pop":11},{"id":686105,"name":"Arțari","lon":26.67164,"lat":44.56717,"pop":629},{"id":686102,"name":"Arţaru","lon":23.33333,"lat":44.98333,"pop":0},{"id":686101,"name":"Arți","lon":23.60118,"lat":45.74289,"pop":456},{"id":686100,"name":"Aruncuta","alt":["Arancata","Aruncata"],"lon":23.96801,"lat":46.73328,"pop":473},{"id":686098,"name":"Arva","alt":["Arva-Capatanu","Arva-Căpătanu"],"lon":26.96667,"lat":45.76667,"pop":0},{"id":686099,"name":"Arva","lon":26.16081,"lat":44.95937,"pop":563},{"id":686097,"name":"Arvăteasca","lon":24.38616,"lat":43.95135,"pop":803},{"id":686095,"name":"Arvătești","lon":22.91926,"lat":44.56083,"pop":85},{"id":686096,"name":"Arvățeni","alt":["Arvateni","Arvatfalva","Arvàtfalva","Arvăţeni"],"lon":25.30742,"lat":46.26967,"pop":88},{"id":686093,"name":"Asan","lon":26,"lat":44.3,"pop":0},{"id":686089,"name":"Asău","lon":25.9,"lat":46.31667,"pop":0},{"id":686090,"name":"Asău","alt":["Asau","Asaul"],"lon":26.40036,"lat":46.44301,"pop":7438},{"id":686081,"name":"Ascio","alt":["Arcio","Arcso","Arcsò"],"lon":25.16667,"lat":46.5,"pop":0},{"id":686080,"name":"Ascuţitele","lon":25.25,"lat":47.35,"pop":0},{"id":686079,"name":"Asinip","lon":23.88896,"lat":46.29771,"pop":230},{"id":686078,"name":"Aslaneşti","lon":22.75,"lat":46.3,"pop":0},{"id":686077,"name":"Aspra","lon":23.63818,"lat":47.45021,"pop":74},{"id":686074,"name":"Astra","lon":25.58333,"lat":45.63333,"pop":0},{"id":686072,"name":"Asuaju de Jos","alt":["Asuagiul-de-Jos","Asuajul-de-Jos"],"lon":23.22299,"lat":47.54052,"pop":475},{"id":686071,"name":"Asuaju de Sus","alt":["Asuagiul-de-Sus","Asuajul-de-Sus"],"lon":23.18333,"lat":47.56667,"pop":1585},{"id":686084,"name":"Aşchileu Dorna","lon":23.48333,"lat":46.98333,"pop":1831},{"id":686076,"name":"Aştileu","alt":["Astilau","Astileu","Aştilău"],"lon":22.38333,"lat":47.03333,"pop":3728},{"id":686049,"name":"Atârnaţi","alt":["Atarnati","Atirnati","Atîrnaţi"],"lon":23.35,"lat":44.58333,"pop":0},{"id":686050,"name":"Atârnaţi","alt":["Atarnati","Atirnati","Atârnati","Atîrnaţi"],"lon":23.36667,"lat":44.51667,"pop":0},{"id":686051,"name":"Atârnaţi","alt":["Atarnati","Atirnati","Atîrnaţi"],"lon":22.78333,"lat":44.21667,"pop":0},{"id":686052,"name":"Atârnaţi","alt":["Atarnati","Atirnati","Atîrnaţi"],"lon":26.63333,"lat":44.1,"pop":0},{"id":686053,"name":"Atârnaţi","alt":["Atarnati","Atirnati","Atîrnaţi"],"lon":27.51667,"lat":45.68333,"pop":0},{"id":686055,"name":"Atârnaţi","alt":["Atarnati","Atirnati","Atîrnaţi"],"lon":27.95,"lat":44.85,"pop":0},{"id":686056,"name":"Atârnaţi","alt":["Atarnati","Atirnati","Atîrnaţi"],"lon":25.94972,"lat":44.55,"pop":0},{"id":686047,"name":"Atârnaţi de Jos","alt":["Atarnati de Jos","Atirnati de Jos","Atîrnaţi de Jos"],"lon":22.71667,"lat":44.46667,"pop":0},{"id":686068,"name":"Atea","alt":["Atya"],"lon":22.7898,"lat":47.87153,"pop":355},{"id":686067,"name":"Ateaș","lon":21.61769,"lat":46.91792,"pop":225},{"id":686062,"name":"Atia","alt":["Atyha"],"lon":25.12963,"lat":46.48677,"pop":341},{"id":686060,"name":"Atias","lon":25.58333,"lat":45.63333,"pop":0},{"id":686059,"name":"Atid","alt":["Eted"],"lon":25.05,"lat":46.45,"pop":2797},{"id":686046,"name":"Atmagea","alt":["Almagea","Atmatscha"],"lon":28.4347,"lat":44.96549,"pop":185},{"id":686069,"name":"Aţa","lon":25.9,"lat":46.81667,"pop":0},{"id":686065,"name":"Aţel","alt":["Atel"],"lon":24.46667,"lat":46.15,"pop":3576},{"id":686057,"name":"Aţintiş","alt":["Atintis","Atintisi","Aţintişi"],"lon":24.1,"lat":46.43333,"pop":1606},{"id":686045,"name":"Audia","lon":26.05,"lat":47.06667,"pop":0},{"id":686044,"name":"Augustin","alt":["Agostin","Agoştin"],"lon":25.55333,"lat":46.04613,"pop":1207},{"id":686043,"name":"Aurei","lon":24.91667,"lat":45.13333,"pop":0},{"id":686042,"name":"Aurei Valea Ursului","lon":24.91667,"lat":45.13333,"pop":0},{"id":686039,"name":"Aurel Vlaicu","lon":24.82072,"lat":46.17787,"pop":120},{"id":686040,"name":"Aurel Vlaicu","lon":26.91131,"lat":48.00092,"pop":588},{"id":686041,"name":"Aurel Vlaicu","alt":["Benzenz","Bintinti","Binţinţi"],"lon":23.27801,"lat":45.9103,"pop":914},{"id":686038,"name":"Aurești","lon":24.26821,"lat":44.77455,"pop":377},{"id":686037,"name":"Aurora","lon":22.93916,"lat":44.19285,"pop":860},{"id":686036,"name":"Aurora Banatului","lon":21.85,"lat":45.08333,"pop":0},{"id":686035,"name":"Auşeu","alt":["Auseu"],"lon":22.5,"lat":47.03333,"pop":2978},{"id":686029,"name":"Avântu","lon":27.3686,"lat":47.2574,"pop":579},{"id":686030,"name":"Avântu","alt":["Avantu","Avantul","Avintu","Avântul","Avîntu"],"lon":27.55,"lat":45.28333,"pop":0},{"id":686033,"name":"Averești","alt":["Averesti","Averesti de Sus","Averestii-de-Sus","Avereşti","Avereşti de Sus","Avereştii-de-Sus"],"lon":27.03965,"lat":46.8733,"pop":994},{"id":686034,"name":"Averești","lon":27.9922,"lat":46.78786,"pop":327},{"id":10176278,"name":"Aviatiei","lon":26.10225,"lat":44.4825,"pop":0},{"id":686014,"name":"Avram Iancu","lon":26.88423,"lat":48.06892,"pop":87},{"id":686015,"name":"Avram Iancu","lon":21.91823,"lat":46.54052,"pop":132},{"id":686016,"name":"Avram Iancu","alt":["Avram Jancu","Avramdancu","Felsovidra","Felsővidra","Vidra de Sus"],"lon":22.78333,"lat":46.38333,"pop":1806},{"id":686017,"name":"Avram Iancu","lon":21.52417,"lat":46.66944,"pop":0},{"id":10918028,"name":"Avram Iancu","alt":["Aciua","Aciuva","Acsva","Ácsva"],"lon":22.454,"lat":46.35217,"pop":634},{"id":686028,"name":"Avrămeni","alt":["Avrameni"],"lon":26.95,"lat":48.01667,"pop":5490},{"id":686020,"name":"Avrămeşti","lon":26.25,"lat":45.31667,"pop":0},{"id":686021,"name":"Avrămești","lon":27.36403,"lat":46.55091,"pop":709},{"id":686022,"name":"Avrămești","lon":24.09928,"lat":46.53621,"pop":208},{"id":686023,"name":"Avrămești","lon":22.74553,"lat":46.47978,"pop":56},{"id":686024,"name":"Avrămești","lon":22.82383,"lat":46.39143,"pop":34},{"id":686025,"name":"Avrămeşti","alt":["Avramesti","Szentabraham","Szentàbrahàm"],"lon":25.01667,"lat":46.33333,"pop":2481},{"id":686026,"name":"Avrămești","lon":24.16735,"lat":44.85591,"pop":593},{"id":686011,"name":"Avrig","alt":["Felek","Freek","Fryk","Авриг"],"lon":24.38333,"lat":45.71667,"pop":14032},{"id":686008,"name":"Axente Sever","alt":["Asszonyfalva","Fraua","Frina","Frâua","Frîna"],"lon":24.21667,"lat":46.1,"pop":3960},{"id":686006,"name":"Axintele","alt":["Axintel"],"lon":26.78333,"lat":44.6,"pop":2912},{"id":686004,"name":"Azaclău","lon":28.05,"lat":45.45,"pop":0},{"id":686003,"name":"Azuga","lon":25.55,"lat":45.45,"pop":4961},{"id":686083,"name":"Ășchileu Mare","alt":["Aschileu Mare","Aschileul-Mare","Aşchileu Mare"],"lon":23.49263,"lat":46.98284,"pop":695},{"id":686082,"name":"Ășchileu Mic","alt":["Aschileu Mic","Aschileul-Mic","Aşchileu Mic"],"lon":23.43778,"lat":46.98517,"pop":388},{"id":686001,"name":"Baba","lon":23.74561,"lat":47.34027,"pop":567},{"id":686002,"name":"Baba","lon":22.96523,"lat":46.50256,"pop":45},{"id":686000,"name":"Baba Ana","lon":26.45,"lat":44.96667,"pop":4234},{"id":685989,"name":"Baba Novac","lon":22.79304,"lat":47.64922,"pop":648},{"id":685997,"name":"Babadag","alt":["Babadagh","Babadagi","Babadau","Babadağ","Babadağı","babataghy","باباطاغی"],"lon":28.71667,"lat":44.9,"pop":10101},{"id":685987,"name":"Babaroaga","lon":25.19316,"lat":44.54735,"pop":890},{"id":685986,"name":"Babarunca","lon":25.84396,"lat":45.51633,"pop":0},{"id":685971,"name":"Babeţi","alt":["Babeti","Babita","Babiţa"],"lon":26.38333,"lat":45.31667,"pop":2835},{"id":685963,"name":"Babșa","alt":["Babsa","Babşa","Colonia Babsa","Colonia Babşa"],"lon":21.79006,"lat":45.80893,"pop":300},{"id":685962,"name":"Babța","lon":22.94283,"lat":47.45778,"pop":1053},{"id":685948,"name":"Bacău","alt":["BCM","Bacau","Bakehu","Bako","Bakuu","Bákó","Бакъу","Бакэу","בקאו"],"lon":26.91384,"lat":46.56718,"pop":171396},{"id":685946,"name":"Bacău de Mijloc","alt":["Bacau de Mijloc","Bacaul de Mijloc","Bacăul de Mijloc"],"lon":22.09809,"lat":45.97723,"pop":237},{"id":685942,"name":"Bacea","lon":22.66923,"lat":45.96021,"pop":370},{"id":685943,"name":"Bacea","lon":24.16667,"lat":45.91667,"pop":0},{"id":685944,"name":"Bacea","lon":24.63759,"lat":44.39824,"pop":1609},{"id":685926,"name":"Baciu","alt":["Bacifalau","Bacifalău","Baciul","Bacsfalu","Batschendorf"],"lon":25.66667,"lat":45.6,"pop":0},{"id":685927,"name":"Baciu","alt":["Baciul"],"lon":23.51667,"lat":46.8,"pop":8046},{"id":685928,"name":"Baciu","alt":["Baciul","Surani"],"lon":25.44429,"lat":44.33152,"pop":1260},{"id":685923,"name":"Baciu de Sus","lon":25.43333,"lat":44.33333,"pop":0},{"id":685921,"name":"Baciu Poşta","alt":["Baciu Posta","Baciu-Postii","Baciu-Poştii","Baciul-Postei","Baciul-Poştei"],"lon":25.43333,"lat":44.31667,"pop":0},{"id":685920,"name":"Bacova","alt":["Bachovar","Bachóvár","Bakovar","Bakowa","Bakuwa","Bakóvár","Bochovar"],"lon":21.55238,"lat":45.6641,"pop":1424},{"id":685899,"name":"Badia","lon":24.55,"lat":44.28333,"pop":0},{"id":685894,"name":"Badila","alt":["Bădila","Odaile","Odăile"],"lon":26.51107,"lat":45.26639,"pop":767},{"id":685892,"name":"Badina","alt":["Bedina","Bodina"],"lon":22.46667,"lat":45,"pop":0},{"id":685882,"name":"Badon","lon":22.97797,"lat":47.25001,"pop":660},{"id":685879,"name":"Badragi","lon":26.16578,"lat":47.87919,"pop":206},{"id":685867,"name":"Bagău","alt":["Bagau","Bagaul"],"lon":27.91667,"lat":46.55,"pop":0},{"id":685866,"name":"Bagdad","alt":["Bagdat"],"lon":27.36667,"lat":45.13333,"pop":0},{"id":685863,"name":"Bagina","lon":22.41667,"lat":45.03333,"pop":0},{"id":685861,"name":"Bahluiu","alt":["Moara Prefectului"],"lon":26.98538,"lat":47.35834,"pop":344},{"id":685858,"name":"Bahna","alt":["Vasile Gheorghe Mortun","Vasile Gheorghe Morţun","Vasile Mortun","Vasile Morţun"],"lon":26.78333,"lat":46.78333,"pop":3713},{"id":685859,"name":"Bahna","lon":26.65047,"lat":46.22618,"pop":594},{"id":685860,"name":"Bahna","lon":22.49827,"lat":44.77589,"pop":491},{"id":685853,"name":"Bahna Arin","alt":["Bahna Arini","Balta Arin"],"lon":26.44402,"lat":47.48855,"pop":139},{"id":685857,"name":"Bahna Mare","lon":26.60571,"lat":46.96674,"pop":11},{"id":685852,"name":"Bahnari","lon":27.79905,"lat":46.64119,"pop":640},{"id":685850,"name":"Bahnea","alt":["Bachnea"],"lon":24.48333,"lat":46.36667,"pop":3754},{"id":685847,"name":"Bahnele","lon":26.72178,"lat":45.6403,"pop":618},{"id":685840,"name":"Baia","lon":23.31667,"lat":45.68333,"pop":0},{"id":685841,"name":"Baia","alt":["Movila Mare"],"lon":26.21667,"lat":47.41667,"pop":6762},{"id":685842,"name":"Baia","alt":["Baja","Bája","Kisbaja"],"lon":22.17463,"lat":46.09075,"pop":175},{"id":685843,"name":"Baia","alt":["Hamagia","Hamangi","Hamangia"],"lon":28.66667,"lat":44.71667,"pop":4938},{"id":685837,"name":"Baia Craiului","alt":["Baia-lui-Crai"],"lon":22.81667,"lat":45.68333,"pop":0},{"id":685836,"name":"Baia de Aramă","alt":["Baia de Arama"],"lon":22.80784,"lat":44.99929,"pop":2145},{"id":685834,"name":"Baia de Arieş","alt":["Baia de Aries","Ofenabia"],"lon":23.28115,"lat":46.38045,"pop":4566},{"id":685832,"name":"Baia de Criş","alt":["Baia de Cris"],"lon":22.71667,"lat":46.16667,"pop":2987},{"id":685830,"name":"Baia de Fier","lon":23.76667,"lat":45.16667,"pop":4328},{"id":685828,"name":"Baia de Petrol","lon":26.51667,"lat":46.55,"pop":0},{"id":685826,"name":"Baia Mare","alt":["BAY","Baja Mare","Baja-Mare","Frauenbach","Nagybanya","Nagybánya","Neustadt","Rivulus Dominarum","Бая-Маре"],"lon":23.56808,"lat":47.65729,"pop":136553},{"id":685825,"name":"Baia Nouă","alt":["Baia Noua","Nova Banja"],"lon":22.12889,"lat":44.55465,"pop":307},{"id":685824,"name":"Baia Sfânta Cruce","alt":["Baia Sfanta Cruce","Baia Sfinta Cruce","Baia Sfînta Cruce","Baile Sfanta Cruce","Baile Sfânta Cruce"],"lon":25.51667,"lat":46.33333,"pop":0},{"id":685823,"name":"Baia Sprie","alt":["Civitas in medio monte","Felsobanya","Felsőbánya","Mittelstadt"],"lon":23.69215,"lat":47.66189,"pop":16746},{"id":685820,"name":"Baica","alt":["Baita","Baiţa"],"lon":23.30186,"lat":47.07694,"pop":173},{"id":8223919,"name":"Baile Balvanyos","alt":["Balvanyosfuerdo","Bálványosfürdő"],"lon":25.94361,"lat":46.1168,"pop":0},{"id":685778,"name":"Baineț","lon":25.94496,"lat":47.96737,"pop":384},{"id":685776,"name":"Baisa","lon":26.56796,"lat":47.72495,"pop":81},{"id":685747,"name":"Bajura","lon":26.53987,"lat":48.20119,"pop":1884},{"id":685745,"name":"Bala","alt":["Bala de Jos"],"lon":22.83333,"lat":44.88389,"pop":4580},{"id":685712,"name":"Bala de Sus","lon":22.81346,"lat":44.89834,"pop":660},{"id":685740,"name":"Balabancea","lon":28.4061,"lat":45.0694,"pop":430},{"id":685737,"name":"Balabani","lon":25.13598,"lat":45.16442,"pop":320},{"id":685736,"name":"Balaca","lon":26.01667,"lat":45,"pop":0},{"id":685725,"name":"Balaci","lon":24.91667,"lat":44.35,"pop":2485},{"id":685714,"name":"Balaciu","alt":["Balaciu de Sus"],"lon":26.88333,"lat":44.63333,"pop":1069},{"id":685718,"name":"Balaciu","alt":["Balaciul","Bălaciul"],"lon":23.9369,"lat":44.92226,"pop":226},{"id":685715,"name":"Balaciu de Jos","alt":["Balaciul de Jos"],"lon":26.88333,"lat":44.61667,"pop":0},{"id":685674,"name":"Balasan","alt":["Nadejdea","Nădejdea"],"lon":23.26389,"lat":44.02664,"pop":0},{"id":685665,"name":"Balc","lon":22.53333,"lat":47.28333,"pop":3512},{"id":685662,"name":"Balcani","lon":26.55,"lat":46.63333,"pop":7958},{"id":685660,"name":"Balcani Marginea","lon":26.55,"lat":46.63333,"pop":0},{"id":685649,"name":"Balciu","lon":27.53078,"lat":47.14068,"pop":294},{"id":685646,"name":"Balda","alt":["Balta"],"lon":24.14362,"lat":46.73353,"pop":1171},{"id":685645,"name":"Baldovin","lon":22.71815,"lat":46.20925,"pop":151},{"id":685642,"name":"Baldovinești","lon":27.91107,"lat":45.32182,"pop":1115},{"id":685643,"name":"Baldovineşti","alt":["Baldovinesti"],"lon":24.05,"lat":44.38333,"pop":3380},{"id":685644,"name":"Baldovinești","lon":25.05765,"lat":44.34007,"pop":572},{"id":685613,"name":"Balintești","lon":27.92201,"lat":46.02937,"pop":1113},{"id":685615,"name":"Balinţ","alt":["Balinc","Balincz","Balint","Balintin","Balintz","Bálinc","Bálincz"],"lon":21.85361,"lat":45.8125,"pop":1736},{"id":685611,"name":"Balinți","lon":26.69546,"lat":48.04963,"pop":489},{"id":685610,"name":"Balinţu Nou","lon":21.88333,"lat":45.81667,"pop":0},{"id":685605,"name":"Balomir","lon":22.99963,"lat":45.58516,"pop":369},{"id":685604,"name":"Balomireasa","lon":24.37751,"lat":44.91085,"pop":213},{"id":685602,"name":"Balomireşti","lon":27.03333,"lat":47.03333,"pop":0},{"id":685601,"name":"Balomiru de Câmp","alt":["Balomiru de Camp","Balomiru de Cimp","Balomiru de Cîmp","Balomirul-de-Camp","Balomirul-de-Câmp"],"lon":23.36109,"lat":45.93878,"pop":638},{"id":685600,"name":"Baloșani","lon":23.65866,"lat":44.73093,"pop":572},{"id":685598,"name":"Baloșești","lon":22.29114,"lat":45.78248,"pop":178},{"id":685597,"name":"Balota","alt":["Saracinesti","Sărăcineşti"],"lon":24.29564,"lat":45.43254,"pop":433},{"id":11000948,"name":"Balota","lon":22.79934,"lat":44.61934,"pop":57},{"id":685593,"name":"Balota de Jos","lon":23.81479,"lat":44.5473,"pop":383},{"id":685592,"name":"Balota de Sus","lon":23.79344,"lat":44.56074,"pop":411},{"id":685591,"name":"Baloteasca","lon":25.16948,"lat":44.75734,"pop":180},{"id":685588,"name":"Balotești","lon":27.31385,"lat":46.40223,"pop":306},{"id":685589,"name":"Balotești","lon":22.63801,"lat":44.73702,"pop":432},{"id":685590,"name":"Baloteşti","alt":["Balotesti","Balotesu","Baloteşu"],"lon":26.11667,"lat":44.61667,"pop":6795},{"id":685585,"name":"Balș","lon":26.97856,"lat":47.29628,"pop":1187},{"id":685586,"name":"Balş","alt":["Bals"],"lon":24.1,"lat":44.35,"pop":20626},{"id":685582,"name":"Balşa","alt":["Balsa"],"lon":23.11667,"lat":46.03333,"pop":1200},{"id":685578,"name":"Balta","lon":23.28333,"lat":46.63333,"pop":0},{"id":685579,"name":"Balta","lon":22.63694,"lat":44.88694,"pop":1391},{"id":685574,"name":"Balta Albă","lon":26.18333,"lat":44.43333,"pop":0},{"id":685575,"name":"Balta Albă","lon":27.28557,"lat":45.30423,"pop":746},{"id":685572,"name":"Balta Albina","lon":26.85,"lat":44.16667,"pop":0},{"id":685571,"name":"Balta Arsă","lon":26.62269,"lat":47.67462,"pop":338},{"id":685570,"name":"Balta Doamnei","lon":26.16667,"lat":44.75,"pop":2719},{"id":685566,"name":"Balta Neagră","lon":26.30497,"lat":44.69748,"pop":244},{"id":685565,"name":"Balta Plopului","alt":["Flia de Raduiescu","Flia de Răduiescu"],"lon":26.8,"lat":45.13333,"pop":0},{"id":685564,"name":"Balta Porcului","lon":26.5,"lat":47.53333,"pop":0},{"id":685563,"name":"Balta Raței","lon":27.27033,"lat":45.76196,"pop":231},{"id":685558,"name":"Balta Sărată","lon":22.23333,"lat":45.38333,"pop":0},{"id":685559,"name":"Balta Sărată","lon":24.82537,"lat":44.0139,"pop":973},{"id":685538,"name":"Balta Tocila","alt":["Balta"],"lon":26.69756,"lat":45.40476,"pop":285},{"id":685535,"name":"Balta Verde","lon":22.59878,"lat":44.34411,"pop":1420},{"id":685536,"name":"Balta Verde","lon":23.80193,"lat":44.26255,"pop":450},{"id":685496,"name":"Ban","lon":22.80315,"lat":47.09274,"pop":0},{"id":685489,"name":"Banca","lon":27.29141,"lat":46.34759,"pop":143},{"id":685490,"name":"Banca","lon":27.8,"lat":46.3,"pop":5600},{"id":685482,"name":"Bancu","lon":25.16667,"lat":47.38333,"pop":0},{"id":685483,"name":"Bancu","alt":["Bancul","Bankfalva","Csik Bankfolva"],"lon":25.94422,"lat":46.30291,"pop":1347},{"id":685481,"name":"Band","alt":["Bandu de Cimpie","Bandu de Cîmpie","Mezoband","Mezöbànd"],"lon":24.38333,"lat":46.58333,"pop":7599},{"id":685451,"name":"Banița","lon":27.10403,"lat":45.10129,"pop":441},{"id":685446,"name":"Baniu","lon":23.28736,"lat":44.73548,"pop":269},{"id":685445,"name":"Banloc","alt":["Banlak","Banlok","Bánlak"],"lon":21.13581,"lat":45.38742,"pop":4497},{"id":685443,"name":"Banov","lon":25.34067,"lat":44.44502,"pop":212},{"id":685442,"name":"Banpotoc","lon":23.011,"lat":45.89736,"pop":541},{"id":685441,"name":"Banu","alt":["Cacarezeni","Căcărezeni"],"lon":27.37219,"lat":47.1904,"pop":326},{"id":12232622,"name":"Banu Maracine","lon":23.85804,"lat":44.29197,"pop":0},{"id":685439,"name":"Bara","lon":21.87194,"lat":45.89472,"pop":374},{"id":685423,"name":"Baranca","lon":26.31595,"lat":48.13394,"pop":547},{"id":10942081,"name":"Baranca","lon":26.47893,"lat":48.19651,"pop":1207},{"id":685421,"name":"Barangi","lon":24.33333,"lat":44.98333,"pop":0},{"id":685419,"name":"Baraolt","alt":["Baraot","Baraót","Barot","Barót","Бараолт"],"lon":25.60029,"lat":46.07514,"pop":9429},{"id":685400,"name":"Baratca","lon":26.66954,"lat":46.96046,"pop":28},{"id":685401,"name":"Barațca","lon":21.63227,"lat":46.1072,"pop":309},{"id":685399,"name":"Barațcoș","alt":["Baraczkos","Baratcos","Baratcus","Baraţcoş","Bărăţcuş"],"lon":25.97415,"lat":46.63699,"pop":255},{"id":685395,"name":"Barați","lon":26.87118,"lat":46.57569,"pop":1503},{"id":685373,"name":"Barboși","lon":27.97026,"lat":46.48832,"pop":748},{"id":685374,"name":"Barboşi","alt":["Barbosi","Barbosi Gara","Barboşi Gara"],"lon":27.98333,"lat":45.4,"pop":0},{"id":685372,"name":"Barboşi-Cartier","alt":["Barbosi-Cartier","Catusa","Cătuşa"],"lon":27.98333,"lat":45.43333,"pop":0},{"id":685363,"name":"Barbura","lon":22.90043,"lat":46.00555,"pop":200},{"id":685360,"name":"Barcana","lon":27.36225,"lat":46.48829,"pop":535},{"id":685359,"name":"Barcanele","lon":24.13458,"lat":45.08627,"pop":376},{"id":685350,"name":"Barcani","alt":["Barkani","Bărkani"],"lon":26.08333,"lat":45.7,"pop":3792},{"id":685347,"name":"Barcaş","lon":21.56667,"lat":45.86667,"pop":0},{"id":685346,"name":"Barcea","lon":27.46667,"lat":45.75,"pop":5985},{"id":685344,"name":"Barcea Nouă","lon":27.46667,"lat":45.75,"pop":0},{"id":685343,"name":"Barcea Veche","lon":27.43333,"lat":45.75,"pop":0},{"id":685342,"name":"Barcia","alt":["Barcsa"],"lon":24.96667,"lat":46.41667,"pop":0},{"id":685335,"name":"Bariera Vâlcii","alt":["Bariera Valcei","Bariera Valcii","Bariera Vilcii","Bariera Vâlcei","Bariera Vîlcii"],"lon":23.81667,"lat":44.33333,"pop":0},{"id":684836,"name":"Barna","alt":["Bira","Birna","Bârna","Bîra","Bîrna"],"lon":27.16867,"lat":46.49565,"pop":32},{"id":685333,"name":"Baroianu","lon":26.36667,"lat":45.33333,"pop":0},{"id":685332,"name":"Baroianu Mlăcile","lon":26.36667,"lat":45.33333,"pop":0},{"id":685325,"name":"Barticești","lon":26.79254,"lat":47.06324,"pop":1795},{"id":685323,"name":"Bartoştana","alt":["Bartostana","Bartostanya"],"lon":25.03333,"lat":46.51667,"pop":0},{"id":685322,"name":"Baru","alt":["Baru Mare","Barul-Mare"],"lon":23.16271,"lat":45.47218,"pop":1333},{"id":685319,"name":"Baru Mic","alt":["Barul Mic"],"lon":23.15,"lat":45.46667,"pop":3014},{"id":685315,"name":"Barza","lon":22.85695,"lat":46.1199,"pop":2314},{"id":685316,"name":"Barza","lon":24.37124,"lat":45.04866,"pop":907},{"id":685317,"name":"Barza","lon":23.34499,"lat":44.97954,"pop":435},{"id":685318,"name":"Barza","lon":24.78333,"lat":44.33333,"pop":2677},{"id":685313,"name":"Basarabasa","lon":22.58754,"lat":46.19297,"pop":313},{"id":685311,"name":"Basarabi","lon":26.43972,"lat":47.4537,"pop":1685},{"id":685312,"name":"Basarabi","lon":23.00915,"lat":44.00561,"pop":1330},{"id":685308,"name":"Basarabiţa","lon":22.55,"lat":46.2,"pop":0},{"id":674748,"name":"Bascovele","lon":24.64582,"lat":45.01174,"pop":177},{"id":685301,"name":"Bascovelu","lon":24.7,"lat":44.95,"pop":0},{"id":685290,"name":"Basta","alt":["Bosta"],"lon":23.46667,"lat":45.1,"pop":0},{"id":685288,"name":"Baston","lon":28.05,"lat":45.45,"pop":0},{"id":685305,"name":"Başcov","alt":["Bascov","Bascovu"],"lon":24.81667,"lat":44.9,"pop":8759},{"id":685306,"name":"Bașcov","alt":["Bascou","Bascovu","Başcou","Bâscovu"],"lon":23.52029,"lat":44.38848,"pop":424},{"id":685294,"name":"Bașeu","lon":26.49586,"lat":48.1406,"pop":0},{"id":685291,"name":"Bașta","lon":26.91337,"lat":46.86546,"pop":680},{"id":685289,"name":"Baștea","lon":22.41108,"lat":45.8776,"pop":5},{"id":685287,"name":"Bata","alt":["Batta"],"lon":22.03333,"lat":46.01667,"pop":1206},{"id":685283,"name":"Bataluri","lon":27.14929,"lat":44.52739,"pop":39},{"id":685279,"name":"Batăr","alt":["Batar"],"lon":21.81667,"lat":46.7,"pop":5143},{"id":685265,"name":"Batârăşti","alt":["Batarasti","Batirasti","Batîrăşti"],"lon":24.15,"lat":44.81667,"pop":2532},{"id":685270,"name":"Batia","lon":24.30888,"lat":44.74722,"pop":167},{"id":685268,"name":"Batin","lon":24.0614,"lat":47.07277,"pop":944},{"id":685264,"name":"Batiz","lon":23.00243,"lat":45.77806,"pop":604},{"id":685262,"name":"Batogu","lon":26.87984,"lat":45.4105,"pop":86},{"id":685263,"name":"Batogu","alt":["Batogul"],"lon":27.43027,"lat":44.99705,"pop":787},{"id":685260,"name":"Batogu Nou","lon":27.45,"lat":45,"pop":0},{"id":685259,"name":"Batoş","alt":["Batos"],"lon":24.66667,"lat":46.88333,"pop":4107},{"id":685257,"name":"Batoți","alt":["Batoci","Batoti","Batotio","Batoţi","Batoţio"],"lon":22.6806,"lat":44.51397,"pop":356},{"id":685286,"name":"Bața","alt":["Baca","Bata","Baţa"],"lon":23.996,"lat":47.1886,"pop":826},{"id":685238,"name":"Bazga","lon":27.91667,"lat":46.95,"pop":0},{"id":685239,"name":"Bazga","alt":["Bizga","Bîzga"],"lon":27.02377,"lat":46.37983,"pop":567},{"id":685237,"name":"Bazga de Jos","lon":27.01667,"lat":46.38333,"pop":0},{"id":685236,"name":"Bazga de Sus","lon":27.01667,"lat":46.38333,"pop":0},{"id":685235,"name":"Baziaș","alt":["Bazias","Baziaş","Bazjas","Bazjaš","Brazias","Braziaş"],"lon":21.38959,"lat":44.81594,"pop":51},{"id":685233,"name":"Bazna","alt":["Bázna"],"lon":24.28333,"lat":46.2,"pop":3824},{"id":685231,"name":"Bazoș","alt":["Basosch","Bazos","Bazosch","Bazosh","Bazoş","Bázos"],"lon":21.49642,"lat":45.73693,"pop":912},{"id":685229,"name":"Bazoșu Nou","alt":["Bazosu Nou","Bazosul-Nou","Bazoşu Nou","Bazoşul-Nou"],"lon":21.4223,"lat":45.75049,"pop":270},{"id":685991,"name":"Băbana","alt":["Babana"],"lon":24.7,"lat":44.9,"pop":2809},{"id":685994,"name":"Băbăiţa","alt":["Babaita","Babiata","Băbiăţa"],"lon":25.38333,"lat":44.16667,"pop":6276},{"id":685985,"name":"Băbășești","lon":23.09921,"lat":47.77594,"pop":695},{"id":685984,"name":"Băbdiu","alt":["Babdiu","Babdiul"],"lon":23.69946,"lat":47.12698,"pop":264},{"id":685979,"name":"Băbeni","alt":["Babeni"],"lon":23.4,"lat":47.3,"pop":2011},{"id":685980,"name":"Băbeni","lon":26.97875,"lat":45.44635,"pop":1130},{"id":685981,"name":"Băbeni","alt":["Babeni","Ungureni"],"lon":24.23333,"lat":44.96667,"pop":9350},{"id":685973,"name":"Băbeni-Oltețu","alt":["Babeni-Oltetu","Babeni-Oltetul","Băbeni-Olteţu","Băbeni-Olteţul"],"lon":23.97798,"lat":44.61404,"pop":1039},{"id":685972,"name":"Băbești","lon":23.07948,"lat":47.96893,"pop":445},{"id":685970,"name":"Băbiceni","lon":27.07458,"lat":47.75436,"pop":508},{"id":685969,"name":"Băbiciu","alt":["Babiciu","Babiciu Episcopiei","Babiciul","Babiciul-Episcopiei","Băbiciu Episcopiei","Băbiciul","Băbiciul-Episcopiei"],"lon":24.56667,"lat":44.03333,"pop":2337},{"id":685967,"name":"Băbiciu Moştenesc","alt":["Babiciu Mostenesc","Babiciul-Mostenesc","Băbiciul-Moştenesc"],"lon":24.55,"lat":44.05,"pop":0},{"id":685965,"name":"Băbiu","lon":23.06323,"lat":46.94703,"pop":129},{"id":685964,"name":"Băboasa","lon":24.18333,"lat":47.03333,"pop":0},{"id":685961,"name":"Băbuești","lon":24.41626,"lat":45.21259,"pop":142},{"id":685960,"name":"Băbușa","lon":27.2273,"lat":46.80872,"pop":406},{"id":685959,"name":"Băbuța","alt":["Babuta","Băbuţa","Manesti","Măneşti"],"lon":27.35521,"lat":46.60969,"pop":107},{"id":685957,"name":"Băbuțiu","lon":23.53102,"lat":46.9403,"pop":212},{"id":685952,"name":"Băcani","alt":["Bacani"],"lon":27.66667,"lat":46.33333,"pop":2748},{"id":685950,"name":"Băcanu","alt":["Bacanu","Bacanul"],"lon":25.81667,"lat":44.41667,"pop":0},{"id":685956,"name":"Băcăinți","lon":23.28322,"lat":45.94218,"pop":322},{"id":685954,"name":"Băcălești","lon":24.81636,"lat":44.05997,"pop":1430},{"id":685949,"name":"Băcăoani","lon":27.78091,"lat":46.58405,"pop":579},{"id":685930,"name":"Băcâia","alt":["Bacaia","Baciia","Băcîia"],"lon":23.18333,"lat":46.01667,"pop":0},{"id":685941,"name":"Băcel","alt":["Bacel","Bacstelek","Bastelec","Baştelec","Bácstelek","Chichis-Bastelec","Chichiş-Bastelec"],"lon":25.81667,"lat":45.76667,"pop":0},{"id":685939,"name":"Băceni","lon":26.59078,"lat":45.34004,"pop":179},{"id":685940,"name":"Băceni","alt":["Baceni","Baceni Ursoaia","Băceni Ursoaia"],"lon":24.7,"lat":44.43333,"pop":0},{"id":685934,"name":"Băceşti","alt":["Atreiaparte","Bacesti-Sat","Bacesti-Tirg","Băceşti-Sat","Băceşti-Tîrg","Ezeru","Iezeru"],"lon":27.23333,"lat":46.85,"pop":4017},{"id":685935,"name":"Băceşti","lon":22.93333,"lat":46.38333,"pop":0},{"id":685936,"name":"Băcești","lon":25.57486,"lat":45.07971,"pop":212},{"id":685937,"name":"Băcești","lon":24.67358,"lat":44.95305,"pop":325},{"id":685938,"name":"Băcești","lon":23.67762,"lat":44.73623,"pop":384},{"id":685932,"name":"Băcia","alt":["Bacia"],"lon":23.01667,"lat":45.8,"pop":1772},{"id":685929,"name":"Băcioiu","alt":["Bacioiu","Baicioiul","Baicoi","Băicioiul","Băicoi"],"lon":27.15745,"lat":46.31431,"pop":1838},{"id":685918,"name":"Bădăcin","lon":22.85456,"lat":47.25595,"pop":933},{"id":685916,"name":"Bădăi","lon":22.88333,"lat":46.3,"pop":0},{"id":685917,"name":"Bădăi","lon":22.75576,"lat":46.40849,"pop":36},{"id":685915,"name":"Bădărăi","lon":27.38197,"lat":47.59007,"pop":111},{"id":685890,"name":"Bădârlegiu","alt":["Badarlegiu","Badarlegiul","Badirlegiu","Bădîrlegiu","Bădărlegiul"],"lon":26.31667,"lat":45.41667,"pop":0},{"id":685889,"name":"Bădârlegiu Mare","alt":["Badarlegiu Mare","Badirlegiu Mare","Bădîrlegiu Mare"],"lon":26.31667,"lat":45.41667,"pop":0},{"id":685888,"name":"Bădârlegiu Mic","alt":["Badarlegiu Mic","Badirlegiu Mic","Bădîrlegiu Mic"],"lon":26.31667,"lat":45.41667,"pop":0},{"id":685518,"name":"Bădeana","lon":27.58333,"lat":46.15,"pop":1188},{"id":685908,"name":"Bădeni","lon":26.94898,"lat":47.40581,"pop":1313},{"id":685909,"name":"Bădeni","alt":["Badeni","Bagiu"],"lon":23.73619,"lat":46.48868,"pop":755},{"id":685910,"name":"Bădeni","alt":["Badei","Badeni","Bagy","Bàgy","Bădei"],"lon":25.34836,"lat":46.21753,"pop":256},{"id":685911,"name":"Bădeni","lon":25.17996,"lat":45.24369,"pop":829},{"id":685912,"name":"Bădeni","lon":25.40263,"lat":45.15272,"pop":1080},{"id":685913,"name":"Bădeni","lon":26.55472,"lat":45.09887,"pop":166},{"id":685914,"name":"Bădeni","lon":24.42767,"lat":44.90113,"pop":256},{"id":685906,"name":"Bădeni-Pământeni","alt":["Badeni-Pamanteni","Badeni-Paminteni","Bădeni-Pămînteni"],"lon":25.16667,"lat":45.23333,"pop":0},{"id":685901,"name":"Bădeşti","lon":25.01667,"lat":44.83333,"pop":0},{"id":685902,"name":"Bădești","lon":23.63799,"lat":46.97026,"pop":181},{"id":685903,"name":"Bădești","alt":["Badesti","Badestii","Bădeşti","Bădeştii","Radesti","Radeşti"],"lon":24.86064,"lat":45.17157,"pop":1530},{"id":685904,"name":"Bădești","lon":23.46833,"lat":44.68919,"pop":183},{"id":685905,"name":"Bădești","lon":24.76119,"lat":44.3948,"pop":352},{"id":685900,"name":"Bădeuți","alt":["Badeut","Badeutii-Noi","Badeutii-Vechi","Bădeuţ","Bădeuţii-Noi","Bădeuţii-Vechi"],"lon":25.98387,"lat":47.80277,"pop":1474},{"id":685898,"name":"Bădicea","lon":24.69893,"lat":44.75444,"pop":172},{"id":685897,"name":"Bădiceni","alt":["Badiceni","Badicenii"],"lon":24.78333,"lat":45.06667,"pop":0},{"id":685893,"name":"Bădila","lon":28.46667,"lat":45.26667,"pop":0},{"id":685895,"name":"Bădila","alt":["Badila","Secaturile","Secăturile"],"lon":24.70927,"lat":45.20046,"pop":4},{"id":685896,"name":"Bădila","lon":28.46667,"lat":45.18333,"pop":0},{"id":685887,"name":"Bădislava","lon":24.51585,"lat":45.15555,"pop":152},{"id":685885,"name":"Bădițești","lon":22.86932,"lat":44.63915,"pop":247},{"id":685884,"name":"Bădiţoiu","alt":["Baditioiul","Baditoiu","Bădiţioiul"],"lon":23.88333,"lat":44.98333,"pop":0},{"id":685883,"name":"Bădiuți","alt":["Badiut","Badiuti","Bădiuţ","Bădiuţi"],"lon":27.20876,"lat":47.78355,"pop":764},{"id":685880,"name":"Bădoși","lon":23.88974,"lat":44.14723,"pop":1036},{"id":685878,"name":"Băduleasa","lon":24.98274,"lat":43.92286,"pop":1214},{"id":685875,"name":"Bădulești","lon":24.5693,"lat":44.82481,"pop":78},{"id":685876,"name":"Bădulești","lon":25.2707,"lat":44.76098,"pop":623},{"id":685874,"name":"Băești","lon":26.78819,"lat":45.31772,"pop":78},{"id":685871,"name":"Băgaciu","alt":["Bagaciu","Bagacuil","Băgacuil"],"lon":23.94743,"lat":46.88588,"pop":90},{"id":685872,"name":"Băgaciu","alt":["Bagaciu","Bagaciul","Băgaciul"],"lon":24.36667,"lat":46.26667,"pop":2549},{"id":685870,"name":"Băgara","lon":23.30408,"lat":46.86414,"pop":432},{"id":685868,"name":"Băgău","lon":23.79399,"lat":46.31047,"pop":623},{"id":685865,"name":"Băgeni","lon":24.03333,"lat":44.85,"pop":0},{"id":685864,"name":"Băgeşti","lon":24.56667,"lat":44.91667,"pop":0},{"id":685851,"name":"Băhnășeni","alt":["Bahnaseni","Băhnăşeni","Plesesti","Pleşeşti"],"lon":26.58184,"lat":46.57253,"pop":865},{"id":685846,"name":"Băhneni","lon":24.93333,"lat":45.15,"pop":0},{"id":685845,"name":"Băhnișoara","lon":26.79137,"lat":46.75957,"pop":460},{"id":685844,"name":"Băi","lon":22.91594,"lat":46.33636,"pop":33},{"id":685808,"name":"Băiașa","lon":24.08333,"lat":44.91667,"pop":165},{"id":685822,"name":"Băiașu","alt":["Baiasu","Baiasul","Băiasul","Băiaşu"],"lon":24.39487,"lat":45.3718,"pop":230},{"id":685819,"name":"Băicani","lon":24.68333,"lat":45.08333,"pop":0},{"id":685817,"name":"Băicani-Deal","alt":["Baicani","Baicani-Deal"],"lon":27.38333,"lat":46.31667,"pop":0},{"id":685816,"name":"Băicani-Vale","lon":27.38333,"lat":46.31667,"pop":0},{"id":685815,"name":"Băicanu","alt":["Baicani","Baicanu","Băicani"],"lon":23.73333,"lat":44.58333,"pop":0},{"id":685813,"name":"Băiceni","lon":26.65799,"lat":47.69315,"pop":828},{"id":685814,"name":"Băiceni","alt":["Baiceni","Laiu-Baiceni","Laiu-Băiceni"],"lon":26.91139,"lat":47.31341,"pop":404},{"id":10948152,"name":"Băiceni","lon":26.92643,"lat":47.29903,"pop":300},{"id":685811,"name":"Băicoi","alt":["Baicoi","Baicoiu","Băicoiu"],"lon":25.85,"lat":45.03333,"pop":19869},{"id":685810,"name":"Băiculeşti","alt":["Baiculesti"],"lon":24.7,"lat":45.06667,"pop":6207},{"id":685807,"name":"Băieşi","lon":23.4,"lat":45.9,"pop":0},{"id":685873,"name":"Băiești","alt":["Bajesd"],"lon":23.01667,"lat":45.53333,"pop":239},{"id":685806,"name":"Băila","alt":["Baila","Pietroasa"],"lon":25.13713,"lat":44.8034,"pop":353},{"id":685805,"name":"Băile","lon":27.36175,"lat":45.2897,"pop":620},{"id":685781,"name":"Băile 1 Mai","alt":["Puespoekfuerdo","Püspökfürdő"],"lon":21.98333,"lat":46.98333,"pop":0},{"id":685803,"name":"Băile Boboci","lon":26.4,"lat":45.08333,"pop":0},{"id":685802,"name":"Băile Borșa","lon":24.71391,"lat":47.68416,"pop":1175},{"id":685800,"name":"Băile Chirui","alt":["Baile Chirui","Baile Craiu","Băile Craiu","Kiruj Furdo","Kiruj Fürdő"],"lon":25.58446,"lat":46.30069,"pop":125},{"id":685799,"name":"Băile Codlea","lon":25.43333,"lat":45.7,"pop":0},{"id":678821,"name":"Băile Drânceni","alt":["Baile Dranceni","Baile Drinceni","Băile Drînceni","Dranceni Sat","Drinceni-Sat","Drânceni Sat","Drînceni-Sat"],"lon":28.10083,"lat":46.81361,"pop":4719},{"id":685798,"name":"Băile Felix","alt":["Baile Felix","Felixfuerdo","Félixfürdő"],"lon":21.9821,"lat":46.98995,"pop":0},{"id":685797,"name":"Băile Govora","alt":["Baile Govora"],"lon":24.18333,"lat":45.08333,"pop":2862},{"id":685796,"name":"Băile Herculane","alt":["Baile Erculane","Baile Herculane","Baile Herkulane","Baile Kherkulane","Behile-Erkulane","Behile-Kherkulane","Beile Herkulane","Beile Herkulanė","Beile-Kherkulane","Băile Erculane","Herculane","Herkules-Banja","Herkulesbad","Herkulesfuerdo","Herkulesfürdő","Opstina Baile Herculane","Opština Bãile Herculane","bo yi lai hai er ku la nei","bylh hrkwlanh","Баиле Херкулане","Беїле-Херкулане","Бэиле-Еркулане","Бэиле-Херкулане","מרחצאות הרקולאנה","بیله هرکولانه","ბეილე-ერკულანე","伯伊萊海爾庫拉內"],"lon":22.4125,"lat":44.87972,"pop":6022},{"id":685793,"name":"Băile Homorod","alt":["Baile Homorod","Homorod-Bai","Homorod-Băi","Homorodfuerdo","Homoródfürdő"],"lon":25.47035,"lat":46.35337,"pop":73},{"id":685794,"name":"Băile Homorod","alt":["Baile Homord","Baile Homorod","Băile Homord"],"lon":25.26667,"lat":46.05,"pop":0},{"id":685791,"name":"Băile Lacu Sărat","alt":["Baile Lacu Sarat","Baile Lacul Saral","Băile Lacul Saral"],"lon":27.91667,"lat":45.21667,"pop":0},{"id":685790,"name":"Băile Lipova","lon":21.7,"lat":46.06667,"pop":0},{"id":685789,"name":"Băile Olăneşti","alt":["Baile Olanesti","Cserepfuerdo","Cserépfürdő"],"lon":24.23333,"lat":45.2,"pop":4562},{"id":685788,"name":"Băile Pucioasa","lon":25.41667,"lat":45.08333,"pop":0},{"id":685787,"name":"Băile Rodbav","lon":24.85,"lat":45.9,"pop":0},{"id":685786,"name":"Băile Siriu","lon":26.2,"lat":45.53333,"pop":0},{"id":685782,"name":"Băile Tuşnad","alt":["Baile Tusnad","Behile-Tushnad","Băile Tușnad","Gara Tusnad-Bai","Gara Tuşnad-Băi","Tusnad Bai","Tusnad Furdo","Tusnad Fürdö","Tusnad-Baile Gara","Tusnadfuerdo","Tusnádfürdő","Tuşnad Băi","Tuşnad-Băile Gara","Бэиле-Тушнад"],"lon":25.85,"lat":46.15,"pop":1675},{"id":685784,"name":"Băileşti","lon":26.03333,"lat":45.66667,"pop":0},{"id":685785,"name":"Băileşti","alt":["Bailesti"],"lon":23.35,"lat":44.01667,"pop":19599},{"id":685779,"name":"Băimac","lon":27.2155,"lat":46.62501,"pop":91},{"id":685775,"name":"Băișești","alt":["Baiasesti","Baiaşeşti","Baisesti","Băişeşti"],"lon":26.11115,"lat":47.48024,"pop":1562},{"id":685773,"name":"Băişoara","alt":["Baisoara"],"lon":23.46667,"lat":46.58333,"pop":2319},{"id":685766,"name":"Băița","alt":["Baita","Rezbanya","Rezbanyafalu","Rezbanyavaros","Rézbánya","Rézbányafalu","Rézbányaváros"],"lon":22.58527,"lat":46.48155,"pop":659},{"id":685767,"name":"Băița","lon":23.49326,"lat":47.70614,"pop":1870},{"id":685768,"name":"Băița","lon":23.86592,"lat":47.0305,"pop":461},{"id":685769,"name":"Băița","alt":["Baita","Băiţa","Mezobanyica","Mezőbanyica"],"lon":24.53,"lat":46.83635,"pop":977},{"id":685770,"name":"Băiţa","alt":["Baita"],"lon":22.9,"lat":46.03333,"pop":4183},{"id":685762,"name":"Băiţa de sub Codru","alt":["Baita","Baita de sub Codru","Băiţa"],"lon":23.15,"lat":47.53333,"pop":1910},{"id":685761,"name":"Băița-Plai","alt":["Baita-Plai","Rezbanya","Rézbánya"],"lon":22.62204,"lat":46.48596,"pop":149},{"id":685759,"name":"Băiuţ","alt":["Baiut","Baiuti","Banit","Băiuţi","Băniţ","Erzsebetbanya","Erzsébetbánya"],"lon":24,"lat":47.61667,"pop":2652},{"id":685757,"name":"Băjani","lon":26.87308,"lat":45.1667,"pop":479},{"id":685755,"name":"Băjănești","alt":["Bajanesti","Bajenesti","Bajenestii","Băjenestii","Băjeneşti","Băjăneşti"],"lon":24.71066,"lat":44.85943,"pop":50},{"id":685756,"name":"Băjenari","lon":24.08234,"lat":44.92006,"pop":192},{"id":685754,"name":"Băjeneştii Mari","lon":24.7,"lat":44.86667,"pop":0},{"id":685753,"name":"Băjeneştii Mici","lon":24.7,"lat":44.86667,"pop":0},{"id":685750,"name":"Băjești","alt":["Bajesti","Bajestii","Băjeşti","Băjeştii"],"lon":24.94006,"lat":45.02615,"pop":1260},{"id":685752,"name":"Băjeşti","lon":25.5,"lat":44.83333,"pop":0},{"id":685749,"name":"Băjeştii Mari","lon":24.93333,"lat":45.03333,"pop":0},{"id":685748,"name":"Băjeştii Mici","lon":24.93333,"lat":45.03333,"pop":0},{"id":685744,"name":"Băla","alt":["Bala"],"lon":24.5,"lat":46.71667,"pop":889},{"id":685722,"name":"Bălacia","lon":22.5,"lat":46.18333,"pop":0},{"id":685709,"name":"Bălaia","lon":22.17198,"lat":47.10809,"pop":831},{"id":685710,"name":"Bălaia","alt":["Balaea","Balaia","Bălaea"],"lon":27.18895,"lat":46.57485,"pop":135},{"id":10942289,"name":"Bălaia","lon":26.82943,"lat":45.01323,"pop":219},{"id":685705,"name":"Bălan","lon":22.85,"lat":45.48333,"pop":0},{"id":685706,"name":"Bălan","alt":["Balan"],"lon":23.31213,"lat":47.15599,"pop":4050},{"id":685707,"name":"Bălan","alt":["Balan","Balanbanya","Balánbánya"],"lon":25.80834,"lat":46.6505,"pop":7275},{"id":685701,"name":"Bălana","lon":22.83333,"lat":45.68333,"pop":0},{"id":685682,"name":"Bălani","lon":23.66667,"lat":45.15,"pop":0},{"id":685683,"name":"Bălani","lon":23.2589,"lat":45.08633,"pop":105},{"id":685678,"name":"Bălanu","lon":26.51667,"lat":46.8,"pop":0},{"id":685679,"name":"Bălanu","alt":["Balan","Balanu","Balanul","Bălan","Bălanul"],"lon":25.91919,"lat":43.91922,"pop":502},{"id":685668,"name":"Bălata","lon":22.92902,"lat":45.91828,"pop":363},{"id":685739,"name":"Bălăbănești","lon":27.72206,"lat":46.09546,"pop":895},{"id":685735,"name":"Bălăceana","lon":26.04764,"lat":47.64338,"pop":1720},{"id":685733,"name":"Bălăceanca","lon":26.29009,"lat":44.39249,"pop":2129},{"id":685731,"name":"Bălăceanu","alt":["Balaceanu"],"lon":27.15,"lat":45.26667,"pop":1773},{"id":685726,"name":"Bălăceşti","lon":23.36667,"lat":44.5,"pop":0},{"id":685727,"name":"Bălăceşti","lon":23.15,"lat":44.95,"pop":0},{"id":685728,"name":"Bălăcești","lon":23.19837,"lat":44.7535,"pop":644},{"id":685720,"name":"Bălăciţa","alt":["Balacita"],"lon":23.13333,"lat":44.38333,"pop":3471},{"id":685711,"name":"Bălăeşti","lon":23.63333,"lat":44.48333,"pop":0},{"id":685708,"name":"Bălălăi","lon":26.91667,"lat":45.56667,"pop":0},{"id":685699,"name":"Bălăneasa","lon":26.73313,"lat":46.38938,"pop":912},{"id":685688,"name":"Bălăneşti","lon":23.98333,"lat":45.18333,"pop":0},{"id":685689,"name":"Bălănești","lon":26.63735,"lat":46.9483,"pop":564},{"id":685690,"name":"Bălănești","lon":27.32415,"lat":46.33433,"pop":5},{"id":685691,"name":"Bălănești","lon":27.36224,"lat":46.19771,"pop":172},{"id":685692,"name":"Bălănești","lon":26.9644,"lat":45.60891,"pop":4},{"id":685693,"name":"Bălănești","lon":26.48547,"lat":45.3409,"pop":405},{"id":685694,"name":"Bălăneşti","alt":["Balanesti"],"lon":23.4,"lat":45.06667,"pop":741},{"id":685695,"name":"Bălănești","lon":25.74848,"lat":44.68003,"pop":215},{"id":685696,"name":"Bălănești","lon":24.48216,"lat":44.2497,"pop":1588},{"id":685680,"name":"Bălănoaia","lon":25.93333,"lat":43.95,"pop":0},{"id":685672,"name":"Bălăşeşti","lon":27.66667,"lat":46.1,"pop":2534},{"id":685673,"name":"Bălăşeşti","alt":["Balasesti","Sarateni","Sarateni-Colonisti","Sărăţeni","Sărăţeni-Colonişti"],"lon":27.55,"lat":44.61667,"pop":0},{"id":685670,"name":"Bălăşoeni","lon":25.76667,"lat":44.4,"pop":0},{"id":685669,"name":"Bălăşoiu","alt":["Balasoiu","Balsoiul","Bălşoiul"],"lon":23.9,"lat":44.71667,"pop":0},{"id":685667,"name":"Bălăuşeri","alt":["Balauseri","Balavasar","Bàlavàsàr"],"lon":24.68333,"lat":46.4,"pop":4968},{"id":684591,"name":"Bălcaciu","alt":["Balcaciu","Balcaciul","Bălcaciul"],"lon":24.06139,"lat":46.19122,"pop":1103},{"id":685659,"name":"Bălcăuţi","alt":["Balkoutz"],"lon":26.07279,"lat":47.89149,"pop":3384},{"id":685653,"name":"Bălcești","lon":23.19374,"lat":46.77187,"pop":114},{"id":685654,"name":"Bălcești","lon":23.00232,"lat":46.67428,"pop":160},{"id":685655,"name":"Bălcești","lon":23.6329,"lat":45.10516,"pop":1014},{"id":685656,"name":"Bălceşti","lon":24.43333,"lat":44.98333,"pop":0},{"id":685657,"name":"Bălceşti","alt":["Balcesti"],"lon":23.95,"lat":44.61667,"pop":5683},{"id":685650,"name":"Bălceţei","lon":23.95,"lat":44.6,"pop":0},{"id":685648,"name":"Bălcuţa","lon":27.05,"lat":46.18333,"pop":0},{"id":685638,"name":"Băleasa","lon":24.0083,"lat":44.39906,"pop":988},{"id":685635,"name":"Băleni","alt":["Balanii","Baleni"],"lon":26.66667,"lat":45.48333,"pop":0},{"id":685636,"name":"Băleni","alt":["Balaleni","Balaleny","Balalény","Baleni","Bălăleni"],"lon":22.3993,"lat":46.60933,"pop":263},{"id":685637,"name":"Băleni","lon":27.83333,"lat":45.81667,"pop":2696},{"id":685632,"name":"Băleni Români","alt":["Baleni Romani","Baleni Romini","Balenii-Romani","Băleni Romîni","Bălenii-Români"],"lon":25.66667,"lat":44.81667,"pop":0},{"id":685630,"name":"Băleni Sârbi","alt":["Baleni Sirbi","Balenii-Sarbi","Băleni Sîrbi","Bălenii-Sârbi"],"lon":25.63333,"lat":44.81667,"pop":8231},{"id":685144,"name":"Bălești","lon":23.09408,"lat":46.42879,"pop":23},{"id":685625,"name":"Bălești","alt":["Balesti","Băleşti","Unirea","Unirea Loturi"],"lon":27.52865,"lat":46.71237,"pop":807},{"id":685627,"name":"Băleşti","lon":27.23333,"lat":45.43333,"pop":2214},{"id":685628,"name":"Băleşti","alt":["Balesti"],"lon":23.21667,"lat":45.01667,"pop":7333},{"id":685622,"name":"Bălești-Cătun","lon":23.09624,"lat":46.42027,"pop":85},{"id":685619,"name":"Bălilești","alt":["Balilesti","Balilestii","Bălileşti","Bălileştii"],"lon":24.53591,"lat":45.14172,"pop":155},{"id":685620,"name":"Bălileşti","lon":24.93333,"lat":45.06667,"pop":4362},{"id":685617,"name":"Bălindeşti","lon":24.06667,"lat":45.15,"pop":0},{"id":685616,"name":"Bălinești","lon":26.17755,"lat":47.89958,"pop":544},{"id":685609,"name":"Băliteşti","lon":22.73333,"lat":46.28333,"pop":0},{"id":685607,"name":"Bălmoșești","lon":23.09409,"lat":46.30561,"pop":41},{"id":685606,"name":"Bălnaca","lon":22.57206,"lat":46.94384,"pop":1056},{"id":685700,"name":"Bălnaca-Groși","alt":["Grosi","Groşi","Koeroesbanlakai erdo","Körösbánlakai erdő"],"lon":22.54911,"lat":46.91906,"pop":135},{"id":685580,"name":"Bălșoara","lon":24.12351,"lat":44.67342,"pop":468},{"id":685568,"name":"Băltăgari","alt":["Baltagari","Baltagarii","Băltăgarii"],"lon":26.72593,"lat":45.54872,"pop":267},{"id":685567,"name":"Băltăgești","lon":28.19358,"lat":44.48302,"pop":508},{"id":685562,"name":"Băltăreşti","lon":24.03333,"lat":44.85,"pop":0},{"id":685560,"name":"Băltăreţi","alt":["Baltaret","Baltareti","Baltaretu","Băltăreţ","Băltăreţu"],"lon":27.32471,"lat":45.85463,"pop":0},{"id":685561,"name":"Băltăreți","alt":["Baltareti","Baltaretii","Băltăreţi","Băltăreţii"],"lon":26.62248,"lat":45.06107,"pop":569},{"id":685552,"name":"Băltățeni","alt":["Balateni","Baltateni","Băltăţeni","Bălăţeni","Toader Enache"],"lon":27.69645,"lat":46.33711,"pop":240},{"id":685553,"name":"Băltățeni","lon":24.06753,"lat":45.08508,"pop":509},{"id":685534,"name":"Bălteanu","alt":["Balteanu","Balteanul","Bălteanul"],"lon":28.19,"lat":46.46889,"pop":0},{"id":685525,"name":"Bălteni","lon":26.53333,"lat":47.51667,"pop":0},{"id":685526,"name":"Bălteni","lon":27.50175,"lat":47.4044,"pop":622},{"id":685527,"name":"Bălteni","alt":["Balteni","Balteni-Vale","Baltenii-din-Vale","Bălteni-Vale","Băltenii-din-Vale"],"lon":27.61667,"lat":46.66667,"pop":1612},{"id":685528,"name":"Bălteni","lon":24.56125,"lat":45.14461,"pop":261},{"id":685529,"name":"Bălteni","alt":["Balteni","Baltenii","Băltenii"],"lon":27.14841,"lat":45.00905,"pop":542},{"id":685530,"name":"Bălteni","lon":23.95486,"lat":45.01258,"pop":415},{"id":685531,"name":"Bălteni","lon":26.03296,"lat":44.71445,"pop":431},{"id":685532,"name":"Bălteni","lon":25.69339,"lat":44.66488,"pop":1129},{"id":685533,"name":"Bălteni","alt":["Balteiu","Balteni"],"lon":24.53247,"lat":44.44883,"pop":1946},{"id":685519,"name":"Bălteni-Deal","alt":["Balteni-Deal","Baltenii dim Deal","Băltenii dim Deal"],"lon":27.61233,"lat":46.66835,"pop":496},{"id":685517,"name":"Băltenii de Jos","alt":["Baltenii de Jos","Carasuhat de Jos","Carasuhatu de Jos","Carasuhatul-de-Jos","Karasova"],"lon":29.05655,"lat":45.11991,"pop":98},{"id":685516,"name":"Băltenii de Sus","alt":["Baltenii de Sus","Carasuhat-de-Sus","Carasuhatu-de-Sus","Carasuhatul-de-Sus"],"lon":29.00143,"lat":45.12496,"pop":141},{"id":685514,"name":"Bălteşti","lon":22.96667,"lat":46.36667,"pop":0},{"id":685512,"name":"Bălticel Andrei","alt":["Balticel Andrei","Dragoeni","Drăgoeni"],"lon":23.4,"lat":45,"pop":0},{"id":685511,"name":"Băltița","lon":25.85273,"lat":44.8376,"pop":825},{"id":685508,"name":"Bălțata","lon":26.86975,"lat":46.48915,"pop":91},{"id":685556,"name":"Bălțata","lon":24.51137,"lat":44.96151,"pop":45},{"id":685555,"name":"Bălţata de Jos","lon":26.86667,"lat":46.48333,"pop":0},{"id":685554,"name":"Bălţata de Sus","lon":26.86667,"lat":46.48333,"pop":0},{"id":685547,"name":"Bălţaţi","alt":["Baltati"],"lon":27.15,"lat":47.21667,"pop":5061},{"id":685548,"name":"Bălțați","lon":27.9002,"lat":46.69911,"pop":688},{"id":685549,"name":"Bălțați","lon":24.58317,"lat":44.51026,"pop":593},{"id":685551,"name":"Bălţăteşti","alt":["Baltatesti","Burla","Piriu Sarat","Prihodistea","Prihodiştea","Prihojdia","Pîrîu Sărat"],"lon":26.3,"lat":47.11667,"pop":6635},{"id":685515,"name":"Bălțești","alt":["Baltesti","Bălteşti"],"lon":26.12937,"lat":45.10965,"pop":1361},{"id":685507,"name":"Bălușa","alt":["Balus","Balusa","Baluş","Băluşa"],"lon":27.11484,"lat":46.65492,"pop":79},{"id":685506,"name":"Băluşeni","lon":26.8,"lat":47.66667,"pop":5017},{"id":685504,"name":"Bălușenii Noi","alt":["Balusenii Noi","Băluşenii Noi","Palita","Pirlita","Pâlita","Pîrlita"],"lon":26.82383,"lat":47.6861,"pop":325},{"id":685501,"name":"Bălușești","lon":26.60206,"lat":46.92749,"pop":159},{"id":685502,"name":"Bălușești","alt":["Balusesti","Balusestii Mici","Băluşeşti","Băluşeştii Mici"],"lon":27.20942,"lat":46.88604,"pop":235},{"id":685503,"name":"Bălușești","lon":26.99885,"lat":46.81591,"pop":2262},{"id":685499,"name":"Băluța","alt":["Baluca","Baluta","Băluţa"],"lon":22.75514,"lat":44.95753,"pop":201},{"id":685498,"name":"Băluțoaia","lon":24.18723,"lat":45.04661,"pop":166},{"id":685495,"name":"Bănănăi","alt":["Bananai","Bananaii","Bănănăii"],"lon":24.93333,"lat":44.83333,"pop":0},{"id":685494,"name":"Bănărești","lon":24.76066,"lat":44.73044,"pop":521},{"id":685487,"name":"Bănceasca","lon":26.78333,"lat":45.16667,"pop":0},{"id":685485,"name":"Băncești","lon":26.01249,"lat":47.95591,"pop":153},{"id":685486,"name":"Băncești","alt":["Bancesti","Banesti","Bănceşti","Băneşti"],"lon":27.44796,"lat":46.54032,"pop":185},{"id":685484,"name":"Băncila","lon":27.08333,"lat":45.83333,"pop":0},{"id":685479,"name":"Băndoiu","lon":27.94053,"lat":44.86655,"pop":531},{"id":685473,"name":"Băneasa","alt":["Baneasa","Baneasa-Ilfov","Băneasa-Ilfov"],"lon":26.06667,"lat":44.5,"pop":0},{"id":685474,"name":"Băneasa","lon":27.09969,"lat":46.85332,"pop":179},{"id":685475,"name":"Băneasa","lon":27.93333,"lat":45.93333,"pop":2184},{"id":685476,"name":"Băneasa","alt":["Baneasa","Parachioi"],"lon":27.7,"lat":44.06667,"pop":5280},{"id":685477,"name":"Băneasa","alt":["Baneasa"],"lon":26.06417,"lat":44.04611,"pop":5582},{"id":685478,"name":"Băneasa","lon":24.94997,"lat":43.93975,"pop":1285},{"id":685460,"name":"Bănești","lon":26.52335,"lat":47.58946,"pop":1154},{"id":685461,"name":"Bănești","alt":["Banesd","Banesti","Bánesd","Zarand","Zarandbanya","Zaránd","Zarándbánya"],"lon":22.60697,"lat":46.28891,"pop":306},{"id":685462,"name":"Băneşti","alt":["Banesti"],"lon":25.76667,"lat":45.1,"pop":5636},{"id":685463,"name":"Bănești","lon":24.3699,"lat":44.9956,"pop":108},{"id":685464,"name":"Bănești","lon":25.57447,"lat":44.73519,"pop":316},{"id":685465,"name":"Bănești","lon":25.89098,"lat":44.27406,"pop":142},{"id":685457,"name":"Bănia","alt":["Bania","Banja"],"lon":22.04472,"lat":44.89583,"pop":1939},{"id":685455,"name":"Bănicel","lon":25.45,"lat":45.58333,"pop":0},{"id":685454,"name":"Bănicești","lon":24.61273,"lat":45.19078,"pop":188},{"id":685453,"name":"Bănişor","alt":["Banisor"],"lon":22.83731,"lat":47.10431,"pop":2385},{"id":685450,"name":"Băniţa","alt":["Banita"],"lon":23.26667,"lat":45.45,"pop":1352},{"id":685447,"name":"Bănțești","alt":["Banitesti","Bantesti","Băniţeşti","Bănţeşti"],"lon":24.07544,"lat":44.68444,"pop":484},{"id":685420,"name":"Băranu","alt":["Baranu","Baranul","Băranul"],"lon":23.38725,"lat":44.49685,"pop":121},{"id":685437,"name":"Bărăbanț","lon":23.58487,"lat":46.0993,"pop":2145},{"id":685434,"name":"Bărăceni","lon":25.45887,"lat":44.54531,"pop":422},{"id":685433,"name":"Bărăganu","alt":["Baragabu","Baraganu","Baraganul","Bărăgabu","Bărăganul","Osmanfaca"],"lon":28.4198,"lat":44.08939,"pop":948},{"id":12023668,"name":"Bărăganu","lon":27.70215,"lat":44.41154,"pop":0},{"id":685429,"name":"Bărăganul","alt":["Baraganul","Cioara-Doicesti","Cioara-Doiceşti"],"lon":27.51667,"lat":44.8,"pop":3561},{"id":685427,"name":"Bărăgini","alt":["Baragai","Baragini","Bărăgâi"],"lon":24.8,"lat":44.55,"pop":0},{"id":685426,"name":"Bărăi","alt":["Barai","Baraii","Bărăii"],"lon":23.90825,"lat":46.84552,"pop":370},{"id":685425,"name":"Bărăitaru","alt":["Baraitaru","Baraitarul","Baraitura","Bărâitura","Bărăitarul"],"lon":26.3501,"lat":44.86092,"pop":925},{"id":685422,"name":"Bărănești","alt":["Baranesti","Baranestii","Boronesti","Boroneşti","Băranestii","Bărăneşti"],"lon":24.5788,"lat":44.8526,"pop":246},{"id":685408,"name":"Bărăști","alt":["Barasti","Boroaia-Neamtului","Boroaia-Neamţului","Bărăşti","Nemteni","Nemţeni"],"lon":26.35383,"lat":47.36318,"pop":887},{"id":685409,"name":"Bărăști","alt":["Baresti"],"lon":22.98333,"lat":46.45,"pop":169},{"id":685410,"name":"Bărăşti","lon":26.71667,"lat":45.8,"pop":0},{"id":685411,"name":"Bărăşti","lon":27.05,"lat":45.36667,"pop":0},{"id":685412,"name":"Bărăști","lon":24.59651,"lat":45.25369,"pop":1099},{"id":685413,"name":"Bărăști","lon":26.38382,"lat":45.22677,"pop":582},{"id":685414,"name":"Bărăști","lon":24.68333,"lat":44.61667,"pop":256},{"id":685415,"name":"Bărăști","lon":24.1421,"lat":44.44861,"pop":475},{"id":685407,"name":"Bărăștii de Cepturi","lon":24.63348,"lat":44.70317,"pop":379},{"id":685405,"name":"Bărăștii de Vede","alt":["Barasti de Vede","Barastii de Vede","Bărăşti de Vede","Bărăştii de Vede"],"lon":24.65919,"lat":44.71601,"pop":370},{"id":685403,"name":"Bărăștii Hațegului","alt":["Barastii-Hategului","Barestii-Hategului","Băreştii-Hategului","Bărăştii-Haţegului"],"lon":22.94431,"lat":45.57143,"pop":480},{"id":685402,"name":"Bărăștii Iliei","alt":["Barastii Iliei","Barestii-Illiei","Băreştii-Illiei","Bărăştii Iliei"],"lon":22.72987,"lat":46.0208,"pop":44},{"id":685398,"name":"Bărăteaz","alt":["Barachaz","Barachaza","Barachhaza","Barachháza","Baracház","Baracháza","Baraczhaza","Baraczháza","Barateaz","Baratzhausen"],"lon":21.09615,"lat":45.96953,"pop":584},{"id":685393,"name":"Bărbălani","alt":["Barbalani","Barbalanii"],"lon":24.51148,"lat":44.90416,"pop":72},{"id":685394,"name":"Bărbălăi","lon":24.60212,"lat":44.65714,"pop":159},{"id":685392,"name":"Bărbălătești","alt":["Barbalatesti","Barbatestii","Bărbălăteşti","Bărbăteştii"],"lon":24.72577,"lat":45.20047,"pop":162},{"id":685391,"name":"Bărbărigeni","lon":24.06837,"lat":44.89209,"pop":230},{"id":685389,"name":"Bărbătenii de Sus","alt":["Barbateni de Sus","Barbatenii de Sus","Bărbăteni de Sus"],"lon":23.18333,"lat":45.33333,"pop":0},{"id":685387,"name":"Bărbătescu","alt":["Barbatescu","Cocani-Barbatescu","Cocani-Bărbătescu"],"lon":25.9,"lat":44.63333,"pop":0},{"id":685388,"name":"Bărbătescu","lon":26.80018,"lat":44.61066,"pop":222},{"id":685383,"name":"Bărbătești","lon":26.90562,"lat":47.27654,"pop":165},{"id":685384,"name":"Bărbăteşti","lon":24.11667,"lat":45.18333,"pop":3805},{"id":685385,"name":"Bărbătești","lon":24.63275,"lat":44.90799,"pop":737},{"id":685386,"name":"Bărbăteşti","lon":23.5,"lat":44.86667,"pop":1886},{"id":685379,"name":"Bărbești","lon":23.33208,"lat":46.27599,"pop":49},{"id":685377,"name":"Bărboasa","alt":["Barboasa","Barbosa","Odaea Barboasei","Odaea Bărboasei"],"lon":24.46667,"lat":46.81667,"pop":0},{"id":685378,"name":"Bărboasa","lon":27.24024,"lat":46.46376,"pop":214},{"id":685376,"name":"Bărboi","alt":["Barboi","Barboiu","Barboiul","Bărboiu","Bărboiul"],"lon":23.32261,"lat":44.44624,"pop":541},{"id":685371,"name":"Bărbosu","alt":["Barbos","Barbosu","Barbosza","Barboza"],"lon":21.75379,"lat":45.46487,"pop":63},{"id":662267,"name":"Bărboși","alt":["Mezoszakal","Mezőszakál","Sacalau de Cimpie","Săcălău de Cîmpie"],"lon":24.18333,"lat":46.58333,"pop":330},{"id":685370,"name":"Bărbuceanu","lon":25.92163,"lat":44.70525,"pop":117},{"id":685369,"name":"Bărbuceni","alt":["Barbucea","Barbuceni","Bărbucea"],"lon":24.24482,"lat":44.74639,"pop":571},{"id":685367,"name":"Bărbuleşti","lon":23.85,"lat":45.06667,"pop":0},{"id":685368,"name":"Bărbulești","lon":26.59929,"lat":44.72629,"pop":3753},{"id":685366,"name":"Bărbuleţu","alt":["Barbuletu","Barbuletul","Barbulotul","Bărbuletul","Bărbulotul"],"lon":25.3,"lat":45.13333,"pop":6777},{"id":685364,"name":"Bărbuncești","alt":["Babucesti","Barbuncesti","Băbuceşti","Bărbunceşti"],"lon":26.60038,"lat":45.22586,"pop":175},{"id":685362,"name":"Bărbuşa","lon":25.05,"lat":45.26667,"pop":0},{"id":685361,"name":"Bărc","lon":23.98333,"lat":45.96667,"pop":0},{"id":685353,"name":"Bărcăneşti","lon":26.58333,"lat":46.71667,"pop":4105},{"id":685354,"name":"Bărcăneşti","alt":["Barcanesti"],"lon":26.05,"lat":44.88333,"pop":9225},{"id":685355,"name":"Bărcănești","lon":24.03299,"lat":44.80575,"pop":184},{"id":685356,"name":"Bărcăneşti","lon":26.65,"lat":44.63333,"pop":3936},{"id":685357,"name":"Bărcăneşti","alt":["Barcanesti","Borcanesti","Borcaneşti"],"lon":23.95,"lat":44.6,"pop":0},{"id":685358,"name":"Bărcănești","lon":24.54706,"lat":44.30045,"pop":897},{"id":685341,"name":"Bărcut","alt":["Barcut","Bareut","Bărcuţ","Băreut"],"lon":24.92103,"lat":45.99813,"pop":392},{"id":685338,"name":"Bărdești","alt":["Bardesti","Bardos","Bradesti","Brădesti","Bàrdos","Bărdeşti"],"lon":24.51389,"lat":46.59488,"pop":311},{"id":685331,"name":"Băroiu","alt":["Baroiu","Baroiul","Băroiul"],"lon":23.9254,"lat":44.71631,"pop":469},{"id":685328,"name":"Bărtăluș-Mocani","alt":["Bartalus-Mocani","Bartalusi-Mocani","Bartalusii-Mocani","Bartulusu Mocani","Bărtăluş-Mocani","Bărtăluşi-Mocani","Bărtăluşii-Mocani"],"lon":27.45818,"lat":46.39506,"pop":272},{"id":685327,"name":"Bărtăluș-Răzeși","alt":["Bartalusi","Bartalusi-Razesi","Bartalusu","Bărtăluşi","Bărtăluşi-Răzeşi","Bărtăluşu","Razesi","Răzeşi"],"lon":27.46212,"lat":46.3813,"pop":123},{"id":685326,"name":"Bărtășești","lon":27.12799,"lat":46.5907,"pop":275},{"id":685314,"name":"Băsăngeşti","lon":24.85,"lat":44.81667,"pop":0},{"id":685307,"name":"Băsăști","alt":["Basasti","Basesti","Băseşti","Băsăşti"],"lon":26.60165,"lat":46.62477,"pop":682},{"id":685298,"name":"Băseşti","lon":25.28333,"lat":45.16667,"pop":0},{"id":685299,"name":"Băseşti","lon":23.15,"lat":47.48333,"pop":1586},{"id":685300,"name":"Băseşti","alt":["Basesti","Calmatuiu","Călmăţuiu"],"lon":24.81667,"lat":44.03333,"pop":0},{"id":685277,"name":"Bătarci","alt":["Batarci"],"lon":23.16667,"lat":48.03333,"pop":3681},{"id":685275,"name":"Bătăreni","alt":["Batareni","Batereni","Bătereni"],"lon":24.68435,"lat":44.60698,"pop":125},{"id":685274,"name":"Bătășani","alt":["Batasani","Bătăşani","Pielasti","Pielaşti","Pielesti","Pieleşti"],"lon":23.99626,"lat":44.67488,"pop":553},{"id":685272,"name":"Bătești","lon":22.20635,"lat":45.84663,"pop":485},{"id":685273,"name":"Bătești","lon":26.04031,"lat":44.8483,"pop":1671},{"id":685269,"name":"Bătieşti","alt":["Batiesti","Bratiesti","Brătieşti"],"lon":25.08333,"lat":45.08333,"pop":0},{"id":685267,"name":"Bătinești","lon":27.15549,"lat":45.8296,"pop":226},{"id":685255,"name":"Bătrâna","alt":["Batrana","Batrina","Bătrîna"],"lon":22.58333,"lat":45.78333,"pop":172},{"id":685251,"name":"Bătrânești","alt":["Batrinesti","Bătrîneşti"],"lon":26.88333,"lat":47.78333,"pop":262},{"id":685252,"name":"Bătrânești","alt":["Batrinesti","Bătrîneşti"],"lon":27,"lat":46.76667,"pop":194},{"id":685249,"name":"Bătrâni","lon":26.15091,"lat":45.31425,"pop":2095},{"id":685250,"name":"Bătrâni","lon":24.75756,"lat":44.84173,"pop":222},{"id":685247,"name":"Bătrânu","alt":["Batranu","Batrinu","Bătrînu"],"lon":22.7,"lat":46.98333,"pop":0},