[{"id":3302771,"name":"Acimija","lon":19.78833,"lat":43.73972,"pop":0},{"id":3303237,"name":"Acimovići","alt":["Acimovici","Knezevici","Kneževići"],"lon":19.6561,"lat":43.88282,"pop":0},{"id":3238624,"name":"Aćimovići","alt":["Acimovici"],"lon":19.45053,"lat":44.33096,"pop":0},{"id":835453,"name":"Ackovići","alt":["Ackovici"],"lon":20.64389,"lat":43.14944,"pop":0},{"id":793171,"name":"Ada","alt":["Asszonyfalva","Ostrova","a da","ada","ada  srbya","Ада","אדא","אדה","آدا","أدا","ادا، سربیا","アダ","阿達","아다"],"lon":20.12583,"lat":45.8025,"pop":0},{"id":3204871,"name":"Adaševci","alt":["Adasevci"],"lon":19.22128,"lat":45.07933,"pop":0},{"id":3274639,"name":"Adimovci","lon":19.65646,"lat":44.02216,"pop":0},{"id":787747,"name":"Adorjan","alt":["Adorján","Nadrljan","Адорјан"],"lon":20.04007,"lat":46.00333,"pop":1203},{"id":862657,"name":"Adrani","lon":20.63473,"lat":43.76263,"pop":0},{"id":793167,"name":"Adrovac","lon":20.96281,"lat":44.23324,"pop":0},{"id":3305074,"name":"Adrovići","alt":["Adrovici"],"lon":19.61316,"lat":43.45957,"pop":0},{"id":3216962,"name":"Adžići","alt":["Adzica Mala","Adzici","Adžića Mala"],"lon":19.43895,"lat":44.54676,"pop":0},{"id":3238858,"name":"Adžići","alt":["Adzici"],"lon":19.40556,"lat":44.26917,"pop":0},{"id":3276821,"name":"Adžići","alt":["Adzici"],"lon":19.71317,"lat":44.23193,"pop":0},{"id":862817,"name":"Adžine Livade","alt":["Adzine Livade"],"lon":20.87356,"lat":43.8969,"pop":0},{"id":834928,"name":"Adžoviće","alt":["Adzovice"],"lon":21.09185,"lat":43.218,"pop":0},{"id":859039,"name":"Adżt","lon":21.53562,"lat":42.34556,"pop":0},{"id":858859,"name":"Ahmote","lon":21.56025,"lat":42.3362,"pop":0},{"id":836394,"name":"Ajdačići","alt":["Ajdacici","Hajdace","Hajdače"],"lon":20.20212,"lat":43.66072,"pop":0},{"id":3204852,"name":"Akmačići","alt":["Akmacici"],"lon":19.87176,"lat":43.42775,"pop":0},{"id":793153,"name":"Alabana","lon":21.34731,"lat":43.29409,"pop":0},{"id":793150,"name":"Alakince","alt":["Alakinci"],"lon":22.14431,"lat":42.69428,"pop":0},{"id":3304142,"name":"Alavandići","alt":["Alavandici"],"lon":19.67719,"lat":43.25841,"pop":0},{"id":860897,"name":"Albanci","lon":22.1225,"lat":42.43528,"pop":0},{"id":835234,"name":"Albanija","lon":21.17626,"lat":43.39112,"pop":0},{"id":853238,"name":"Albanija","lon":22.27725,"lat":43.73384,"pop":0},{"id":793145,"name":"Aldina Reka","lon":22.5146,"lat":43.4505,"pop":0},{"id":793146,"name":"Aldinac","alt":["Aldinci"],"lon":22.44697,"lat":43.52894,"pop":0},{"id":3204840,"name":"Aleksa Šantić","alt":["Aleksa Santic"],"lon":19.33252,"lat":45.92843,"pop":0},{"id":793141,"name":"Aleksandrovac","alt":["Prhovo"],"lon":21.2131,"lat":44.44925,"pop":0},{"id":793142,"name":"Aleksandrovac","alt":["alksandrawak","alyksandrwfats","alyksandrwwach","ya li shan de luo wa ci","Александровац","أليكساندروفاتس","الکساندراواک","الیکساندروواچ","亞歷山德羅瓦茨"],"lon":21.0525,"lat":43.45861,"pop":0},{"id":793143,"name":"Aleksandrovac","lon":22.43907,"lat":43.0421,"pop":0},{"id":859149,"name":"Aleksandrovac","lon":21.89766,"lat":42.48438,"pop":0},{"id":860516,"name":"Aleksandrovac","lon":21.90194,"lat":42.48444,"pop":0},{"id":784604,"name":"Aleksandrovo","alt":["Banatsko Aleksandrovo","Livade","Velike Livade"],"lon":20.59288,"lat":45.63755,"pop":3061},{"id":793139,"name":"Aleksandrovo","lon":21.75658,"lat":43.29467,"pop":0},{"id":3338802,"name":"Aleksandrovo","lon":19.68049,"lat":46.07109,"pop":0},{"id":863150,"name":"Aleksići","lon":21.31861,"lat":43.01861,"pop":0},{"id":3275264,"name":"Aleksići","alt":["Aleksici"],"lon":19.64776,"lat":44.08492,"pop":0},{"id":793138,"name":"Aleksinac","alt":["Alexinatz","a lai ke xi na ci","alksynak","alksynatsh","alyksynach","Алексинац","ألكسيناتش","الکسیناک","الیکسیناچ","阿萊克西納茨"],"lon":21.70778,"lat":43.54167,"pop":0},{"id":836583,"name":"Aleksinački Rudnici Uglja","alt":["Aleksinacki Rudnici Uglja"],"lon":21.69139,"lat":43.55806,"pop":0},{"id":835198,"name":"Aleksine","lon":22.29035,"lat":42.97792,"pop":0},{"id":834729,"name":"Aleksino","lon":21.40917,"lat":43.05444,"pop":0},{"id":793134,"name":"Alibunar","alt":["Alibunár","Alisbrunn","Allibunar","a li bu nuo er","alybwnar","Алибунар","أليبونار","الیبونار","阿利布諾爾"],"lon":20.96583,"lat":45.08083,"pop":3803},{"id":793132,"name":"Aliđerce","alt":["Aliderce","Aligerce"],"lon":21.72911,"lat":42.2914,"pop":0},{"id":3204833,"name":"Alin Potok","lon":19.78543,"lat":43.70087,"pop":0},{"id":836078,"name":"Aliveroviće","alt":["Aliverovice"],"lon":20.16776,"lat":43.14677,"pop":0},{"id":3204830,"name":"Aljinovići","alt":["Aljinovice","Aljinovici","Aljinoviće","Halinovici","Halinovići"],"lon":19.84874,"lat":43.33765,"pop":0},{"id":793126,"name":"Aljudovo","lon":21.42763,"lat":44.50725,"pop":0},{"id":3216371,"name":"Aluga","lon":19.40435,"lat":44.24602,"pop":0},{"id":3300200,"name":"Aluga","lon":19.36778,"lat":43.95111,"pop":0},{"id":835423,"name":"Aluge","lon":20.60778,"lat":43.12861,"pop":0},{"id":3297841,"name":"Aluge","lon":19.34464,"lat":43.56984,"pop":0},{"id":793124,"name":"Aluloviće","alt":["Alulovice","Alulovici","Alulovići"],"lon":20.46535,"lat":43.20823,"pop":0},{"id":3271944,"name":"Amajić","alt":["Amajic"],"lon":19.14977,"lat":44.31882,"pop":0},{"id":861887,"name":"Amarevi","lon":22.35764,"lat":42.64629,"pop":0},{"id":3272373,"name":"Ambarište","alt":["Ambariste"],"lon":19.19693,"lat":44.37335,"pop":0},{"id":3272535,"name":"Ambarište","alt":["Ambariste"],"lon":19.18669,"lat":44.39436,"pop":0},{"id":793123,"name":"Amerić","alt":["Americ"],"lon":20.64389,"lat":44.47222,"pop":0},{"id":3204824,"name":"Amzići","alt":["Amzici"],"lon":19.84413,"lat":43.49622,"pop":0},{"id":3319028,"name":"Amzići","lon":19.85944,"lat":43.50056,"pop":0},{"id":12188493,"name":"Ancient Diocese of Sirmium","lon":19.605,"lat":44.9667,"pop":0},{"id":837115,"name":"Anđelići","lon":20.22889,"lat":43.76389,"pop":0},{"id":3272656,"name":"Anđelići","alt":["Andelici"],"lon":19.61284,"lat":44.27368,"pop":0},{"id":860410,"name":"Anđelinkovci","lon":22.05254,"lat":42.45569,"pop":0},{"id":860451,"name":"Anđelkovska Mahala","lon":21.96827,"lat":42.51026,"pop":0},{"id":3303825,"name":"Andići","alt":["Andici","Andiri"],"lon":19.69583,"lat":43.83639,"pop":0},{"id":3216820,"name":"Andrača","alt":["Andraca"],"lon":19.1839,"lat":44.43341,"pop":0},{"id":835108,"name":"Andrići","alt":["Andrici"],"lon":20.47979,"lat":43.40589,"pop":0},{"id":3216596,"name":"Andrići","alt":["Andrici"],"lon":19.69787,"lat":44.39093,"pop":0},{"id":3239739,"name":"Andrići","alt":["Andrici"],"lon":19.40417,"lat":44.43667,"pop":0},{"id":3272569,"name":"Andrići","alt":["Andrici"],"lon":19.77137,"lat":44.30185,"pop":0},{"id":3300206,"name":"Andrići","alt":["Andrici"],"lon":19.33121,"lat":43.93918,"pop":0},{"id":860885,"name":"Angelince","alt":["Donja Mahala"],"lon":22.16472,"lat":42.41722,"pop":0},{"id":3256731,"name":"Aničići","alt":["Anicici"],"lon":19.29949,"lat":44.514,"pop":0},{"id":3317617,"name":"Aničići","alt":["Amjcici","Amjčići","Anicici"],"lon":19.9266,"lat":43.47367,"pop":0},{"id":836047,"name":"Antići","alt":["Antici"],"lon":20.96733,"lat":43.30377,"pop":0},{"id":863299,"name":"Antići","lon":21.38972,"lat":43.19111,"pop":0},{"id":3256778,"name":"Antonića Mala","alt":["Antonica Mala"],"lon":19.32335,"lat":44.53208,"pop":0},{"id":3240184,"name":"Antonići","alt":["Antonici"],"lon":19.21805,"lat":44.4793,"pop":0},{"id":3303817,"name":"Anžići","alt":["Anzici"],"lon":19.67882,"lat":43.83575,"pop":0},{"id":3204793,"name":"Apatin","alt":["Abthausen","Apathin","Apati","Apatinas","a pa ding","abatyn","apatn","Апатин","אפאטין","أباتين","اپاتن","阿帕丁"],"lon":18.978,"lat":45.6726,"pop":18320},{"id":793112,"name":"Aradac","alt":["Alsoaradi","Alsóaradi","Andrejevac","Andrejevac Aradac","Aradatz","Aradaz","Aradec","Aradi","Felsoaradi","Felsőaradi","Racz-Aradacz","Rácz-Aradácz","Slovacki Aradac","Slovački Aradac","Slowakisch-Aradatz","Srpski Aradac","Szerb-Aradacz","Szerb-Aradácz","Szerbaradacz","Szerbaradácz","Tot-Aradacz","Totaradacz","Tót-Aradácz","Tótaradácz"],"lon":20.30137,"lat":45.38346,"pop":3825},{"id":793111,"name":"Aranđelovac","alt":["Arandzhelovac","Arangjelovac","a lan jie luo wa ci","arandjylwfats","arandylwwach","aranjlwwas","Аранджеловац","Аранђеловац","آرانجلوواس","أراندجيلوفاتس","ئاراندێلۆڤاتس","اراندیلوواچ","阿蘭傑洛瓦茨"],"lon":20.56,"lat":44.30694,"pop":24309},{"id":793107,"name":"Arapovac","lon":20.38941,"lat":44.45577,"pop":0},{"id":793106,"name":"Arapoviće","alt":["Arapovice","Arapovici","Arapovići"],"lon":20.25442,"lat":43.12367,"pop":0},{"id":793104,"name":"Arbanasce","alt":["Arbanasci"],"lon":21.63772,"lat":43.27399,"pop":0},{"id":793103,"name":"Arbanaška","alt":["Arbanaska"],"lon":21.43818,"lat":43.07887,"pop":166},{"id":834975,"name":"Arbulići","alt":["Arbulici"],"lon":20.36399,"lat":43.4193,"pop":0},{"id":793093,"name":"Arilje","alt":["Arile","a li lie","arylyyh","Ариле","Ариље","آریلیئے","أريلييه","阿里列"],"lon":20.09556,"lat":43.75306,"pop":6762},{"id":859420,"name":"Aritonova Mahala","lon":21.86304,"lat":42.33258,"pop":0},{"id":793088,"name":"Arnajevo","lon":20.37571,"lat":44.4978,"pop":0},{"id":3342287,"name":"Arnaut Polje","lon":19.68278,"lat":43.25083,"pop":0},{"id":3336931,"name":"Arnautovići","alt":["Arnautovici"],"lon":19.99028,"lat":43.97972,"pop":0},{"id":862197,"name":"Arnautska Mahala","lon":22.44826,"lat":42.53704,"pop":0},{"id":3257168,"name":"Arsenovići","alt":["Arsenovici"],"lon":19.4791,"lat":44.52102,"pop":0},{"id":3272795,"name":"Arsenovići","alt":["Arsenovici"],"lon":19.16712,"lat":44.45853,"pop":0},{"id":835151,"name":"Arsići","alt":["Arsici"],"lon":21.16434,"lat":43.32791,"pop":0},{"id":3277209,"name":"Arsići","lon":19.69417,"lat":44.18,"pop":0},{"id":3279776,"name":"Arsići","lon":19.75694,"lat":44.02972,"pop":0},{"id":859521,"name":"Ašani","alt":["Asane","Asani","Ašane"],"lon":21.73276,"lat":42.2737,"pop":0},{"id":793080,"name":"Ašanja","alt":["Asanja"],"lon":20.07589,"lat":44.75639,"pop":0},{"id":793076,"name":"Asanovac","lon":21.64487,"lat":43.13852,"pop":0},{"id":834983,"name":"Asanovo Selo","lon":20.38167,"lat":43.45038,"pop":0},{"id":855717,"name":"Asmanska Mahala","alt":["Asmansha Mahala"],"lon":21.59372,"lat":42.31231,"pop":0},{"id":860447,"name":"Ategan Mahala","lon":21.94581,"lat":42.53467,"pop":0},{"id":793075,"name":"Atenica","lon":20.33932,"lat":43.85039,"pop":0},{"id":3216727,"name":"Avala","lon":19.92889,"lat":44.42583,"pop":0},{"id":3305161,"name":"Avdovi","lon":19.61611,"lat":43.4275,"pop":0},{"id":3257113,"name":"Avramovića Mala","alt":["Avramovica Mala"],"lon":19.43882,"lat":44.53854,"pop":0},{"id":850424,"name":"Avramovići","lon":20.57889,"lat":44.68056,"pop":0},{"id":3240180,"name":"Avramovići","alt":["Avramovici"],"lon":19.23694,"lat":44.46,"pop":0},{"id":793071,"name":"Azanja","lon":20.87972,"lat":44.43306,"pop":0},{"id":793070,"name":"Azbresnica","lon":21.69625,"lat":43.35735,"pop":0},{"id":793068,"name":"Ba","lon":20.19203,"lat":44.15803,"pop":0},{"id":860971,"name":"Baba Karinci","lon":21.99601,"lat":42.63004,"pop":0},{"id":3306859,"name":"Babać","alt":["Babac"],"lon":19.93955,"lat":43.23996,"pop":0},{"id":793062,"name":"Babajić","alt":["Babaic","Babaić","Babajic"],"lon":20.20161,"lat":44.23324,"pop":0},{"id":834530,"name":"Babanići","alt":["Babanici"],"lon":20.93056,"lat":44.44222,"pop":0},{"id":860731,"name":"Babatrenci","lon":21.91585,"lat":42.42085,"pop":0},{"id":793057,"name":"Babe","lon":20.53025,"lat":44.5305,"pop":0},{"id":793055,"name":"Babica","lon":20.98719,"lat":43.23362,"pop":0},{"id":835268,"name":"Babićevi","alt":["Babicevi"],"lon":22.28454,"lat":42.80612,"pop":0},{"id":834814,"name":"Babići","alt":["Babici","Dramicane","Dramicani","Dramičane","Dramičani"],"lon":20.20251,"lat":43.39604,"pop":0},{"id":3274783,"name":"Babići","alt":["Babici"],"lon":19.68191,"lat":44.01497,"pop":0},{"id":3342150,"name":"Babići","lon":19.65611,"lat":43.36722,"pop":0},{"id":793053,"name":"Babičko","alt":["Babicko"],"lon":22.00013,"lat":43.138,"pop":0},{"id":3316787,"name":"Babin","lon":19.7025,"lat":44.88806,"pop":0},{"id":860773,"name":"Babin Dol","lon":22.07269,"lat":42.57339,"pop":0},{"id":793049,"name":"Babin Kal","lon":22.37866,"lat":43.29391,"pop":0},{"id":793046,"name":"Babin Potok","lon":21.62941,"lat":43.22965,"pop":0},{"id":3204724,"name":"Babina Luka","lon":19.96028,"lat":44.35917,"pop":0},{"id":860745,"name":"Babina Poljana","lon":22.17909,"lat":42.4737,"pop":0},{"id":793041,"name":"Babotinac","alt":["Babotinci"],"lon":21.51382,"lat":43.32608,"pop":0},{"id":835387,"name":"Babrež","alt":["Babrez"],"lon":20.52138,"lat":43.0913,"pop":0},{"id":793034,"name":"Babušnica","alt":["Babushnica","Babusnica","Bobusnica","Bobušnica","Gmina Babusnica","Gmina Babušnica","Opstina Babusnica","Opština Babušnica","ba bu shen ni cha","babwshnycha","babwshnytsa","Бабушница","بابوشنيتسا","بابوشنیچا","巴布什尼察"],"lon":22.41383,"lat":43.06412,"pop":0},{"id":3204692,"name":"Bač","alt":["Baatsch","Bac","Bacas","Bach","Bacs","Batsch","Baç","Bačas","Bács","ba qi","bach","bachi","batsh","Бач","באץ","باتش","باچ","巴奇","바치"],"lon":19.23667,"lat":45.39194,"pop":0},{"id":3215085,"name":"Bač","alt":["Mali Bac","Mali Bač"],"lon":19.19873,"lat":45.39929,"pop":0},{"id":3257151,"name":"Bacaklija","lon":19.43716,"lat":44.81804,"pop":0},{"id":793030,"name":"Bace","lon":21.34463,"lat":43.21963,"pop":509},{"id":3319063,"name":"Bacetići","lon":19.82611,"lat":43.75139,"pop":0},{"id":793029,"name":"Baćevac","alt":["Bacevac"],"lon":20.37547,"lat":44.5856,"pop":0},{"id":3318894,"name":"Bačevac","alt":["Bacevac"],"lon":19.82167,"lat":43.69889,"pop":0},{"id":835996,"name":"Bačevci","alt":["Bacevci"],"lon":20.85472,"lat":43.38611,"pop":0},{"id":3204684,"name":"Bačevci","alt":["Bacevci","Gornji Bacevci","Gornji Bačevci"],"lon":19.91305,"lat":44.17471,"pop":0},{"id":3204685,"name":"Bačevci","alt":["Bacevac","Bacevci","Bacevica","Baćevica","Bačevac"],"lon":19.51193,"lat":44.08821,"pop":0},{"id":793027,"name":"Bačevica","alt":["Bacevica"],"lon":22.08414,"lat":43.78975,"pop":0},{"id":793026,"name":"Bačevina","alt":["Bacevina"],"lon":21.62328,"lat":42.94757,"pop":0},{"id":860368,"name":"Bačevište","lon":21.95512,"lat":42.65931,"pop":0},{"id":862764,"name":"Bačevište","lon":20.71889,"lat":43.75,"pop":0},{"id":793025,"name":"Bačevo","alt":["Bacevo"],"lon":22.84397,"lat":43.01208,"pop":0},{"id":793023,"name":"Bačiće","alt":["Bacica","Bacice","Baćica"],"lon":20.1978,"lat":43.12989,"pop":0},{"id":834968,"name":"Bačiće","alt":["Bacice"],"lon":21.06206,"lat":43.13139,"pop":0},{"id":793021,"name":"Bačija","alt":["Bacija"],"lon":20.04064,"lat":43.3319,"pop":0},{"id":834730,"name":"Bačije","alt":["Bacije"],"lon":21.42162,"lat":43.05447,"pop":0},{"id":793020,"name":"Bacijevce","alt":["Bacijevac"],"lon":22.15843,"lat":42.71941,"pop":0},{"id":3303938,"name":"Bačilovina","alt":["Bacilovina","Baculovina","Bačulovina"],"lon":19.63768,"lat":43.28311,"pop":0},{"id":793019,"name":"Bačina","alt":["Bacina"],"lon":21.29788,"lat":43.72613,"pop":4},{"id":793018,"name":"Bačinac","alt":["Bacinac"],"lon":20.91643,"lat":44.50827,"pop":0},{"id":3204679,"name":"Bačinci","alt":["Bacinci"],"lon":19.30696,"lat":45.08158,"pop":0},{"id":3305178,"name":"Baćine","alt":["Bacine"],"lon":19.39955,"lat":43.46028,"pop":0},{"id":3204674,"name":"Bačka Palanka","alt":["Alt-Palanka","Bachka Palanka","Bachka palanka","Bachka-Palanka","Backa Palanka","Deutsch-Palanka","Nemet-Palanka","Nova Palanka","Német-Palánka","Opalanka","Palanka","Palánka","Plakenburg","Stara Palanka","Ujpalanka","ba qi ka pa lan ka","bachikapallanka","bachka palanka","bachka planka","batshka balanka","Ópalánka","Újpalánka","Бачка Паланка","Бачка паланка","Бачка-Паланка","באצקה פאלאנקה","باتشكا بالانكا","باچکا پالانکا","باچکا پلانکا","巴奇卡帕兰卡","바치카팔란카"],"lon":19.39664,"lat":45.24966,"pop":29449},{"id":3204672,"name":"Bačka Topola","alt":["Andrasfoldje","Andrásföldje","Bacstopolya","Batsch-Topola","Bácstopolya","Kisbelgrad","Kisbelgrád","Mali Beograd","Topolo","Topolya"],"lon":19.6318,"lat":45.81516,"pop":16154},{"id":3204670,"name":"Bački Breg","alt":["Backi Breg","Bereg","Beregh","Berg","Berg an der Donau","Béreg"],"lon":18.92944,"lat":45.92034,"pop":1770},{"id":3204669,"name":"Bački Brestovac","alt":["Backi Brestovac","Bacsbresztovacz","Batsch-Brestowatz","Bácsbresztovácz","Silberg","Szilberek","Ulmenau"],"lon":19.27095,"lat":45.61823,"pop":0},{"id":3204668,"name":"Bački Gračac","alt":["Backi Gracac","Filipova","Filipovo","Filippova","Filipsdorf","Kindlingen","Philipsdorf","Szentfulop","Szentfülöp","filipowa"],"lon":19.32353,"lat":45.55452,"pop":0},{"id":3204667,"name":"Bački Jarak","alt":["Backi Jarak","Bacsarokszallas","Bácsárokszállás","Jarak","Jarek","Jarmos","Járek","Jármos","Schonhausen","Schönhausen","Tiszaistvanfalva","Tiszaistvánfalva"],"lon":19.87507,"lat":45.36995,"pop":0},{"id":3204666,"name":"Bački Monoštor","alt":["Backi Monostor","Batsch-Monoschtor","Bodrog-Monostorszeg","Monostorszeg"],"lon":18.93402,"lat":45.79441,"pop":4},{"id":3204665,"name":"Bački Petrovac","alt":["Bachki Petrovac","Bachki-Petrovac","Backi Petrovac","Petroc","Petrocz","Petrovac","Petrovacz","Petrovec","Petrovácz","Petrowatz","Petrőc","Petrőcz","ba qi ji bi de luo wa ci","bachky pytrwwach","batshky bytrwfats","Бачки Петровац","Бачки-Петровац","באצקי פטרובאץ","باتشكي بيتروفاتس","باچکی پیتروواچ","巴奇基彼得羅瓦茨"],"lon":19.59167,"lat":45.36056,"pop":7229},{"id":3204663,"name":"Bački Sokolac","alt":["Backi Sokolac"],"lon":19.54019,"lat":45.84961,"pop":0},{"id":3204662,"name":"Bački Vinogradi","alt":["Backi Vinogradi","Bacsszollos","Bacsszolos","Bácsszöllős","Bácsszőlős","Kiralyhalom","Királyhalom"],"lon":19.85594,"lat":46.12304,"pop":0},{"id":3204661,"name":"Bačko Dobro Polje","alt":["Backo Dobro","Backo Dobro Polje","Bačko Dobro","Kisker","Kiskér","Klein Ker","Klein-Keer","Kleinwiesen","Pribicevicevo","Pribićevićevo"],"lon":19.68981,"lat":45.50148,"pop":0},{"id":3200940,"name":"Bačko Dušanovo","alt":["Backo Dusanovo","Dusanovac","Dusanovo","Dušanovac","Dušanovo"],"lon":19.78366,"lat":45.90773,"pop":0},{"id":793015,"name":"Bačko Gradište","alt":["Backo Gradiste","Bacsfoeldvar","Bacsfoldvar","Bácsföldvár","Foeldvar","Foldvar","Földvár","Tisza-Foeldvar","Tisza-Foldvar","Tisza-Földvár"],"lon":20.03082,"lat":45.53271,"pop":5764},{"id":3204659,"name":"Bačko Novo Selo","alt":["Backo Novo Salo","Backo Novo Selo","Bacs-Novoszelo","Bacsujlak","Batsch-Neudorf","Bačko Novo Salo","Bács-Novoszelo","Bácsújlak","Neudorf an der Donau"],"lon":19.14109,"lat":45.29337,"pop":0},{"id":793014,"name":"Bačko Petrovo Selo","alt":["Backo Petrovo Selo","Peterreve","Petrovosello","Petrovoszello","Petrovoszelló","Péterréve"],"lon":20.07928,"lat":45.70681,"pop":8959},{"id":834954,"name":"Baćoglava","alt":["Bacoglava"],"lon":21.24346,"lat":43.1375,"pop":0},{"id":793013,"name":"Bačvište","alt":["Baceviste","Bacviste","Bačevište"],"lon":22.02083,"lat":42.66425,"pop":0},{"id":793012,"name":"Badanj","lon":20.70059,"lat":43.31016,"pop":0},{"id":793009,"name":"Badince","lon":22.00957,"lat":42.97346,"pop":0},{"id":3238536,"name":"Badišići","alt":["Badisici"],"lon":19.43216,"lat":44.38917,"pop":0},{"id":793008,"name":"Badljevica","lon":20.78556,"lat":44.52806,"pop":0},{"id":793005,"name":"Badnjevac","lon":20.98241,"lat":44.13175,"pop":0},{"id":793006,"name":"Badnjevac","lon":21.78728,"lat":43.17138,"pop":0},{"id":838025,"name":"Badnjevo","lon":22.50222,"lat":44.23889,"pop":5},{"id":3204635,"name":"Badovinci","lon":19.37146,"lat":44.78534,"pop":5879},{"id":793002,"name":"Bagačiće","alt":["Bagacice","Bogacici","Bogačići"],"lon":20.06134,"lat":43.29243,"pop":0},{"id":793001,"name":"Bagrdan","lon":21.17867,"lat":44.07115,"pop":0},{"id":3204631,"name":"Bagremovo","lon":19.81237,"lat":45.74419,"pop":0},{"id":861680,"name":"Bainovska Mahala","lon":22.29336,"lat":42.40319,"pop":0},{"id":862799,"name":"Bajčetina","alt":["Bajcetina"],"lon":20.89323,"lat":43.8532,"pop":0},{"id":792999,"name":"Bajčince","alt":["Bajcince"],"lon":21.54365,"lat":43.3216,"pop":0},{"id":792997,"name":"Bajevac","lon":20.06027,"lat":44.37809,"pop":0},{"id":792996,"name":"Bajevica","alt":["Bojevica"],"lon":20.47667,"lat":43.10208,"pop":0},{"id":850468,"name":"Bajića Kraj","lon":20.585,"lat":44.66111,"pop":0},{"id":3256399,"name":"Bajića Mala","alt":["Bajica Mala"],"lon":19.33913,"lat":44.59789,"pop":0},{"id":3216056,"name":"Bajići","alt":["Bajici"],"lon":19.72869,"lat":44.0391,"pop":0},{"id":3204623,"name":"Bajina Bašta","alt":["Baina Bashha","Baina-Bashta","Bajina Bashta","Bajina Basta","ba yi na ba shen ta","bayyna bashta","Баина Баща","Баина-Башта","Бајина Башта","بايينا باشتا","بایینا باشتا","巴伊納巴什塔"],"lon":19.5675,"lat":43.97083,"pop":8533},{"id":792994,"name":"Bajinci","lon":22.25381,"lat":42.78618,"pop":0},{"id":861876,"name":"Bajinova Mahala","alt":["Bajinovci"],"lon":22.42389,"lat":42.64455,"pop":0},{"id":3237366,"name":"Bajir","lon":19.28317,"lat":44.49252,"pop":0},{"id":3204619,"name":"Bajmok","alt":["Bajmak","Bajnok","Nagelsdorf"],"lon":19.42246,"lat":45.97136,"pop":0},{"id":3274809,"name":"Bajnovače","alt":["Bajnovace"],"lon":19.72671,"lat":44.00724,"pop":0},{"id":3305066,"name":"Bajnovići","alt":["Bajnovici","Banjevice","Banjeviće"],"lon":19.60684,"lat":43.46801,"pop":0},{"id":835049,"name":"Bajovica Lazovi","lon":21.1751,"lat":43.03595,"pop":0},{"id":793764,"name":"Bajovići","alt":["Bajevici","Bajevići","Bajovici"],"lon":20.28157,"lat":43.3808,"pop":0},{"id":3204615,"name":"Bajša","alt":["Bajsa"],"lon":19.58515,"lat":45.77989,"pop":0},{"id":3303333,"name":"Bakalovina","lon":19.77,"lat":43.50528,"pop":0},{"id":3342451,"name":"Bakalovina","lon":19.79333,"lat":43.38389,"pop":0},{"id":3274590,"name":"Bakići","alt":["Bakici"],"lon":19.61372,"lat":44.09716,"pop":0},{"id":792989,"name":"Bakionica","lon":20.04316,"lat":43.85829,"pop":0},{"id":834821,"name":"Bakovići","alt":["Bakovici"],"lon":20.20626,"lat":43.38041,"pop":0},{"id":3303144,"name":"Bakračlići","lon":19.785,"lat":43.88389,"pop":0},{"id":3216531,"name":"Balačka","alt":["Balacka"],"lon":19.87908,"lat":44.39016,"pop":0},{"id":792984,"name":"Balajinac","alt":["Balajnac"],"lon":21.7775,"lat":43.27444,"pop":0},{"id":792983,"name":"Balajnac","alt":["Balajinac"],"lon":21.3645,"lat":44.08996,"pop":0},{"id":792980,"name":"Balanovac","lon":22.16396,"lat":43.58534,"pop":0},{"id":792979,"name":"Balčak","alt":["Balcak"],"lon":21.57897,"lat":43.18357,"pop":60},{"id":862863,"name":"Balej Pivnica","alt":["Balejske Pivnice"],"lon":22.58722,"lat":44.16694,"pop":0},{"id":793775,"name":"Baletiće","alt":["Baletice"],"lon":20.43107,"lat":43.18595,"pop":0},{"id":792977,"name":"Baličevac","alt":["Balicevac"],"lon":21.68727,"lat":43.28847,"pop":0},{"id":3204583,"name":"Balići","alt":["Balice","Balici","Baliće"],"lon":19.68813,"lat":43.22765,"pop":0},{"id":792973,"name":"Balinac","alt":["Balinci"],"lon":22.39777,"lat":43.55956,"pop":0},{"id":792966,"name":"Balinovac","lon":21.60857,"lat":43.28613,"pop":0},{"id":792967,"name":"Balinovac","alt":["Gornje Balinovce"],"lon":21.91694,"lat":42.56707,"pop":0},{"id":792965,"name":"Balinovce","alt":["Donje Balinovce"],"lon":22.05485,"lat":42.73089,"pop":0},{"id":3204577,"name":"Balinović","alt":["Balinovic"],"lon":19.75812,"lat":44.26008,"pop":0},{"id":835683,"name":"Baljen","lon":20.04784,"lat":43.07527,"pop":0},{"id":835875,"name":"Baljen","lon":20.34109,"lat":43.12501,"pop":0},{"id":792964,"name":"Baljevac","lon":20.63534,"lat":43.39229,"pop":0},{"id":837121,"name":"Baljevac","lon":20.26901,"lat":44.56853,"pop":0},{"id":862842,"name":"Baljkovac","lon":20.91929,"lat":43.96454,"pop":0},{"id":862806,"name":"Balosave","lon":20.79194,"lat":43.86956,"pop":0},{"id":792960,"name":"Balta Berilovac","alt":["Balta Berilovica"],"lon":22.48397,"lat":43.39356,"pop":0},{"id":861736,"name":"Baltijance","lon":22.23434,"lat":42.70419,"pop":0},{"id":862709,"name":"Baluga Ljubićka","alt":["Baluga","Baluga Ljubicka"],"lon":20.41939,"lat":43.89072,"pop":0},{"id":862707,"name":"Baluga Trnavska","alt":["Baluga"],"lon":20.41415,"lat":43.86118,"pop":0},{"id":3303089,"name":"Bambaci","lon":19.56883,"lat":43.92747,"pop":0},{"id":792953,"name":"Banatska Dubica","alt":["Dubica","Kismargita","Klein Margit","Margitica","Margiticza"],"lon":20.82833,"lat":45.27146,"pop":566},{"id":792952,"name":"Banatska Palanka","alt":["Alt-Palanka","Haram","Neu-Palanka","O-Palanka","Palank","Palanka","Palánk","Uj-Palanka","Ó-Palánka","Új-Palánka"],"lon":21.33181,"lat":44.84533,"pop":0},{"id":792951,"name":"Banatska Subotica","lon":21.34506,"lat":44.98333,"pop":0},{"id":792950,"name":"Banatska Topola","alt":["Banatska Topla","Topolya","Toroktopolya","Töröktopolya"],"lon":20.4653,"lat":45.67248,"pop":1463},{"id":792949,"name":"Banatski Brestovac","alt":["Beresztoc","Beresztocz","Beresztovacz","Beresztovácz","Beresztóc","Beresztócz","Brestovac","Rustendorf"],"lon":20.80904,"lat":44.72736,"pop":0},{"id":792948,"name":"Banatski Despotovac","alt":["Ernesthausen","Erneszthaza","Ernesztháza","Ernohaza","Ernőháza"],"lon":20.66407,"lat":45.36606,"pop":1993},{"id":792947,"name":"Banatski Dušanovac","alt":["Banatski Dusanovac"],"lon":20.51704,"lat":45.52854,"pop":0},{"id":792946,"name":"Banatski Dvor","alt":["Banater Hof","Banatski Dusanovac","Banatski Dušanovac","Ittvarnok","Szollosudvarnok","Szolosudvarnok","Szőllősudvarnok","Szőlősudvarnok","Torzsudvarnok","Törzsudvarnok"],"lon":20.51146,"lat":45.51866,"pop":1374},{"id":792945,"name":"Banatski Karlovac","alt":["Banat Karlovac","Banatsko Rankovicevo","Banatsko Rankovićevo","Dragutinovo","Karlovo Selo","Karlsdorf","Karoljfalva","Karolyfalva","Károlyfalva","Nagykarolyfalva","Nagykárolyfalva","Novo Milosevo","Novo Miloševo","Rankovicevo","Rankovićevo"],"lon":21.018,"lat":45.04987,"pop":6319},{"id":792943,"name":"Banatski Monoštor","alt":["Banatski Manastir","Banatski Monostar","Banatski Monostor","Banatski Monoštar","Kanizsamonostor","Monostor","Torontalmonostor","Torontálmonostor"],"lon":20.27922,"lat":45.95827,"pop":202},{"id":792942,"name":"Banatski Sokolac","lon":21.08386,"lat":45.26513,"pop":458},{"id":792941,"name":"Banatsko Aranđelovo","alt":["Banat Arandjelovo","Banatsko Arandelovo","Oroslamos","Oroslamoš","Oroszlamos","Oroszlanos","Oroszlanosmonostora","Oroszlámos","Oroszlános","Oroszlánosmonostora","Veliko Arandzelovo","Veliko Arandželovo"],"lon":20.24243,"lat":46.06446,"pop":0},{"id":792940,"name":"Banatsko Karađorđevo","alt":["Banatsko Karadordevo","Karadjordjevo","Karadordevo","Karađorđevo","Magyar-Czerna","Magyar-Czernya","Magyarcsernye","Neu-Zerne","Ungarisch Crnja"],"lon":20.56421,"lat":45.58693,"pop":2855},{"id":792938,"name":"Banatsko Novo Selo","alt":["Banat Novo Selo","Banater Neudorf","Neudorf","Novo Selo","Novosello","Revaujfalu","Révaújfalu","Satu Nou","Ujfalu"],"lon":20.78362,"lat":44.98941,"pop":0},{"id":792937,"name":"Banatsko Veliko Selo","alt":["Charleville","Karolyliget","Károlyliget","Saint-Hubert","Sank Hubert","Sarlevil","Sarlevit","Soltur","Sveti Hubert","Szent-Huberth","Szentborbala","Szentborbála","Szenthubert","Veliko Selo","Šarlevil","Šarlevit"],"lon":20.60772,"lat":45.81961,"pop":3332},{"id":792935,"name":"Banatsko Višnjićevo","alt":["Banatsko Visnjicevo","Bonatsko Visnjicevo","Bonatsko Višnjićevo","Visnjicevo","Višnjićevo"],"lon":20.68083,"lat":45.44665,"pop":458},{"id":792934,"name":"Bancarevo","lon":22.11196,"lat":43.271,"pop":0},{"id":11886679,"name":"Bangladeš","lon":19.76549,"lat":45.27546,"pop":0},{"id":792930,"name":"Baničina","alt":["Banicina"],"lon":20.92962,"lat":44.29199,"pop":0},{"id":792925,"name":"Banja","lon":20.62141,"lat":44.27894,"pop":0},{"id":792926,"name":"Banja","alt":["Ilidze","Ilidže"],"lon":20.5452,"lat":43.15774,"pop":0},{"id":837481,"name":"Banja","lon":20.53637,"lat":43.65527,"pop":5},{"id":862714,"name":"Banja","lon":20.46639,"lat":43.89194,"pop":0},{"id":862744,"name":"Banja","lon":20.48631,"lat":43.95181,"pop":0},{"id":3204550,"name":"Banja","lon":19.558,"lat":43.54939,"pop":4},{"id":3238431,"name":"Banja","lon":19.47737,"lat":44.48392,"pop":0},{"id":3303265,"name":"Banja","lon":19.67626,"lat":43.85119,"pop":0},{"id":3204545,"name":"Banja Koviljača","alt":["Banja Koviljaca","Gornja Koviljaca","Gornja Koviljača","Koviljaca","Koviljača"],"lon":19.15278,"lat":44.51464,"pop":4},{"id":837445,"name":"Banjanci","lon":20.53583,"lat":43.63917,"pop":5},{"id":3204539,"name":"Banjani","alt":["Banajni","Banjane"],"lon":19.98033,"lat":44.53774,"pop":0},{"id":3204534,"name":"Banjevac","lon":19.38863,"lat":44.35277,"pop":0},{"id":3239194,"name":"Banjevac","lon":19.40288,"lat":44.3614,"pop":0},{"id":792914,"name":"Banjica","lon":20.469,"lat":44.75375,"pop":0},{"id":792915,"name":"Banjica","lon":20.37335,"lat":43.82103,"pop":0},{"id":3305425,"name":"Banjica","lon":19.64892,"lat":43.49782,"pop":0},{"id":834413,"name":"Banjska","lon":20.42,"lat":43.2925,"pop":0},{"id":792896,"name":"Banjski Dol","alt":["Banski Dol"],"lon":22.68056,"lat":42.99,"pop":0},{"id":792902,"name":"Bankovac","alt":["Beli Breg"],"lon":21.73444,"lat":43.43962,"pop":0},{"id":792901,"name":"Bankovci","alt":["Bankovce"],"lon":22.23922,"lat":42.85473,"pop":0},{"id":3216206,"name":"Bankovci","lon":19.91866,"lat":45.0816,"pop":0},{"id":3204525,"name":"Banoštor","alt":["Banmonostor","Banoschter","Banostar","Banostor","Banoštar","Bononia","Bánmonostor","Ko","Kõ"],"lon":19.61183,"lat":45.21259,"pop":0},{"id":3204517,"name":"Banovo Polje","lon":19.44916,"lat":44.9104,"pop":1732},{"id":792894,"name":"Bapsko Polje","lon":20.55763,"lat":43.78817,"pop":0},{"id":860351,"name":"Bara","lon":21.9555,"lat":42.54547,"pop":0},{"id":861104,"name":"Bara","lon":22.03806,"lat":42.42556,"pop":0},{"id":861112,"name":"Bara","lon":22.00743,"lat":42.42347,"pop":0},{"id":3216529,"name":"Bara","lon":19.95722,"lat":44.42278,"pop":0},{"id":3297843,"name":"Bara","lon":19.35844,"lat":43.57656,"pop":0},{"id":3305062,"name":"Bara","alt":["Bare"],"lon":19.59213,"lat":43.48687,"pop":0},{"id":3336912,"name":"Bara","lon":19.885,"lat":43.99944,"pop":0},{"id":792892,"name":"Barajevo","lon":20.41583,"lat":44.57889,"pop":0},{"id":847951,"name":"Barajevo","lon":20.45472,"lat":44.60889,"pop":0},{"id":835430,"name":"Barakovići","alt":["Barakovci","Barakovici"],"lon":20.48726,"lat":43.13184,"pop":0},{"id":837111,"name":"Baralići","lon":20.20444,"lat":43.76667,"pop":0},{"id":859241,"name":"Baraljevac","lon":21.89557,"lat":42.37963,"pop":0},{"id":792888,"name":"Baranda","lon":20.44264,"lat":45.08459,"pop":1656},{"id":3216816,"name":"Baranje","lon":19.19639,"lat":44.45444,"pop":0},{"id":861868,"name":"Baratarci","lon":22.36562,"lat":42.34638,"pop":0},{"id":861888,"name":"Baratarska Mahala","alt":["Bajraktarska Mahala"],"lon":22.37884,"lat":42.3445,"pop":0},{"id":3275322,"name":"Barati","alt":["Baratovici","Baratovići"],"lon":19.69153,"lat":44.1102,"pop":0},{"id":833191,"name":"Barbace","lon":21.95941,"lat":42.36932,"pop":0},{"id":792884,"name":"Barbarušince","alt":["Barbarusince"],"lon":21.99624,"lat":42.47399,"pop":0},{"id":792883,"name":"Barbatovac","lon":21.25889,"lat":43.22806,"pop":0},{"id":838477,"name":"Barđanski Kraj","lon":20.27139,"lat":44.63833,"pop":0},{"id":792870,"name":"Bare","lon":21.33059,"lat":44.6468,"pop":0},{"id":792871,"name":"Bare","lon":20.68698,"lat":44.04388,"pop":0},{"id":792872,"name":"Bare","lon":20.31065,"lat":43.97159,"pop":0},{"id":792873,"name":"Bare","lon":21.05653,"lat":43.82492,"pop":0},{"id":792874,"name":"Bare","lon":20.67065,"lat":43.44457,"pop":0},{"id":792876,"name":"Bare","lon":20.63754,"lat":43.07214,"pop":0},{"id":835909,"name":"Bare","lon":20.37722,"lat":43.02481,"pop":0},{"id":836515,"name":"Bare","lon":20.11641,"lat":43.56167,"pop":0},{"id":3204485,"name":"Bare","lon":19.75091,"lat":43.17416,"pop":0},{"id":3204486,"name":"Bare","lon":19.85191,"lat":43.12149,"pop":0},{"id":3274503,"name":"Bare","lon":19.53836,"lat":44.08417,"pop":0},{"id":3274908,"name":"Bare","lon":19.63275,"lat":44.052,"pop":0},{"id":3300588,"name":"Bare","lon":19.37073,"lat":43.84753,"pop":0},{"id":3303114,"name":"Bare","lon":19.55778,"lat":43.89806,"pop":0},{"id":3303218,"name":"Bare","lon":19.52489,"lat":43.54966,"pop":0},{"id":3304338,"name":"Bare","lon":19.68416,"lat":43.32279,"pop":0},{"id":3304539,"name":"Bare","alt":["Zabarije"],"lon":19.72648,"lat":43.32055,"pop":0},{"id":3305183,"name":"Bare","lon":19.40832,"lat":43.46536,"pop":0},{"id":3305374,"name":"Bare","lon":19.71275,"lat":43.35862,"pop":0},{"id":3305400,"name":"Bare","lon":19.65938,"lat":43.44943,"pop":0},{"id":3319047,"name":"Bare","lon":19.55955,"lat":43.74786,"pop":0},{"id":3342898,"name":"Bare","lon":19.45722,"lat":43.39528,"pop":0},{"id":3342904,"name":"Bare","lon":19.48917,"lat":43.47083,"pop":0},{"id":3342937,"name":"Bare","lon":19.39556,"lat":43.42694,"pop":0},{"id":792869,"name":"Barelić","alt":["Barelic"],"lon":22.05255,"lat":42.46328,"pop":0},{"id":3316872,"name":"Bareš","alt":["Bares"],"lon":19.76782,"lat":44.69218,"pop":0},{"id":792865,"name":"Barič","alt":["Baric"],"lon":21.55639,"lat":44.64833,"pop":0},{"id":792866,"name":"Barič","alt":["Baric"],"lon":20.25941,"lat":44.6507,"pop":5033},{"id":860594,"name":"Barica","lon":22.00894,"lat":42.52468,"pop":0},{"id":860925,"name":"Barica","lon":22.19806,"lat":42.47,"pop":0},{"id":792864,"name":"Barice","alt":["Borovice","Sankt Johan","Sveti Jovan","Szentjanos","Szentjános"],"lon":21.08279,"lat":45.18189,"pop":1044},{"id":837283,"name":"Barice","lon":20.52083,"lat":43.52333,"pop":5},{"id":3305152,"name":"Barice","lon":19.58109,"lat":43.40968,"pop":0},{"id":3304228,"name":"Barjaktarevići","alt":["Barjaktarevici"],"lon":19.77389,"lat":43.77028,"pop":0},{"id":792859,"name":"Barje","alt":["Borovo","Borovo Barje"],"lon":22.71881,"lat":42.94151,"pop":0},{"id":792860,"name":"Barje","lon":21.78575,"lat":42.83283,"pop":0},{"id":792861,"name":"Barje","alt":["Barija"],"lon":22.26206,"lat":42.54416,"pop":0},{"id":860683,"name":"Barje","lon":22.06585,"lat":42.51287,"pop":0},{"id":861200,"name":"Barje","lon":22.15504,"lat":42.39206,"pop":0},{"id":792858,"name":"Barje Čiflik","alt":["Bari Civlik","Bari Čivlik","Barje Ciflik","Barje Civlik","Barje Čivlik"],"lon":22.54221,"lat":43.13832,"pop":0},{"id":835340,"name":"Barkovo","lon":20.48028,"lat":43.04806,"pop":0},{"id":792857,"name":"Barlovo","lon":21.35339,"lat":43.18146,"pop":163},{"id":792856,"name":"Baroševac","alt":["Barosevac"],"lon":20.36889,"lat":44.39861,"pop":0},{"id":792852,"name":"Barzilovica","alt":["Barilovica"],"lon":20.30333,"lat":44.33167,"pop":0},{"id":792851,"name":"Bašaid","alt":["Basahid","Basahíd","Basaid","Basajid","Baschaid","Bazsahida","Bazsalhida","Bašahid","Bašajid","Bikac","Bikatsch","Bikač","Bosorhida","Kikinda","Kiskikinda","Klein-Kikinda","Mala Kikinda"],"lon":20.41434,"lat":45.64102,"pop":3864},{"id":792849,"name":"Basara","lon":22.67783,"lat":43.15757,"pop":0},{"id":3216985,"name":"Baščeluci","alt":["Basceluci","Bascoluci","Bašcoluci"],"lon":19.22741,"lat":44.51584,"pop":0},{"id":859394,"name":"Bašejci","lon":21.87542,"lat":42.36353,"pop":0},{"id":3279803,"name":"Bašići","lon":19.79333,"lat":44.00583,"pop":0},{"id":792842,"name":"Bašin","alt":["Basin"],"lon":20.85283,"lat":44.29631,"pop":0},{"id":3204427,"name":"Bastav","lon":19.52559,"lat":44.36397,"pop":0},{"id":3257117,"name":"Baštovanska Mala","alt":["Bastovanska Mala"],"lon":19.44361,"lat":44.52667,"pop":0},{"id":792838,"name":"Batajnica","alt":["Батајница"],"lon":20.28019,"lat":44.90319,"pop":3},{"id":3216859,"name":"Batalage","lon":19.86402,"lat":44.52266,"pop":0},{"id":3272778,"name":"Batar","lon":19.15729,"lat":44.44135,"pop":0},{"id":835757,"name":"Batina","lon":20.5425,"lat":43.49194,"pop":0},{"id":792836,"name":"Batinac","lon":21.43839,"lat":43.92174,"pop":0},{"id":835855,"name":"Batinići","alt":["Batinici"],"lon":20.34554,"lat":43.21438,"pop":0},{"id":3204403,"name":"Batkovići","alt":["Batkovici"],"lon":19.4,"lat":43.56667,"pop":0},{"id":3297895,"name":"Batkovići","alt":["Batkovici"],"lon":19.38814,"lat":43.55822,"pop":0},{"id":792831,"name":"Batnjik","lon":20.57497,"lat":43.21488,"pop":0},{"id":792830,"name":"Batočina","alt":["Batochina","Batocina","batwchyna","batwtshyna","Баточина","باتوتشينا","باتوچینا","ბატოჩინის მუნიციპალიტეტი"],"lon":21.08167,"lat":44.15361,"pop":0},{"id":838810,"name":"Batočina","lon":21.05344,"lat":44.15701,"pop":0},{"id":792828,"name":"Batote","lon":21.09236,"lat":43.29099,"pop":0},{"id":792827,"name":"Batovac","lon":21.06347,"lat":44.68086,"pop":0},{"id":792826,"name":"Batrage","alt":["Batrace","Batrače"],"lon":20.39442,"lat":42.93662,"pop":0},{"id":3204397,"name":"Batrovci","lon":19.13228,"lat":45.05275,"pop":0},{"id":792825,"name":"Batulovce","lon":22.07628,"lat":42.97427,"pop":0},{"id":792823,"name":"Batuša","alt":["Batusa"],"lon":21.31161,"lat":44.53162,"pop":0},{"id":792821,"name":"Batušinac","alt":["Batusinac","Batusnica","Batušnica"],"lon":21.82278,"lat":43.26111,"pop":0},{"id":836663,"name":"Baulovići","alt":["Baulovici"],"lon":20.10036,"lat":43.55337,"pop":0},{"id":3342044,"name":"Bavane","lon":19.72528,"lat":43.38111,"pop":0},{"id":792819,"name":"Bavanište","alt":["Balvanjestie","Balvanyesti","Bavaniste","Bawanischte","Homokbalvanyos","Homokbálványos"],"lon":20.87654,"lat":44.81907,"pop":0},{"id":834784,"name":"Bazovica","lon":22.21905,"lat":42.405,"pop":0},{"id":792817,"name":"Bazovik","lon":22.44748,"lat":43.30432,"pop":0},{"id":3276752,"name":"Bebići","alt":["Bebici"],"lon":19.69242,"lat":44.18876,"pop":0},{"id":792815,"name":"Becanj","lon":20.55764,"lat":43.8905,"pop":0},{"id":792814,"name":"Bečej","alt":["Alt-Betsche","Bece","Becej","Becejus","Bechej","Becse","Becsej","Beçe","Beĉej","Bečejus","Obecse","Stari Becej","Stari Bečej","bchy","bechei","bei qie yi","bychyy","bytshy","bzyy","Óbecse","Бечей","Бечеј","בציי","بيتشي","بچی","بیچیی","بێچێی","贝切伊","베체이"],"lon":20.03331,"lat":45.61632,"pop":25774},{"id":862756,"name":"Bečevica","alt":["Becevica"],"lon":20.63268,"lat":43.99399,"pop":0},{"id":3342217,"name":"Bećirovići","lon":19.73833,"lat":43.33917,"pop":0},{"id":3342456,"name":"Bećirovići","lon":19.74944,"lat":43.34222,"pop":0},{"id":3305041,"name":"Bećirovina","alt":["Becirovina"],"lon":19.34704,"lat":43.44533,"pop":0},{"id":792811,"name":"Bečmen","alt":["Becmen"],"lon":20.20577,"lat":44.77983,"pop":2494},{"id":835608,"name":"Bečvari","alt":["Becvari"],"lon":20.55728,"lat":43.38175,"pop":0},{"id":792810,"name":"Bedina Varoš","alt":["Bedina Varos"],"lon":20.22949,"lat":43.57268,"pop":0},{"id":792808,"name":"Begaljica","lon":20.695,"lat":44.63361,"pop":0},{"id":3204376,"name":"Begeč","alt":["Begec","Begecs"],"lon":19.62306,"lat":45.23667,"pop":0},{"id":3342634,"name":"Begova Luka","lon":19.28222,"lat":43.47972,"pop":0},{"id":861698,"name":"Begovi","alt":["Begovi Mahala"],"lon":22.29316,"lat":42.71085,"pop":0},{"id":3277201,"name":"Begovići","lon":19.70389,"lat":44.19611,"pop":0},{"id":837162,"name":"Beke","lon":20.25722,"lat":43.96333,"pop":0},{"id":859375,"name":"Bekrici","lon":21.85547,"lat":42.36734,"pop":0},{"id":792797,"name":"Bela","lon":22.7197,"lat":43.23223,"pop":0},{"id":792794,"name":"Bela Crkva","alt":["Bela curkva","Bela-Crkva","Biserica Alba","Biserica Albă","Feheregyhaz","Fehertemplom","Fehéregyház","Fehértemplom","Fejeregyhaz","Fejéregyház","Ungarisch Weisskirchen","Weisskirchen","Weißkirchen","bei la ci er ke wa","blh zrqwwh","byla chrkwa","byla tsrkfa","Бела Црква","Бела църква","Бела-Црква","בלה צרקווה","بيلا تسركفا","بیلا چرکوا","貝拉茨爾克瓦"],"lon":21.41722,"lat":44.8975,"pop":10675},{"id":3204349,"name":"Bela Crkva","lon":19.47957,"lat":44.39549,"pop":0},{"id":3255916,"name":"Bela Klada","lon":19.42026,"lat":44.71801,"pop":0},{"id":792784,"name":"Bela Palanka","alt":["Bela palanka","Bela-Palanka","bei la pa lan ka","byla balanka","byla planka","Бела Паланка","Бела паланка","Бела-Паланка","بيلا بالانكا","بیلا پلانکا","貝拉帕蘭卡"],"lon":22.31111,"lat":43.21833,"pop":0},{"id":3204343,"name":"Bela Reka","lon":19.48843,"lat":44.64788,"pop":0},{"id":792774,"name":"Bela Stena","lon":20.3243,"lat":43.42295,"pop":0},{"id":792775,"name":"Bela Stena","lon":20.61706,"lat":43.37789,"pop":0},{"id":792771,"name":"Bela Voda","lon":21.19932,"lat":43.61722,"pop":0},{"id":792772,"name":"Bela Voda","lon":21.54854,"lat":43.22131,"pop":252},{"id":862210,"name":"Bela Voda","lon":22.42143,"lat":42.52482,"pop":0},{"id":862251,"name":"Bela Voda","alt":["Bela Voda Mahala"],"lon":22.34304,"lat":42.51511,"pop":0},{"id":865941,"name":"Bela Zemlja","lon":20.52633,"lat":44.63508,"pop":0},{"id":3204339,"name":"Bela Zemlja","lon":19.7949,"lat":43.81155,"pop":0},{"id":792786,"name":"Belanovce","lon":21.84462,"lat":43.02144,"pop":0},{"id":792787,"name":"Belanovce","lon":21.95418,"lat":42.64733,"pop":0},{"id":792785,"name":"Belanovica","lon":20.39613,"lat":44.24947,"pop":0},{"id":835160,"name":"Belanska","lon":20.53033,"lat":43.03536,"pop":0},{"id":792777,"name":"Belasica","lon":21.49187,"lat":43.48653,"pop":0},{"id":853521,"name":"Belbradić","alt":["Belbradic"],"lon":22.40298,"lat":43.65406,"pop":0},{"id":834896,"name":"Belčevići","alt":["Belcevici"],"lon":20.34604,"lat":43.38166,"pop":0},{"id":792760,"name":"Bele Vode","lon":20.2541,"lat":43.23065,"pop":0},{"id":834995,"name":"Bele Vode","lon":20.28528,"lat":43.40611,"pop":0},{"id":845272,"name":"Bele Vode","lon":20.40694,"lat":44.75194,"pop":0},{"id":792764,"name":"Belegiš","alt":["Belegis"],"lon":20.33323,"lat":45.0192,"pop":2430},{"id":792680,"name":"Belgrade","alt":["BEG","Belehrad","Belgrad","Belgrada","Belgradas","Belgrado","Belgradu","Belgrau","Belgrað","Belgrád","Belgráu","Beligradi","Belogradum","Belohrod","Beograd","Beogradi","Beogrado","Bèlgrade","Bělehrad","Běłohród","Nandorfehervar","Nándorfehérvár","Singidunum","be-ogeuladeu","bei er ge lai de","belgradi","beogurado","blghrad","blgrd","pelkiret","Βελιγράδι","Белград","Београд","Бѣлъ Градъ · Срьбїи","Բելգրադ","בלגרד","بلغراد","بېلگراد","பெல்கிறேட்","ბელგრადი","በልግራድ","ベオグラード","贝尔格莱德","베오그라드"],"lon":20.46513,"lat":44.80401,"pop":1273651},{"id":792755,"name":"Beli Breg","lon":21.81803,"lat":43.4848,"pop":0},{"id":792756,"name":"Beli Breg","lon":21.81002,"lat":42.52537,"pop":0},{"id":3216064,"name":"Beli Gaj","alt":["Boli Gaj"],"lon":19.88444,"lat":44.01278,"pop":0},{"id":792737,"name":"Beli Kamen","lon":21.57068,"lat":43.14941,"pop":70},{"id":836367,"name":"Beli Kamen","lon":20.21916,"lat":43.68548,"pop":0},{"id":792732,"name":"Beli Potok","alt":["Bela Reka"],"lon":20.51768,"lat":44.70626,"pop":0},{"id":792733,"name":"Beli Potok","lon":21.84687,"lat":43.67033,"pop":0},{"id":792734,"name":"Beli Potok","lon":22.08327,"lat":43.53281,"pop":0},{"id":792735,"name":"Beli Potok","lon":21.91677,"lat":42.88661,"pop":0},{"id":835396,"name":"Beli Potok","lon":20.51583,"lat":43.48583,"pop":0},{"id":3204324,"name":"Belić","alt":["Belic"],"lon":19.8909,"lat":44.22556,"pop":0},{"id":792751,"name":"Belica","lon":21.12408,"lat":43.94442,"pop":0},{"id":3256064,"name":"Belića Šor","alt":["Belica Sor"],"lon":19.49027,"lat":44.695,"pop":0},{"id":792730,"name":"Beliševo","alt":["Belisevo"],"lon":21.94387,"lat":42.66231,"pop":0},{"id":792727,"name":"Beljajka","lon":21.44118,"lat":44.06007,"pop":0},{"id":835945,"name":"Beljak","lon":20.72455,"lat":43.25435,"pop":0},{"id":792721,"name":"Beljevac","lon":20.66456,"lat":44.35904,"pop":0},{"id":837144,"name":"Beljevina","lon":21.946,"lat":44.0908,"pop":0},{"id":3204315,"name":"Beljin","lon":19.96167,"lat":44.6271,"pop":0},{"id":792719,"name":"Beljina","lon":20.38829,"lat":44.51185,"pop":0},{"id":836243,"name":"Beljina","lon":20.29852,"lat":43.88532,"pop":0},{"id":865930,"name":"Beljina","lon":20.40596,"lat":44.51534,"pop":0},{"id":792718,"name":"Belo Blato","alt":["Elisenhain","Elisenheim","Erzsebetlak","Erzsébetlak","Nagyerzsebetlak","Nagyerzsébetlak"],"lon":20.375,"lat":45.27278,"pop":1746},{"id":792699,"name":"Belo Polje","lon":20.59012,"lat":44.01826,"pop":0},{"id":792700,"name":"Belo Polje","lon":20.52472,"lat":43.26806,"pop":0},{"id":792701,"name":"Belo Polje","lon":20.94058,"lat":43.23049,"pop":0},{"id":834643,"name":"Belo Polje","lon":21.31977,"lat":43.17327,"pop":225},{"id":837125,"name":"Belo Polje","lon":20.19607,"lat":44.64446,"pop":0},{"id":3204312,"name":"Belo Polje","lon":19.86799,"lat":44.26752,"pop":0},{"id":835759,"name":"Belobraće","alt":["Belobrace"],"lon":20.57583,"lat":43.45806,"pop":0},{"id":836980,"name":"Belobrđani","lon":20.83894,"lat":43.65215,"pop":5},{"id":792712,"name":"Belogoš","alt":["Belogos"],"lon":21.47237,"lat":43.29528,"pop":0},{"id":792710,"name":"Beloinje","lon":22.16513,"lat":43.39075,"pop":0},{"id":792706,"name":"Beloljin","alt":["Bellolin","Belonjin","Belotin"],"lon":21.39673,"lat":43.23846,"pop":769},{"id":792698,"name":"Belosavci","lon":20.67458,"lat":44.33154,"pop":0},{"id":862848,"name":"Beloševac","lon":20.92801,"lat":43.98496,"pop":0},{"id":3204310,"name":"Beloševac","alt":["Belosevac","Belosevic","Belošević"],"lon":19.94525,"lat":44.26387,"pop":0},{"id":3204307,"name":"Belotić","alt":["Belotic"],"lon":19.54801,"lat":44.81782,"pop":1801},{"id":3204308,"name":"Belotić","alt":["Belotic"],"lon":19.71932,"lat":44.58099,"pop":784},{"id":3204309,"name":"Belotić","alt":["Belotic"],"lon":19.52417,"lat":44.38167,"pop":0},{"id":792695,"name":"Belotinac","alt":["Belotince"],"lon":21.85252,"lat":43.26509,"pop":0},{"id":3238557,"name":"Belovodić","alt":["Belovodic"],"lon":19.4728,"lat":44.36334,"pop":0},{"id":792687,"name":"Belušić","alt":["Belusic"],"lon":21.1483,"lat":43.78287,"pop":0},{"id":792685,"name":"Belut","alt":["Belus","Beluš"],"lon":22.51667,"lat":42.48333,"pop":0},{"id":862712,"name":"Bent","lon":20.46694,"lat":43.88667,"pop":0},{"id":792682,"name":"Beoci","alt":["Beoce"],"lon":20.62352,"lat":43.33279,"pop":0},{"id":792681,"name":"Beočić","alt":["Beocic"],"lon":21.19711,"lat":43.84305,"pop":0},{"id":3204289,"name":"Beočin","alt":["Belcseny","Belcsény","Beochin","Beocin","Beocsin","Beotschin","Beoĉin","bei ao qin","bywchn","bywtshyn","Беочин","بيوتشين","بیوچن","貝奧欽"],"lon":19.72063,"lat":45.20829,"pop":0},{"id":3204286,"name":"Beomužević","alt":["Beomuzevic"],"lon":19.75588,"lat":44.30588,"pop":0},{"id":792675,"name":"Beranje","lon":21.34045,"lat":44.65933,"pop":0},{"id":3307148,"name":"Berava","lon":19.07327,"lat":45.38966,"pop":0},{"id":792674,"name":"Berbatovo","lon":21.94301,"lat":43.257,"pop":0},{"id":830757,"name":"Berčevac","alt":["Bercevac"],"lon":21.64771,"lat":42.38913,"pop":0},{"id":835596,"name":"Berčinac","alt":["Bercinac"],"lon":21.82149,"lat":43.40761,"pop":0},{"id":792672,"name":"Berčinovac","alt":["Bercinovac","Bercinovci","Berčinovci"],"lon":22.29864,"lat":43.58329,"pop":0},{"id":792671,"name":"Berduj","lon":22.37811,"lat":43.00189,"pop":0},{"id":792668,"name":"Berilje","lon":21.623,"lat":43.21359,"pop":0},{"id":792667,"name":"Berilovac","lon":22.61568,"lat":43.15847,"pop":0},{"id":792666,"name":"Berin Izvor","lon":22.545,"lat":42.93306,"pop":0},{"id":834543,"name":"Berišane","alt":["Berisane","Berisani","Berišani","Kovanluk"],"lon":21.54702,"lat":43.2424,"pop":0},{"id":834854,"name":"Berišići","alt":["Berisici"],"lon":20.26417,"lat":43.30333,"pop":0},{"id":3204272,"name":"Berkasovo","lon":19.25275,"lat":45.1459,"pop":0},{"id":792661,"name":"Berkovac","lon":20.14837,"lat":44.19401,"pop":0},{"id":3255317,"name":"Berlovci","lon":19.16063,"lat":44.50251,"pop":0},{"id":3239897,"name":"Berlovine","lon":19.41778,"lat":44.20407,"pop":0},{"id":792657,"name":"Berovica","lon":22.58424,"lat":43.03245,"pop":0},{"id":792654,"name":"Beršići","alt":["Bersici"],"lon":20.31304,"lat":44.0568,"pop":0},{"id":3214575,"name":"Bešenovački Prnjavor","alt":["Besenovacki Prnjavor"],"lon":19.70611,"lat":45.11306,"pop":0},{"id":3204264,"name":"Bešenovo","alt":["Besenovo","Besenyo","Besenyő","Beshenovo","Bessenovo"],"lon":19.70408,"lat":45.08364,"pop":0},{"id":3204262,"name":"Beserovina","alt":["Besarovina"],"lon":19.47065,"lat":43.95091,"pop":0},{"id":792651,"name":"Beška","alt":["Beschka","Beska","Besska"],"lon":20.06698,"lat":45.13092,"pop":6377},{"id":3303618,"name":"Bešlići","alt":["Beslici"],"lon":19.56306,"lat":43.84667,"pop":0},{"id":792648,"name":"Besni Fok","lon":20.40276,"lat":44.99762,"pop":0},{"id":834989,"name":"Besolica","lon":21.15655,"lat":43.08812,"pop":0},{"id":792645,"name":"Bežanija","alt":["Bezanija"],"lon":20.38572,"lat":44.80559,"pop":0},{"id":3204249,"name":"Bezdan","alt":["Besdan","Bezdam","Bezdán"],"lon":18.92402,"lat":45.84939,"pop":4},{"id":792641,"name":"Bežište","alt":["Beziste"],"lon":22.33483,"lat":43.12339,"pop":0},{"id":3306358,"name":"Biberovići","alt":["Biberovici"],"lon":19.86914,"lat":43.27228,"pop":0},{"id":838362,"name":"Bicani","lon":21.0675,"lat":43.53722,"pop":0},{"id":861033,"name":"Bigla","lon":22.09295,"lat":42.73175,"pop":0},{"id":861213,"name":"Biglar","lon":22.19343,"lat":42.35034,"pop":0},{"id":792629,"name":"Bigrenica","lon":21.46489,"lat":44.01847,"pop":0},{"id":837182,"name":"Bigrenica","lon":21.49527,"lat":44.01246,"pop":0},{"id":3275744,"name":"Bijela","lon":19.52667,"lat":44.14444,"pop":0},{"id":3342940,"name":"Bijela Voda","lon":19.3425,"lat":43.43917,"pop":0},{"id":3239966,"name":"Bijelina","lon":19.40332,"lat":44.41517,"pop":0},{"id":861049,"name":"Bijelo Polje","lon":22.15378,"lat":42.70231,"pop":0},{"id":792627,"name":"Bikač","alt":["Bikac","Bikacs","Bikatsch","Bikács","Gross-Bikatsch","Karacsonyfalva","Karácsonyfalva","Kisbikacs","Kisbikács","Nagybikacs","Nagybikács","Veliki Bikac","Veliki Bikač"],"lon":20.38975,"lat":45.64826,"pop":0},{"id":3318814,"name":"Bikić Do","alt":["Bikic Do"],"lon":19.29265,"lat":45.15425,"pop":0},{"id":792625,"name":"Bikinje","alt":["Bikinja"],"lon":21.56999,"lat":44.66346,"pop":0},{"id":3204169,"name":"Bikovo","lon":19.75975,"lat":46.02167,"pop":0},{"id":3318646,"name":"Bilegija","lon":19.87012,"lat":43.12831,"pop":0},{"id":3215838,"name":"Bilići","alt":["Bilic","Bilici","Bilić"],"lon":19.12223,"lat":45.84994,"pop":0},{"id":792623,"name":"Biljača","alt":["Bilace","Bilaçë","Biljaca","Biljace","Biljače"],"lon":21.74781,"lat":42.35518,"pop":2349},{"id":862292,"name":"Biljanica","lon":22.31142,"lat":42.63672,"pop":0},{"id":792620,"name":"Biljanovac","lon":20.66028,"lat":43.40827,"pop":0},{"id":835846,"name":"Biljanovac","lon":20.68972,"lat":43.43167,"pop":0},{"id":792618,"name":"Biljeg","lon":21.67716,"lat":43.32264,"pop":0},{"id":3318887,"name":"Biljega","lon":19.97472,"lat":43.71083,"pop":0},{"id":792611,"name":"Bilo","lon":22.7475,"lat":42.95611,"pop":0},{"id":835196,"name":"Bilo","lon":22.21528,"lat":42.99694,"pop":0},{"id":3204132,"name":"Bingula","alt":["Bingola"],"lon":19.44858,"lat":45.09951,"pop":0},{"id":792608,"name":"Biniće","alt":["Binice","Binici","Binići"],"lon":20.49083,"lat":43.37111,"pop":0},{"id":835719,"name":"Biniće","alt":["Binice"],"lon":20.4866,"lat":43.36186,"pop":0},{"id":792607,"name":"Binovac","lon":20.87056,"lat":44.57306,"pop":0},{"id":792606,"name":"Binovce","alt":["Binovci"],"lon":22.11063,"lat":42.6922,"pop":0},{"id":835021,"name":"Bioc","alt":["Bioce"],"lon":20.07929,"lat":43.11856,"pop":0},{"id":792605,"name":"Biočin","alt":["Biocin"],"lon":20.6412,"lat":43.22525,"pop":0},{"id":831664,"name":"Biohane","lon":20.33742,"lat":42.94092,"pop":0},{"id":3204113,"name":"Bioska","lon":19.66292,"lat":43.87183,"pop":0},{"id":3216442,"name":"Birčani","alt":["Bircani"],"lon":19.5953,"lat":44.32827,"pop":0},{"id":3276702,"name":"Birčani","alt":["Bircani"],"lon":19.68111,"lat":44.24611,"pop":0},{"id":836918,"name":"Biserske Kuće","alt":["Biserske Kuce"],"lon":20.84185,"lat":43.56322,"pop":5},{"id":835112,"name":"Bisini","lon":22.40861,"lat":42.8775,"pop":0},{"id":3204087,"name":"Biskupići","alt":["Biskupici"],"lon":19.78333,"lat":43.36583,"pop":0},{"id":792600,"name":"Biskuplje","lon":21.38612,"lat":44.73935,"pop":0},{"id":792599,"name":"Bistar","alt":["Bistr"],"lon":22.43944,"lat":42.37444,"pop":0},{"id":792585,"name":"Bistrica","lon":20.34099,"lat":44.37622,"pop":0},{"id":792586,"name":"Bistrica","lon":21.50102,"lat":44.33515,"pop":0},{"id":792589,"name":"Bistrica","alt":["Gorenja Bistrica"],"lon":22.23271,"lat":42.89638,"pop":0},{"id":792590,"name":"Bistrica","alt":["Gornja Bistrica","Gornje Bistrica"],"lon":22.07219,"lat":42.84145,"pop":0},{"id":3313127,"name":"Bistrica","alt":["Bistrica na Limu","Donja Bistrica"],"lon":19.65618,"lat":43.46919,"pop":0},{"id":3341970,"name":"Bistrica","lon":19.70941,"lat":43.46522,"pop":0},{"id":792573,"name":"Bitvrđa","alt":["Bitvrda","Bitvrde","Bitvrđe"],"lon":22.26916,"lat":42.69574,"pop":0},{"id":3305382,"name":"Bivolice","lon":19.734,"lat":43.35714,"pop":0},{"id":3342458,"name":"Bivolice","lon":19.73472,"lat":43.35694,"pop":0},{"id":861166,"name":"Bizaci","lon":22.04569,"lat":42.4719,"pop":0},{"id":3339534,"name":"Bječani","alt":["Bjecani"],"lon":19.74361,"lat":43.23833,"pop":0},{"id":3319102,"name":"Bjelaci","lon":19.86417,"lat":43.7625,"pop":0},{"id":3342282,"name":"Bjelaći","alt":["Bjelaci"],"lon":19.67278,"lat":43.2625,"pop":0},{"id":3318901,"name":"Bjelicići","lon":19.89111,"lat":43.69806,"pop":0},{"id":3279800,"name":"Bjelik","lon":19.77059,"lat":44.00794,"pop":0},{"id":3303950,"name":"Bjeliš","alt":["Bjelis"],"lon":19.72822,"lat":43.80017,"pop":0},{"id":3305371,"name":"Bjelobabe","alt":["Belobabe"],"lon":19.68203,"lat":43.35978,"pop":0},{"id":3306414,"name":"Bjelohova","alt":["Belahovo","Belohovo"],"lon":19.6724,"lat":43.23626,"pop":0},{"id":3203990,"name":"Bjeloperica","alt":["Beloperica","Bjeloperice"],"lon":19.96936,"lat":43.97655,"pop":0},{"id":3297584,"name":"Bjelošica","alt":["Bjelosica"],"lon":19.4415,"lat":43.53058,"pop":0},{"id":3203983,"name":"Bjelotići","alt":["Belotici","Belotići","Bjelotici"],"lon":19.94694,"lat":43.90028,"pop":0},{"id":792569,"name":"Bjeluša","alt":["Belusa","Beluša","Bjelusa"],"lon":20.01263,"lat":43.61482,"pop":0},{"id":3300436,"name":"Bjeluša","alt":["Bjelusa"],"lon":19.38341,"lat":43.89087,"pop":0},{"id":793781,"name":"Blaca","lon":20.37266,"lat":43.06115,"pop":0},{"id":792564,"name":"Blace","alt":["Bllace","Bllacë","blatsy","bu la cai","Блаце","بلاتسي","بلاچے","布拉采"],"lon":21.28583,"lat":43.29528,"pop":0},{"id":792558,"name":"Blagojev Kamen","lon":21.85639,"lat":44.4375,"pop":0},{"id":836524,"name":"Blagojevići","alt":["Blagojevici"],"lon":20.67806,"lat":44.2875,"pop":0},{"id":863381,"name":"Blagojevići","lon":21.52472,"lat":43.16972,"pop":0},{"id":3239728,"name":"Blagojevići","alt":["Blagojevici"],"lon":19.33028,"lat":44.43222,"pop":0},{"id":3275227,"name":"Blagojevići","alt":["Blagojevici"],"lon":19.70249,"lat":44.05431,"pop":0},{"id":3302899,"name":"Blagojevići","alt":["Blagojevici"],"lon":19.70642,"lat":43.94639,"pop":0},{"id":860595,"name":"Blagun","lon":22.02577,"lat":42.53478,"pop":0},{"id":792548,"name":"Blato","lon":22.49755,"lat":43.14751,"pop":0},{"id":3318641,"name":"Blato","lon":19.84505,"lat":43.16166,"pop":0},{"id":792545,"name":"Blaževo","alt":["Blazevo","Bllazheve","Bllazhevë"],"lon":20.9086,"lat":43.22887,"pop":0},{"id":836029,"name":"Blažići","alt":["Blazici"],"lon":20.93721,"lat":43.4307,"pop":0},{"id":792544,"name":"Blendija","lon":21.91861,"lat":43.65111,"pop":0},{"id":835358,"name":"Bliznaci","lon":22.37912,"lat":42.71398,"pop":0},{"id":861741,"name":"Bliznaci","lon":22.28045,"lat":42.70147,"pop":0},{"id":6942381,"name":"Bliznaci","lon":22.1944,"lat":42.55567,"pop":0},{"id":861615,"name":"Bliznačka Mahala","lon":22.47331,"lat":42.43778,"pop":0},{"id":792541,"name":"Bliznak","lon":21.54504,"lat":44.17889,"pop":0},{"id":3203903,"name":"Blizonje","lon":19.92295,"lat":44.36412,"pop":0},{"id":861155,"name":"Bobajaninci","lon":22.135,"lat":42.4375,"pop":0},{"id":862223,"name":"Bobarina Buka","lon":22.39403,"lat":42.51778,"pop":0},{"id":3276915,"name":"Bobići","lon":19.59111,"lat":44.24694,"pop":0},{"id":3216877,"name":"Bobija","lon":19.63821,"lat":44.52142,"pop":0},{"id":792537,"name":"Bobište","alt":["Bobiste"],"lon":21.9747,"lat":43.01354,"pop":0},{"id":792534,"name":"Bobote","lon":21.11622,"lat":43.4579,"pop":0},{"id":3203877,"name":"Bobova","alt":["Bobov"],"lon":19.71305,"lat":44.2556,"pop":0},{"id":3277712,"name":"Bobovac","lon":19.595,"lat":44.07222,"pop":0},{"id":835435,"name":"Bobovik","lon":20.42904,"lat":43.12102,"pop":0},{"id":3203873,"name":"Bobovik","lon":19.79784,"lat":44.62353,"pop":0},{"id":3319183,"name":"Bobovik","lon":19.79611,"lat":44.62361,"pop":0},{"id":792532,"name":"Bobovište","alt":["Boboviste"],"lon":21.64706,"lat":43.56235,"pop":0},{"id":792531,"name":"Bobovo","lon":21.27508,"lat":44.23697,"pop":0},{"id":792530,"name":"Bočar","alt":["Bocar","Bocsar","Bocsár","Botschar"],"lon":20.2839,"lat":45.76994,"pop":2095},{"id":792529,"name":"Boće","alt":["Boce"],"lon":20.7675,"lat":43.4325,"pop":0},{"id":792528,"name":"Boćevica","alt":["Boceva Mahala","Bocevica","Boćeva Mahala"],"lon":22.12111,"lat":42.87744,"pop":0},{"id":3203858,"name":"Bođani","alt":["Batschka Bodjani","Bodani","Bodgyan","Bodgyán","Bodjani","Bogyan","Bogyán"],"lon":19.10665,"lat":45.38958,"pop":0},{"id":3337439,"name":"Boduš Mala","alt":["Bodus Mala","Madenovska Mahala"],"lon":19.63194,"lat":44.39139,"pop":0},{"id":792525,"name":"Bogalinac","alt":["Bogaljinci"],"lon":21.033,"lat":43.82224,"pop":0},{"id":3215938,"name":"Bogaraš","alt":["Bogaras"],"lon":19.80506,"lat":45.77692,"pop":0},{"id":3220575,"name":"Bogaroš","alt":["Bogaras","Bogaraš","Bogaros"],"lon":19.9275,"lat":45.93444,"pop":0},{"id":3203840,"name":"Bogatić","alt":["Bocatic","Bocatić","Bogatic","bwgats","bwghatytsh","Богатић","بوغاتيتش","بوگاتس"],"lon":19.48056,"lat":44.8375,"pop":7225},{"id":3220596,"name":"Bogatić","alt":["Bogatic","Bogatici","Bogatići"],"lon":19.8506,"lat":44.20652,"pop":0},{"id":792524,"name":"Bogava","lon":21.32548,"lat":44.09509,"pop":0},{"id":792522,"name":"Bogdanica","lon":20.10783,"lat":44.0456,"pop":0},{"id":792521,"name":"Bogdanje","lon":21.02436,"lat":43.63791,"pop":0},{"id":861768,"name":"Bogdanova Mahala","lon":22.3156,"lat":42.66845,"pop":0},{"id":792519,"name":"Bogdanovac","lon":22.30475,"lat":43.06815,"pop":0},{"id":792520,"name":"Bogdanovac","alt":["Bogdanovach","Bogdanovce","Bogdanovci"],"lon":21.80316,"lat":42.41084,"pop":0},{"id":861056,"name":"Bogdanovci","lon":22.18097,"lat":42.70748,"pop":0},{"id":792517,"name":"Bogdanovica","lon":20.08194,"lat":44.475,"pop":0},{"id":837572,"name":"Bogdanovići","lon":20.00556,"lat":43.96222,"pop":0},{"id":3274801,"name":"Bogdanovići","alt":["Bogdanovici"],"lon":19.70831,"lat":44.0179,"pop":0},{"id":3303703,"name":"Bogdanovići","alt":["Bogdanovici"],"lon":19.5925,"lat":43.82222,"pop":0},{"id":3341958,"name":"Bogdanovići","lon":19.67472,"lat":43.48528,"pop":0},{"id":861096,"name":"Bogdanska Mahala","lon":22.06196,"lat":42.44511,"pop":0},{"id":792515,"name":"Bogdinac","lon":21.98446,"lat":43.6608,"pop":0},{"id":836335,"name":"Bogicevići","alt":["Bogicevici"],"lon":20.34444,"lat":43.73528,"pop":0},{"id":793749,"name":"Bogićevići","lon":20.13897,"lat":43.84479,"pop":0},{"id":834953,"name":"Bogičevići","alt":["Bogicevici"],"lon":20.37296,"lat":43.49627,"pop":0},{"id":792512,"name":"Bogiše","alt":["Bogise"],"lon":21.18528,"lat":43.37868,"pop":0},{"id":792497,"name":"Bogojevac","alt":["Bogujevac"],"lon":21.50222,"lat":43.04389,"pop":36},{"id":792511,"name":"Bogojevce","alt":["Bogojevac"],"lon":21.96239,"lat":43.05107,"pop":0},{"id":792510,"name":"Bogojevići","alt":["Bogojevici"],"lon":20.0872,"lat":43.71972,"pop":0},{"id":3203822,"name":"Bogojevo","alt":["Bogojeva","Gombos","Gombosh"],"lon":19.13022,"lat":45.53015,"pop":2312},{"id":3203817,"name":"Bogosavac","lon":19.59533,"lat":44.71799,"pop":1191},{"id":792507,"name":"Bogoševo","alt":["Bogosevce","Bogosevo","Bogoševce"],"lon":22.07615,"lat":42.61199,"pop":0},{"id":862225,"name":"Bogoslovtrad","lon":22.43625,"lat":42.50241,"pop":0},{"id":3203816,"name":"Bogoštica","alt":["Bogostica"],"lon":19.40427,"lat":44.32874,"pop":0},{"id":836941,"name":"Bogovađa","alt":["Bogovada"],"lon":20.20055,"lat":44.32753,"pop":0},{"id":792502,"name":"Bogovina","lon":21.94985,"lat":43.89296,"pop":0},{"id":836118,"name":"Bogućani","alt":["Bogucani"],"lon":20.10295,"lat":43.14694,"pop":0},{"id":792496,"name":"Bogujevac","lon":21.35934,"lat":43.16743,"pop":151},{"id":792495,"name":"Bogunovac","lon":21.51347,"lat":42.78108,"pop":0},{"id":834429,"name":"Boguti","lon":20.08186,"lat":43.27957,"pop":0},{"id":792494,"name":"Bogutovac","lon":20.54948,"lat":43.66635,"pop":0},{"id":3318943,"name":"Bogutovo","lon":19.9775,"lat":43.61083,"pop":0},{"id":859242,"name":"Bojadžici","alt":["Bojadici","Bojadzici","Bojađici"],"lon":21.87184,"lat":42.38609,"pop":0},{"id":792488,"name":"Bojanići","alt":["Bagasce","Bagase","Bagašce","Bagaše","Bojanici"],"lon":20.6461,"lat":43.4322,"pop":0},{"id":3257725,"name":"Bojčići","alt":["Bojcici"],"lon":19.49363,"lat":44.80107,"pop":0},{"id":3272515,"name":"Bojčići","alt":["Bojcici"],"lon":19.73995,"lat":44.35362,"pop":0},{"id":3203795,"name":"Bojić","alt":["Bojic"],"lon":19.63264,"lat":44.62576,"pop":461},{"id":3239964,"name":"Bojići","alt":["Bojici"],"lon":19.37848,"lat":44.41738,"pop":0},{"id":3256658,"name":"Bojići","alt":["Bojici"],"lon":19.23959,"lat":44.56123,"pop":0},{"id":792484,"name":"Bojin Del","lon":21.93096,"lat":42.60628,"pop":0},{"id":792486,"name":"Bojince","alt":["Bojinci"],"lon":21.56967,"lat":43.53079,"pop":0},{"id":861603,"name":"Bojinska Mahala","lon":22.44056,"lat":42.44833,"pop":0},{"id":792483,"name":"Bojišina","alt":["Bojisina","Bojsina","Bojšina","Bozidani","Božidani"],"lon":22.10237,"lat":42.88479,"pop":0},{"id":839520,"name":"Bojište","lon":21.55985,"lat":43.75871,"pop":0},{"id":861788,"name":"Bojkova Mahala","lon":22.23383,"lat":42.66972,"pop":0},{"id":792481,"name":"Bojnik","alt":["bwyynk","Бојник","بوئینک"],"lon":21.721,"lat":43.01224,"pop":0},{"id":860732,"name":"Bojnik","lon":21.91639,"lat":42.41611,"pop":0},{"id":834815,"name":"Bojovići","alt":["Bojovici"],"lon":20.19843,"lat":43.45185,"pop":0},{"id":862715,"name":"Bojovići","alt":["Blagojevici","Blagojevići","Bojovici"],"lon":20.45528,"lat":43.90801,"pop":0},{"id":862742,"name":"Bojovići","lon":20.4475,"lat":43.96194,"pop":0},{"id":3304326,"name":"Bojra","lon":19.6617,"lat":43.28372,"pop":0},{"id":792479,"name":"Boka","alt":["Boca","Bóka"],"lon":20.82987,"lat":45.3554,"pop":2246},{"id":836754,"name":"Bokare","lon":20.05389,"lat":43.67361,"pop":0},{"id":792477,"name":"Boleč","alt":["Bolec"],"lon":20.60637,"lat":44.72646,"pop":0},{"id":3305298,"name":"Boljani","lon":19.59517,"lat":43.32401,"pop":0},{"id":792474,"name":"Boljare","lon":22.16672,"lat":42.97344,"pop":0},{"id":3203754,"name":"Boljare","lon":19.98911,"lat":43.07211,"pop":0},{"id":3239936,"name":"Boljavina","lon":19.41148,"lat":44.23177,"pop":0},{"id":792473,"name":"Boljetin","lon":22.03026,"lat":44.52407,"pop":0},{"id":834810,"name":"Boljev Dol","lon":22.92202,"lat":43.11877,"pop":0},{"id":792470,"name":"Boljevac","alt":["Bolevac","Opstina Boljevac","Opština Boljevac","bo lie wa ci","bwlyyfats","bwlyywach","Болевац","Бољевац","بولييفاتس","بولیئواچ","博列瓦茨"],"lon":21.95306,"lat":43.83028,"pop":0},{"id":792471,"name":"Boljevac","lon":21.50679,"lat":43.4104,"pop":0},{"id":792467,"name":"Boljevci","lon":20.22348,"lat":44.72355,"pop":3990},{"id":837701,"name":"Boljkovac","lon":20.66444,"lat":43.74778,"pop":5},{"id":792465,"name":"Boljkovci","lon":20.34556,"lat":44.14355,"pop":0},{"id":862282,"name":"Bondžačka Mahala","alt":["Bondzacka Mahala","Bondzacka Mala","Bondžačka Mala"],"lon":22.27695,"lat":42.56813,"pop":0},{"id":835979,"name":"Bondžići","alt":["Bondzici"],"lon":20.86818,"lat":43.47978,"pop":0},{"id":792456,"name":"Bor","alt":["Boras","bo er","boleu","bori","boru","bwr","bwr  srbya","bwr  srbya","Μπορ","Бор","בור","بور","بور ،سربیا","بور، سربیا","بۆر، سربیا","ბორი","ボル","博尔","보르"],"lon":22.09591,"lat":44.07488,"pop":39387},{"id":862746,"name":"Borač","lon":20.60648,"lat":43.96018,"pop":0},{"id":792454,"name":"Boranci","alt":["Borance"],"lon":20.91664,"lat":43.19849,"pop":0},{"id":3303577,"name":"Boranja","alt":["Boranje"],"lon":19.54346,"lat":43.94742,"pop":0},{"id":792453,"name":"Borča","alt":["Alt-Borscha","Borca","Borcea","Borcha","Borcsa","Bortsa","Borĉa","Stara Borca","Stara Borča","bwrcha","bwrtsha","Μπόρτσα","Борча","بورتشا","بورچا","بۆرچا"],"lon":20.45413,"lat":44.86969,"pop":0},{"id":837166,"name":"Borčanska Mala","lon":20.9912,"lat":43.72341,"pop":5},{"id":861697,"name":"Borička Mahala","lon":22.35714,"lat":42.40398,"pop":0},{"id":793758,"name":"Borika","lon":20.49694,"lat":43.49556,"pop":0},{"id":835324,"name":"Borikovac","lon":20.55642,"lat":43.07328,"pop":0},{"id":3306701,"name":"Borikovac","lon":19.72789,"lat":43.17541,"pop":0},{"id":792447,"name":"Borin Dol","alt":["Borin Do"],"lon":22.21224,"lat":42.98665,"pop":0},{"id":792448,"name":"Borince","alt":["Borinci"],"lon":21.56737,"lat":42.97949,"pop":0},{"id":861718,"name":"Boris Novkov","alt":["Lokva Mahala"],"lon":22.47047,"lat":42.394,"pop":0},{"id":3203713,"name":"Borišiće","alt":["Borisice","Borisici","Borišići"],"lon":19.84386,"lat":43.10441,"pop":0},{"id":3317615,"name":"Borja","lon":19.91869,"lat":43.47832,"pop":0},{"id":3303148,"name":"Borjanice","lon":19.53591,"lat":43.58721,"pop":0},{"id":3216881,"name":"Borkovac","lon":19.61237,"lat":44.54977,"pop":0},{"id":835230,"name":"Borkovo","lon":20.43311,"lat":43.49353,"pop":0},{"id":792441,"name":"Boroštica","alt":["Borostica"],"lon":20.10573,"lat":43.06179,"pop":0},{"id":792436,"name":"Borovac","lon":22.29197,"lat":43.738,"pop":0},{"id":792437,"name":"Borovac","alt":["Borovci"],"lon":21.57829,"lat":42.77832,"pop":0},{"id":792438,"name":"Borovac","lon":21.74765,"lat":42.40701,"pop":0},{"id":861211,"name":"Borovac","lon":22.0775,"lat":42.43361,"pop":0},{"id":3216082,"name":"Borovac","lon":19.76472,"lat":44.05111,"pop":0},{"id":793793,"name":"Borovak","lon":20.615,"lat":43.37472,"pop":0},{"id":792433,"name":"Borovci","lon":20.54811,"lat":43.48308,"pop":0},{"id":861897,"name":"Borovec","lon":22.38216,"lat":42.36025,"pop":0},{"id":792430,"name":"Boroviće","alt":["Borovice","Borovici","Borovići"],"lon":20.50408,"lat":43.34002,"pop":0},{"id":793719,"name":"Boroviće","alt":["Borovice","Borovici","Borovići"],"lon":20.01209,"lat":43.40941,"pop":0},{"id":828793,"name":"Boroviće","alt":["Borovice"],"lon":20.01194,"lat":43.40917,"pop":0},{"id":835727,"name":"Boroviće","alt":["Borovice"],"lon":20.48008,"lat":43.33121,"pop":0},{"id":792428,"name":"Borovo","lon":20.73425,"lat":43.49365,"pop":0},{"id":835298,"name":"Borovski Dol","lon":22.28045,"lat":42.53307,"pop":0},{"id":861144,"name":"Bosačka Mahala","alt":["Bosacka Mahala","Pavlovci"],"lon":22.18412,"lat":42.44319,"pop":0},{"id":852691,"name":"Bosance","lon":21.51679,"lat":43.261,"pop":0},{"id":835415,"name":"Bosičane","alt":["Bosicane"],"lon":21.20043,"lat":43.42359,"pop":0},{"id":792421,"name":"Bosilegrad","alt":["Bosiljgrad","Bosilov-Grad","bo xi lai ge lei","boshiregurado","bosillegeuladeu","bwsylyghrad","bwsylygrad","Босилеград","بوسيليغراد","بوسیلیگراد","ボシレグラード","博西萊格勒","보실레그라드"],"lon":22.47238,"lat":42.5011,"pop":0},{"id":836902,"name":"Boskovici","lon":20.92722,"lat":43.50806,"pop":5},{"id":836421,"name":"Boskovići","alt":["Boskovici"],"lon":20.35306,"lat":43.59028,"pop":0},{"id":3306906,"name":"Boskoviči","alt":["Boskovici"],"lon":19.91569,"lat":43.21696,"pop":0},{"id":793739,"name":"Boškovići","alt":["Boskovici"],"lon":20.13877,"lat":43.46795,"pop":0},{"id":835098,"name":"Boškovići","alt":["Boskovici"],"lon":21.09811,"lat":43.26516,"pop":0},{"id":836150,"name":"Boškovići","alt":["Boskovici"],"lon":20.13556,"lat":43.88583,"pop":0},{"id":3216402,"name":"Boškovići","alt":["Boskovici"],"lon":19.78633,"lat":44.27136,"pop":0},{"id":3316876,"name":"Boškovići","alt":["Boskovici"],"lon":19.71736,"lat":44.69339,"pop":0},{"id":3342008,"name":"Boškovina","lon":19.64186,"lat":43.44165,"pop":0},{"id":792415,"name":"Bošnjace","alt":["Boshnjaci","Bosnjace","Bosnjaci","Bosnjak","Bošnjaci","Bošnjak"],"lon":21.82715,"lat":42.94635,"pop":0},{"id":846929,"name":"Bošnjaci","lon":20.18333,"lat":44.64333,"pop":0},{"id":850617,"name":"Bošnjaci","lon":20.56292,"lat":44.60988,"pop":0},{"id":3215383,"name":"Bošnjaci","alt":["Bosnjaci"],"lon":19.17871,"lat":45.74196,"pop":0},{"id":3306593,"name":"Bošnjaci","alt":["Bosnjaci"],"lon":19.97918,"lat":43.8984,"pop":0},{"id":3336984,"name":"Bošnjaci","alt":["Bosnjaci"],"lon":19.97694,"lat":43.92917,"pop":0},{"id":792414,"name":"Bošnjak","alt":["Bosnjak"],"lon":21.31173,"lat":44.37279,"pop":0},{"id":3297650,"name":"Bošnjak","alt":["Bosnjak"],"lon":19.34228,"lat":43.50073,"pop":0},{"id":792411,"name":"Bošnjane","alt":["Bosnjane"],"lon":20.97024,"lat":44.257,"pop":0},{"id":792412,"name":"Bošnjane","alt":["Bosnjane","Bosnjani","Bošnjani"],"lon":21.47615,"lat":43.88981,"pop":0},{"id":792413,"name":"Bošnjane","alt":["Bosnjane"],"lon":21.36557,"lat":43.66382,"pop":4},{"id":792410,"name":"Bošnjanović","alt":["Bosnjanovic","Bosnjanovici","Bošnjanovići"],"lon":20.20092,"lat":44.26236,"pop":0},{"id":859397,"name":"Bostajnci","alt":["Babastanici"],"lon":21.8845,"lat":42.35314,"pop":0},{"id":3203628,"name":"Bosut","lon":19.36086,"lat":44.92977,"pop":1311},{"id":792407,"name":"Bosuta","lon":20.46676,"lat":44.23011,"pop":0},{"id":793740,"name":"Botorsko Brdo","lon":20.14816,"lat":43.52154,"pop":0},{"id":792404,"name":"Botoš","alt":["Botos","Botosch","Botosh","Bottos","Bótos"],"lon":20.63514,"lat":45.30837,"pop":2569},{"id":792402,"name":"Botunja","lon":21.04401,"lat":43.42697,"pop":0},{"id":792401,"name":"Botunje","lon":21.01963,"lat":44.0635,"pop":0},{"id":836027,"name":"Boturići","alt":["Boturici"],"lon":20.97056,"lat":43.4575,"pop":0},{"id":792400,"name":"Boturovina","lon":20.48389,"lat":43.17889,"pop":0},{"id":792397,"name":"Bovan","lon":21.71934,"lat":43.63464,"pop":0},{"id":792398,"name":"Bovan","lon":21.41816,"lat":43.54198,"pop":0},{"id":850632,"name":"Božanići","lon":20.60417,"lat":44.5875,"pop":0},{"id":792395,"name":"Boždarevac","alt":["Bozdarevac","Bozidarevac","Božidarevac"],"lon":20.40044,"lat":44.5645,"pop":0},{"id":865985,"name":"Boždarevac","lon":20.38099,"lat":44.55966,"pop":0},{"id":3203607,"name":"Božetići","alt":["Bozesici","Bozetici","Božešići"],"lon":19.97218,"lat":43.44841,"pop":0},{"id":792394,"name":"Boževac","alt":["Bolzevac","Bolževac","Bozevac"],"lon":21.39428,"lat":44.54182,"pop":0},{"id":792392,"name":"Božica","alt":["Bozica"],"lon":22.40352,"lat":42.61512,"pop":0},{"id":3337456,"name":"Božica Mala","lon":19.7762,"lat":44.50881,"pop":0},{"id":3239755,"name":"Božića Mala","alt":["Bozica Mala"],"lon":19.44717,"lat":44.46533,"pop":0},{"id":835675,"name":"Božići","alt":["Bozici"],"lon":20.50535,"lat":43.45161,"pop":0},{"id":3274694,"name":"Božići","alt":["Bozici"],"lon":19.6614,"lat":44.0223,"pop":0},{"id":861737,"name":"Božilovi","lon":22.26072,"lat":42.70181,"pop":0},{"id":792389,"name":"Božinjevac","alt":["Bozenjevac","Bozinjevac","Boženjevac"],"lon":21.75979,"lat":42.43259,"pop":0},{"id":792388,"name":"Božinovac","alt":["Bozinovac"],"lon":22.04906,"lat":43.53384,"pop":0},{"id":792387,"name":"Bozoljin","lon":20.88065,"lat":43.24824,"pop":0},{"id":3306361,"name":"Božov Potok","alt":["Bozov Potok"],"lon":19.85689,"lat":43.28451,"pop":0},{"id":835164,"name":"Božovići","alt":["Bozovici"],"lon":20.4366,"lat":43.43968,"pop":0},{"id":862737,"name":"Božovići","lon":20.44028,"lat":43.92806,"pop":0},{"id":862763,"name":"Božovići","lon":20.43194,"lat":43.97056,"pop":0},{"id":3336944,"name":"Božovići","alt":["Bozovici"],"lon":19.95528,"lat":43.96556,"pop":0},{"id":792384,"name":"Božurevac","alt":["Bozurevac"],"lon":21.0456,"lat":43.71646,"pop":0},{"id":792383,"name":"Božurnja","alt":["Bozurnja"],"lon":20.69703,"lat":44.23229,"pop":0},{"id":792380,"name":"Braćak","alt":["Bracak"],"lon":20.16152,"lat":43.09008,"pop":0},{"id":792378,"name":"Braćevac","alt":["Bracevac"],"lon":22.50405,"lat":44.0697,"pop":0},{"id":851088,"name":"Bračin","alt":["Bracin"],"lon":21.51,"lat":43.74694,"pop":0},{"id":846880,"name":"Brađanski Kraj","lon":20.07519,"lat":44.59936,"pop":0},{"id":792376,"name":"Bradarac","lon":21.22818,"lat":44.69002,"pop":0},{"id":792377,"name":"Bradarac","alt":["Bradarci"],"lon":21.64641,"lat":43.61765,"pop":0},{"id":3203588,"name":"Bradić","alt":["Bradic"],"lon":19.33907,"lat":44.54983,"pop":0},{"id":792367,"name":"Brainovac","alt":["Brajinovac"],"lon":21.12959,"lat":43.77884,"pop":0},{"id":3305354,"name":"Brajanovići","alt":["Brajanovici","Brajenovic","Brajenović"],"lon":19.65449,"lat":43.32154,"pop":0},{"id":792371,"name":"Brajići","alt":["Brajici"],"lon":20.19786,"lat":44.0927,"pop":0},{"id":3216437,"name":"Brajići","alt":["Brajici"],"lon":19.53941,"lat":44.28438,"pop":0},{"id":792365,"name":"Brajkovac","lon":20.34207,"lat":44.30277,"pop":0},{"id":792366,"name":"Brajkovac","lon":21.19733,"lat":43.64074,"pop":0},{"id":3303894,"name":"Brajkovac","lon":19.59333,"lat":43.24833,"pop":0},{"id":3203578,"name":"Brajkovići","alt":["Brajkovici"],"lon":19.91194,"lat":44.0275,"pop":0},{"id":3342010,"name":"Brajsalica","lon":19.62944,"lat":43.43528,"pop":0},{"id":833013,"name":"Brajšor","alt":["Brajsor"],"lon":21.49858,"lat":42.92598,"pop":0},{"id":792361,"name":"Braljina","lon":21.48151,"lat":43.66355,"pop":0},{"id":792362,"name":"Braljina","lon":21.46664,"lat":43.65384,"pop":0},{"id":792360,"name":"Brančić","alt":["Brancic","Brancici","Brančići"],"lon":20.27303,"lat":44.21435,"pop":0},{"id":3297766,"name":"Brančići","alt":["Brancici"],"lon":19.24985,"lat":43.50396,"pop":0},{"id":3304640,"name":"Brančići","alt":["Brancici"],"lon":19.71169,"lat":43.33634,"pop":0},{"id":3304495,"name":"Branešca","alt":["Branesca"],"lon":19.70585,"lat":43.80678,"pop":0},{"id":3203570,"name":"Branešci","alt":["Branesci"],"lon":19.70214,"lat":43.77097,"pop":0},{"id":3203566,"name":"Brangović","alt":["Brangovic","Brangovici","Brangovići"],"lon":19.86944,"lat":44.2175,"pop":0},{"id":792359,"name":"Braničevo","alt":["Branicevo"],"lon":21.53833,"lat":44.705,"pop":0},{"id":836060,"name":"Braniševo","alt":["Branisevo"],"lon":20.36736,"lat":43.08754,"pop":0},{"id":3216670,"name":"Branjevac","alt":["Branovac"],"lon":19.33748,"lat":44.38638,"pop":0},{"id":861719,"name":"Branjovica","alt":["Branjevica Mahala"],"lon":22.44615,"lat":42.40435,"pop":0},{"id":792356,"name":"Brankovci","lon":22.48809,"lat":42.41219,"pop":0},{"id":3203554,"name":"Brankovina","lon":19.89839,"lat":44.34662,"pop":0},{"id":3305816,"name":"Branoševac","alt":["Branosevac","Brenesevac","Breneševac"],"lon":19.82964,"lat":43.46106,"pop":0},{"id":3342024,"name":"Brašansko Brdo","lon":19.53694,"lat":43.40528,"pop":0},{"id":3203551,"name":"Brasina","lon":19.15673,"lat":44.4652,"pop":0},{"id":3216817,"name":"Brasma","lon":19.17306,"lat":44.44444,"pop":0},{"id":839178,"name":"Braštčska Mala","lon":21.08861,"lat":43.74389,"pop":0},{"id":3274891,"name":"Bratičevići","alt":["Braticevici"],"lon":19.68667,"lat":44.03417,"pop":0},{"id":792354,"name":"Bratići","alt":["Bratici"],"lon":21.05836,"lat":43.50237,"pop":0},{"id":792352,"name":"Bratinac","lon":21.25321,"lat":44.64226,"pop":0},{"id":792350,"name":"Bratiševac","alt":["Bratisevac","Bratiste","Bratište"],"lon":22.36956,"lat":43.10259,"pop":0},{"id":792347,"name":"Bratljevo","alt":["Male Bratljevo"],"lon":20.19429,"lat":43.46561,"pop":0},{"id":836679,"name":"Bratljevo","lon":20.16477,"lat":43.50161,"pop":0},{"id":792346,"name":"Bratmilovce","lon":21.98582,"lat":43.00292,"pop":0},{"id":859319,"name":"Bratoselce","lon":21.74751,"lat":42.34191,"pop":0},{"id":838107,"name":"Bratujevačke Pionice","lon":22.51444,"lat":44.20194,"pop":5},{"id":836688,"name":"Bratuljevići","alt":["Bratuljevici"],"lon":20.14528,"lat":43.50444,"pop":0},{"id":3216572,"name":"Brazda","lon":19.74861,"lat":44.37528,"pop":0},{"id":3215155,"name":"Brazilija","lon":19.80889,"lat":45.74361,"pop":0},{"id":3216750,"name":"Brda","lon":19.6723,"lat":44.48925,"pop":0},{"id":835204,"name":"Brdanći","alt":["Brdanci"],"lon":21.09689,"lat":43.36285,"pop":0},{"id":792338,"name":"Brđani","alt":["Brdani","Brgjani"],"lon":20.38703,"lat":43.95743,"pop":0},{"id":792339,"name":"Brđani","alt":["Brdani"],"lon":21.05331,"lat":43.34886,"pop":0},{"id":792340,"name":"Brđani","alt":["Bragjan","Brdane","Brdani","Brđane"],"lon":20.60722,"lat":43.08861,"pop":0},{"id":836392,"name":"Brđani","alt":["Brdani"],"lon":20.16056,"lat":43.65389,"pop":0},{"id":837033,"name":"Brđani","lon":20.5082,"lat":44.61736,"pop":0},{"id":850376,"name":"Brđani","lon":20.54472,"lat":44.70278,"pop":0},{"id":850534,"name":"Brđani","lon":20.68194,"lat":44.63139,"pop":0},{"id":850763,"name":"Brđani","lon":20.515,"lat":44.56639,"pop":0},{"id":3216502,"name":"Brđani","alt":["Brdani"],"lon":19.20732,"lat":44.31206,"pop":0},{"id":3216738,"name":"Brđani","alt":["Brdani"],"lon":19.77722,"lat":44.4574,"pop":0},{"id":3216889,"name":"Brđani","alt":["Brdani"],"lon":19.6236,"lat":44.57126,"pop":0},{"id":3239938,"name":"Brđani","alt":["Brdani"],"lon":19.39345,"lat":44.21799,"pop":0},{"id":3271971,"name":"Brđani","alt":["Brdani"],"lon":19.15506,"lat":44.33344,"pop":0},{"id":3303429,"name":"Brđani","alt":["Brdani"],"lon":19.95421,"lat":43.73461,"pop":0},{"id":3303794,"name":"Brđani","alt":["Brdane","Brdani","Brđane"],"lon":19.90862,"lat":43.53352,"pop":0},{"id":3256880,"name":"Brđanska Mala","alt":["Brdanska Mala"],"lon":19.41032,"lat":44.58924,"pop":0},{"id":3203497,"name":"Brdarica","alt":["Brdarice"],"lon":19.7715,"lat":44.55376,"pop":1690},{"id":3303539,"name":"Brdo","alt":["Bojovici","Bojovići"],"lon":19.90301,"lat":43.67559,"pop":0},{"id":3305817,"name":"Brdo","lon":19.82203,"lat":43.47323,"pop":0},{"id":3318698,"name":"Brdo","lon":19.82389,"lat":43.45,"pop":0},{"id":3319075,"name":"Brdo","lon":19.81194,"lat":43.82861,"pop":0},{"id":3341979,"name":"Brdo","lon":19.59417,"lat":43.46056,"pop":0},{"id":3342212,"name":"Brdo","lon":19.63444,"lat":43.34472,"pop":0},{"id":792335,"name":"Brebevnica","lon":22.89192,"lat":43.04855,"pop":0},{"id":834956,"name":"Breg","lon":21.23535,"lat":43.16421,"pop":0},{"id":3305081,"name":"Breg","lon":19.62222,"lat":43.45472,"pop":0},{"id":792332,"name":"Bregovina","lon":21.56824,"lat":43.0817,"pop":154},{"id":792331,"name":"Brejanovce","lon":21.93773,"lat":43.10204,"pop":0},{"id":792329,"name":"Brekovo","lon":20.0115,"lat":43.64529,"pop":0},{"id":792327,"name":"Brenica","lon":21.92902,"lat":43.3827,"pop":0},{"id":792324,"name":"Bresje","lon":21.22139,"lat":44.13861,"pop":0},{"id":837025,"name":"Bresje","lon":21.02111,"lat":44.33222,"pop":0},{"id":838327,"name":"Bresje","lon":21.25735,"lat":43.93181,"pop":0},{"id":846806,"name":"Breska","lon":20.15889,"lat":44.67472,"pop":0},{"id":792322,"name":"Bresnica","lon":21.95861,"lat":42.5742,"pop":0},{"id":792323,"name":"Bresnica","lon":22.46097,"lat":42.44077,"pop":0},{"id":862704,"name":"Bresnica","lon":20.59005,"lat":43.87448,"pop":0},{"id":3203452,"name":"Bresnica","lon":19.77783,"lat":44.4439,"pop":0},{"id":792321,"name":"Bresničić","alt":["Bresnicic","Bresnicici","Bresničići"],"lon":21.44501,"lat":43.25057,"pop":0},{"id":792318,"name":"Bresnik","lon":20.54144,"lat":43.56938,"pop":0},{"id":792319,"name":"Bresnik","lon":21.42287,"lat":43.15599,"pop":56},{"id":792317,"name":"Bresno Polje","lon":21.17098,"lat":43.57899,"pop":0},{"id":792313,"name":"Brest","lon":21.72972,"lat":43.27944,"pop":0},{"id":3203447,"name":"Brestač","alt":["Brestac"],"lon":19.90447,"lat":44.86077,"pop":0},{"id":792305,"name":"Brestov Dol","lon":22.30772,"lat":43.04127,"pop":0},{"id":792307,"name":"Brestovac","lon":22.40538,"lat":44.1836,"pop":0},{"id":792308,"name":"Brestovac","lon":22.09213,"lat":44.03924,"pop":0},{"id":792309,"name":"Brestovac","lon":21.87772,"lat":43.15319,"pop":0},{"id":792310,"name":"Brestovac","lon":21.63501,"lat":43.04003,"pop":0},{"id":793734,"name":"Brestovac","lon":20.19347,"lat":43.35948,"pop":0},{"id":860329,"name":"Brestovac","lon":21.93255,"lat":42.50653,"pop":0},{"id":862757,"name":"Brestovac","lon":20.61893,"lat":44.00216,"pop":0},{"id":850824,"name":"Brestovi","lon":20.64439,"lat":44.57052,"pop":0},{"id":792302,"name":"Brestovik","lon":20.76402,"lat":44.64485,"pop":0},{"id":792300,"name":"Brestovo","lon":21.32726,"lat":44.11757,"pop":0},{"id":792301,"name":"Brestovo","lon":21.98602,"lat":42.70966,"pop":0},{"id":835078,"name":"Breza","lon":20.04327,"lat":43.24482,"pop":0},{"id":861028,"name":"Breza","lon":22.00121,"lat":42.74226,"pop":0},{"id":3304198,"name":"Brezak","lon":19.72778,"lat":43.78639,"pop":0},{"id":792297,"name":"Brežane","alt":["Brezane"],"lon":21.07792,"lat":44.65516,"pop":0},{"id":834495,"name":"Brežani","alt":["Brezani"],"lon":21.34287,"lat":43.32662,"pop":0},{"id":835393,"name":"Brežde","alt":["Brezde","Brezovica"],"lon":20.54345,"lat":43.09159,"pop":0},{"id":792293,"name":"Brežđe","alt":["Brezde","Brijezde","Briježđe"],"lon":20.06063,"lat":44.17255,"pop":0},{"id":828791,"name":"Brežđe","alt":["Brezde"],"lon":20.00361,"lat":43.37667,"pop":0},{"id":3203398,"name":"Brezjak","lon":19.34133,"lat":44.50968,"pop":0},{"id":792288,"name":"Brezna","lon":20.28093,"lat":44.05184,"pop":0},{"id":792289,"name":"Brezna","lon":20.67967,"lat":43.566,"pop":0},{"id":3203380,"name":"Brezna","lon":19.67263,"lat":43.5563,"pop":0},{"id":792284,"name":"Breznica","lon":21.57086,"lat":44.27663,"pop":0},{"id":792286,"name":"Breznica","lon":21.71576,"lat":42.53714,"pop":0},{"id":3342630,"name":"Brezov Breg","lon":19.23611,"lat":43.49139,"pop":0},{"id":792280,"name":"Brezova","lon":20.05946,"lat":43.54007,"pop":0},{"id":792281,"name":"Brezova","lon":20.50409,"lat":43.49138,"pop":0},{"id":838045,"name":"Brezova","lon":20.48806,"lat":43.51417,"pop":5},{"id":792279,"name":"Brezovac","lon":20.58628,"lat":44.25293,"pop":0},{"id":3302862,"name":"Brezovac","lon":19.52958,"lat":43.68293,"pop":0},{"id":859443,"name":"Brezovčani","lon":21.74854,"lat":42.31161,"pop":0},{"id":834795,"name":"Brezovec","lon":22.41737,"lat":42.42647,"pop":0},{"id":792275,"name":"Brezovica","lon":20.41436,"lat":43.74669,"pop":1000},{"id":792276,"name":"Brezovica","lon":20.97071,"lat":43.56608,"pop":0},{"id":792277,"name":"Brezovica","lon":22.17869,"lat":42.95229,"pop":1000},{"id":834419,"name":"Brezovica","lon":20.40417,"lat":43.26889,"pop":0},{"id":837093,"name":"Brezovica","lon":21.57407,"lat":44.47625,"pop":0},{"id":3203347,"name":"Brezovica","lon":19.96503,"lat":44.48984,"pop":0},{"id":3203335,"name":"Brezovice","alt":["Brezovica"],"lon":19.44955,"lat":44.45719,"pop":0},{"id":3203336,"name":"Brezovice","alt":["Brezovica"],"lon":19.76986,"lat":44.18254,"pop":0},{"id":792272,"name":"Brgule","lon":20.17487,"lat":44.52343,"pop":0},{"id":846977,"name":"Brgulice","lon":20.11636,"lat":44.66421,"pop":0},{"id":792271,"name":"Bričevlje","alt":["Bricevje","Bricevlje","Bričevje"],"lon":22.12978,"lat":42.82014,"pop":0},{"id":861681,"name":"Bričko","lon":22.29444,"lat":42.40639,"pop":0},{"id":859122,"name":"Brisić","lon":21.6938,"lat":42.4601,"pop":0},{"id":3297664,"name":"Brižići","alt":["Brizici"],"lon":19.36167,"lat":43.51778,"pop":0},{"id":3303816,"name":"Brkat","lon":19.51833,"lat":43.47722,"pop":0},{"id":3256741,"name":"Brkići","alt":["Brkici"],"lon":19.30186,"lat":44.55821,"pop":0},{"id":3319024,"name":"Brkovići","lon":19.83833,"lat":43.53833,"pop":0},{"id":792269,"name":"Brlog","lon":22.80728,"lat":43.20184,"pop":0},{"id":3216298,"name":"Brlog","lon":19.77139,"lat":44.18,"pop":0},{"id":3203261,"name":"Brnjac","lon":19.36785,"lat":44.5483,"pop":0},{"id":792263,"name":"Brnjare","lon":21.9128,"lat":42.3954,"pop":0},{"id":3305065,"name":"Brnjaš","alt":["Brnas","Brnaš","Brnjas"],"lon":19.60144,"lat":43.47122,"pop":0},{"id":792261,"name":"Brnjica","lon":21.76869,"lat":44.65236,"pop":0},{"id":792262,"name":"Brnjica","lon":20.19125,"lat":43.28262,"pop":0},{"id":862105,"name":"Bročare Mahala","lon":22.40025,"lat":42.58322,"pop":0},{"id":792254,"name":"Brod","lon":22.28889,"lat":42.85334,"pop":0},{"id":3203238,"name":"Brodarevo","lon":19.71958,"lat":43.22897,"pop":0},{"id":792248,"name":"Brodica","lon":21.82001,"lat":44.48987,"pop":0},{"id":835523,"name":"Brojači","alt":["Brojaci"],"lon":20.56083,"lat":43.28889,"pop":0},{"id":835723,"name":"Bronjska Mahala","lon":20.16778,"lat":43.22417,"pop":0},{"id":837096,"name":"Brović","alt":["Brovic"],"lon":20.13598,"lat":44.53435,"pop":0},{"id":3203208,"name":"Brštica","alt":["Brstica"],"lon":19.33492,"lat":44.39496,"pop":0},{"id":792241,"name":"Brus","alt":["Bras","ba lu si","brws","Брус","بروس","巴魯斯"],"lon":21.02888,"lat":43.3846,"pop":0},{"id":792238,"name":"Brusnica","lon":20.44048,"lat":44.01281,"pop":0},{"id":792231,"name":"Brusnik","lon":22.44812,"lat":44.10675,"pop":0},{"id":792232,"name":"Brusnik","lon":20.35157,"lat":43.36388,"pop":0},{"id":792222,"name":"Brvenik","lon":20.64615,"lat":43.35444,"pop":0},{"id":792223,"name":"Brvenik","lon":21.42673,"lat":42.81186,"pop":0},{"id":3203181,"name":"Brvine","lon":19.67562,"lat":43.21419,"pop":0},{"id":792221,"name":"Brza","lon":21.88724,"lat":42.85808,"pop":0},{"id":792217,"name":"Brza Palanka","lon":22.44682,"lat":44.47089,"pop":0},{"id":862230,"name":"Brzaci","lon":22.32416,"lat":42.53278,"pop":0},{"id":792219,"name":"Brzan","lon":21.11508,"lat":44.12398,"pop":0},{"id":792215,"name":"Brzeće","alt":["Brzece"],"lon":20.88498,"lat":43.30172,"pop":0},{"id":792214,"name":"Brzi Brod","lon":21.96686,"lat":43.31068,"pop":0},{"id":862100,"name":"Brzina Mahala","lon":22.43563,"lat":42.60345,"pop":0},{"id":792213,"name":"Brzohode","lon":21.27707,"lat":44.36668,"pop":0},{"id":3203175,"name":"Buar","lon":19.8145,"lat":43.88361,"pop":0},{"id":835060,"name":"Buban","lon":20.42833,"lat":43.39722,"pop":0},{"id":792211,"name":"Bubanj","lon":21.83815,"lat":43.29616,"pop":0},{"id":834732,"name":"Bubanj","lon":21.4497,"lat":43.05306,"pop":0},{"id":850346,"name":"Bubanj Potok","lon":20.54333,"lat":44.73444,"pop":0},{"id":3318590,"name":"Bubanje","lon":19.9175,"lat":43.215,"pop":0},{"id":3298188,"name":"Bubetići","alt":["Bubetici"],"lon":19.27323,"lat":43.57894,"pop":0},{"id":862252,"name":"Bubevci","lon":22.34434,"lat":42.51733,"pop":0},{"id":792208,"name":"Bublica","lon":21.59972,"lat":43.05951,"pop":0},{"id":3216363,"name":"Bubnjava","lon":19.3957,"lat":44.19976,"pop":0},{"id":792205,"name":"Bubušinac","alt":["Bubusinac"],"lon":21.23661,"lat":44.66641,"pop":0},{"id":862867,"name":"Bućanji","lon":22.17278,"lat":44.25844,"pop":0},{"id":837764,"name":"Bučar","lon":21.55583,"lat":44.07056,"pop":0},{"id":835654,"name":"Buče","alt":["Buce"],"lon":20.50974,"lat":43.39776,"pop":0},{"id":835889,"name":"Buče","alt":["Buce"],"lon":20.37382,"lat":43.22622,"pop":0},{"id":792200,"name":"Buci","lon":21.35351,"lat":43.48078,"pop":0},{"id":792199,"name":"Bučić","alt":["Bucic"],"lon":21.69619,"lat":43.23232,"pop":0},{"id":835191,"name":"Bučići","alt":["Bucici"],"lon":21.00582,"lat":43.35113,"pop":0},{"id":792196,"name":"Bučince","alt":["Bucince","Bucinci","Bučinci"],"lon":21.59303,"lat":43.15358,"pop":67},{"id":792190,"name":"Bučje","alt":["Bucje"],"lon":22.14904,"lat":44.13811,"pop":0},{"id":792191,"name":"Bučje","alt":["Bucje"],"lon":22.12722,"lat":43.68,"pop":0},{"id":792192,"name":"Bučje","alt":["Bucje"],"lon":21.05438,"lat":43.54827,"pop":0},{"id":3203160,"name":"Bučje","alt":["Bucje"],"lon":19.41409,"lat":43.45985,"pop":0},{"id":3216894,"name":"Bučje","alt":["Bucija","Bucje","Bučija"],"lon":19.58795,"lat":44.53329,"pop":0},{"id":3339492,"name":"Bučje","alt":["Bucje"],"lon":19.73444,"lat":43.18222,"pop":0},{"id":792188,"name":"Bučum","alt":["Bucum"],"lon":22.2542,"lat":43.44623,"pop":0},{"id":3216323,"name":"Bucure","alt":["Bucursko"],"lon":19.65722,"lat":44.23004,"pop":0},{"id":834670,"name":"Budakovac","lon":21.45202,"lat":43.12703,"pop":0},{"id":834848,"name":"Budakovac","lon":20.23827,"lat":43.28954,"pop":0},{"id":3203139,"name":"Buđanovci","alt":["Budanovci","Budjanovci"],"lon":19.86344,"lat":44.89388,"pop":1999},{"id":792183,"name":"Buđevo","alt":["Budevo","Budjeve","Budjevë"],"lon":20.05121,"lat":43.14514,"pop":0},{"id":835589,"name":"Budiće","alt":["Budice"],"lon":20.46062,"lat":43.22875,"pop":0},{"id":792182,"name":"Budilovina","lon":20.99103,"lat":43.43601,"pop":0},{"id":3240185,"name":"Budimlija","lon":19.22076,"lat":44.49028,"pop":0},{"id":3337443,"name":"Budimlija","lon":19.22103,"lat":44.50489,"pop":0},{"id":3203121,"name":"Budisava","alt":["Neudorf","Tiszakalmanfalva","Tiszakálmánfalva","Waldneudorf"],"lon":19.99389,"lat":45.28139,"pop":0},{"id":3203119,"name":"Budišić","alt":["Budisic"],"lon":19.1458,"lat":44.34115,"pop":0},{"id":792176,"name":"Budoželja","alt":["Budozelja"],"lon":20.28989,"lat":43.53422,"pop":0},{"id":835203,"name":"Bugarci","lon":21.0516,"lat":43.36724,"pop":0},{"id":834916,"name":"Bugare","lon":21.13799,"lat":43.22898,"pop":0},{"id":3203094,"name":"Bujačić","alt":["Bujacic"],"lon":19.91306,"lat":44.2575,"pop":0},{"id":792173,"name":"Bujanovac","alt":["Bougianovats","Bujanoci","Bujanovc","Bujanovce","Bujanovci","bu ya nuo wa ci","buyanobacheu","buyanovuatsu","bwyanwfats","bwyanwwach","Μπουγιάνοβατς","Буяновац","Бујановац","بويانوفاتس","بویانوواچ","ブヤノヴァツ","布亞諾瓦茨","부야노바츠"],"lon":21.76667,"lat":42.45917,"pop":0},{"id":835864,"name":"Bujca","lon":20.30828,"lat":43.18803,"pop":0},{"id":792171,"name":"Bujić","alt":["Bujic","Bujiq","Byjac","Byjaç"],"lon":21.6034,"lat":42.33708,"pop":0},{"id":792170,"name":"Bujkovac","lon":22.01896,"lat":42.56112,"pop":0},{"id":792168,"name":"Bujkoviće","alt":["Bujkovice","Bujkovici","Bujkovići"],"lon":20.30094,"lat":42.99283,"pop":0},{"id":793136,"name":"Bujmir","alt":["Aleksinacki Bujmir"],"lon":21.74816,"lat":43.51402,"pop":0},{"id":836374,"name":"Bujoši","alt":["Bujosi"],"lon":20.18556,"lat":43.69361,"pop":0},{"id":860370,"name":"Bukarci","lon":21.92706,"lat":42.65345,"pop":0},{"id":835600,"name":"Bukare","alt":["Riljin Do"],"lon":20.50485,"lat":43.3815,"pop":0},{"id":792165,"name":"Bukoloram","lon":21.47487,"lat":43.162,"pop":25},{"id":3203083,"name":"Bukor","lon":19.57116,"lat":44.49523,"pop":1167},{"id":792163,"name":"Bukorovac","lon":21.0035,"lat":43.98737,"pop":0},{"id":838763,"name":"Bukorovac","lon":21.01472,"lat":44.00639,"pop":0},{"id":792154,"name":"Bukova Glava","lon":21.84056,"lat":42.84583,"pop":0},{"id":861829,"name":"Bukova Padina","lon":22.23742,"lat":42.38809,"pop":0},{"id":3319218,"name":"Bukova Ravan","lon":19.76056,"lat":43.98472,"pop":0},{"id":792158,"name":"Bukovac","lon":21.47014,"lat":44.1173,"pop":0},{"id":792159,"name":"Bukovac","alt":["Bukovc","Bukovce"],"lon":21.64837,"lat":42.36048,"pop":0},{"id":3203077,"name":"Bukovac","lon":19.89519,"lat":45.18975,"pop":0},{"id":3203081,"name":"Bukovac","lon":19.96878,"lat":44.18261,"pop":0},{"id":3215386,"name":"Bukovac","lon":19.0976,"lat":45.72806,"pop":0},{"id":3303383,"name":"Bukovac","lon":19.50639,"lat":43.52056,"pop":0},{"id":834417,"name":"Bukovce","lon":20.44806,"lat":43.25778,"pop":0},{"id":792151,"name":"Bukovče","alt":["Bukovca","Bukovce","Bukovča"],"lon":22.60083,"lat":44.20278,"pop":0},{"id":792152,"name":"Bukovče","alt":["Bukovce"],"lon":21.23222,"lat":44.00627,"pop":0},{"id":835217,"name":"Bukovci","lon":21.12763,"lat":43.38306,"pop":0},{"id":792147,"name":"Bukovica","lon":20.53812,"lat":43.72919,"pop":0},{"id":792148,"name":"Bukovica","lon":21.31852,"lat":43.49783,"pop":0},{"id":836483,"name":"Bukovica","lon":20.18263,"lat":43.61387,"pop":0},{"id":839414,"name":"Bukovica","lon":21.45444,"lat":43.92583,"pop":0},{"id":3216728,"name":"Bukovica","lon":19.95931,"lat":44.44065,"pop":0},{"id":3216729,"name":"Bukovica","lon":19.91795,"lat":44.45939,"pop":0},{"id":3217003,"name":"Bukovica","lon":19.86,"lat":44.62944,"pop":0},{"id":792138,"name":"Bukovik","lon":20.51738,"lat":44.32943,"pop":0},{"id":835437,"name":"Bukovik","lon":20.42556,"lat":43.12639,"pop":0},{"id":838898,"name":"Bukovik","lon":21.33417,"lat":43.66889,"pop":0},{"id":3203035,"name":"Bukovik","lon":19.99743,"lat":43.42673,"pop":0},{"id":3203036,"name":"Bukovik","lon":19.67676,"lat":43.26581,"pop":0},{"id":3216895,"name":"Bukovik","lon":19.59338,"lat":44.52155,"pop":0},{"id":3304747,"name":"Bukovik","alt":["Bukovic"],"lon":19.40703,"lat":43.43773,"pop":0},{"id":3305233,"name":"Bukovik","lon":19.23847,"lat":43.49596,"pop":0},{"id":792134,"name":"Bukovska","alt":["Bukovsko"],"lon":21.67263,"lat":44.41774,"pop":0},{"id":834675,"name":"Bukreš","alt":["Bukres","Dumaci","Dumači"],"lon":21.44355,"lat":43.127,"pop":0},{"id":792164,"name":"Bukurevac","alt":["Bukarevac","Bukorevac","Bukorovac","Bukorovce"],"lon":21.70933,"lat":42.3359,"pop":0},{"id":792130,"name":"Bukurovac","lon":22.34128,"lat":43.24404,"pop":0},{"id":3303185,"name":"Bukvića Mehana","lon":19.72028,"lat":43.88972,"pop":0},{"id":3256360,"name":"Bukvička Mala","alt":["Bukvicka Mala"],"lon":19.37828,"lat":44.63701,"pop":0},{"id":792128,"name":"Bulatovac","lon":21.51191,"lat":43.2673,"pop":0},{"id":3306186,"name":"Bulatovići","alt":["Bulatovici"],"lon":19.84306,"lat":43.39083,"pop":0},{"id":3304752,"name":"Bulići","alt":["Bulici"],"lon":19.37278,"lat":43.43339,"pop":0},{"id":836316,"name":"Bulije","lon":20.25804,"lat":43.69966,"pop":0},{"id":861177,"name":"Bulimačevska Mahala","lon":22.01083,"lat":42.43611,"pop":0},{"id":792126,"name":"Bulinovac","lon":22.18222,"lat":43.60389,"pop":0},{"id":792125,"name":"Buljan","alt":["Buljane"],"lon":21.5351,"lat":43.89917,"pop":0},{"id":792123,"name":"Buljesovce","alt":["Buljesavci"],"lon":21.92418,"lat":42.43593,"pop":0},{"id":860824,"name":"Bulutanska Mahala","lon":21.93956,"lat":42.38842,"pop":0},{"id":793806,"name":"Bumbarevo Brdo","alt":["Bumbarevo"],"lon":20.62449,"lat":43.91144,"pop":0},{"id":862205,"name":"Bumbarska Mahala","lon":22.49225,"lat":42.53138,"pop":0},{"id":860960,"name":"Bumbule","lon":22.11222,"lat":42.48556,"pop":0},{"id":834535,"name":"Bumburek","lon":21.55354,"lat":43.25315,"pop":0},{"id":792119,"name":"Bunar","lon":21.14698,"lat":43.92004,"pop":0},{"id":835117,"name":"Bunar","lon":20.47083,"lat":43.40917,"pop":0},{"id":838154,"name":"Bunetić","lon":21.39917,"lat":44.45278,"pop":0},{"id":861067,"name":"Bunjčevi","lon":22.01556,"lat":42.47833,"pop":0},{"id":792113,"name":"Bunuša","alt":["Bunusa"],"lon":21.87018,"lat":42.89219,"pop":0},{"id":792112,"name":"Bunuševce","alt":["Bunisevce","Buniševce","Bunusevce"],"lon":21.87691,"lat":42.54071,"pop":0},{"id":833285,"name":"Bunuški Čifluk","alt":["Bunuski Ciflik","Bunuski Cifluk","Bunuški Čiflik"],"lon":21.87942,"lat":42.88373,"pop":0},{"id":3202981,"name":"Burađa","alt":["Burada"],"lon":19.82758,"lat":43.51871,"pop":0},{"id":792111,"name":"Burdimo","lon":22.23723,"lat":43.40987,"pop":0},{"id":835101,"name":"Burgići","alt":["Burgici"],"lon":21.11244,"lat":43.28547,"pop":0},{"id":837425,"name":"Burgionji","lon":21.73001,"lat":44.52627,"pop":5},{"id":834780,"name":"Burince","lon":21.32028,"lat":43.02,"pop":0},{"id":836899,"name":"Burmazi","lon":20.82194,"lat":43.52194,"pop":5},{"id":3239761,"name":"Burmazi","lon":19.40682,"lat":44.44806,"pop":0},{"id":3302810,"name":"Burmazi","lon":19.65886,"lat":43.97456,"pop":0},{"id":792103,"name":"Burovac","lon":21.35778,"lat":44.27278,"pop":0},{"id":792102,"name":"Burovo","lon":20.28778,"lat":44.40111,"pop":0},{"id":3342866,"name":"Busara","lon":19.38889,"lat":43.41944,"pop":0},{"id":792101,"name":"Busenje","alt":["Captalanfalau","Captalanfalău","Kaptalan","Kaptalanfalva","Káptalan","Káptalanfalva","Vladicino Selo","Vladičino Selo"],"lon":20.82119,"lat":45.43626,"pop":141},{"id":834431,"name":"Bušići","alt":["Busici"],"lon":20.4425,"lat":43.31722,"pop":0},{"id":792098,"name":"Busilovac","lon":21.48181,"lat":43.79729,"pop":0},{"id":3271907,"name":"Bušnica","alt":["Busnica"],"lon":19.19028,"lat":44.30139,"pop":0},{"id":792090,"name":"Buštranje","alt":["Bustranje"],"lon":21.9204,"lat":42.42581,"pop":0},{"id":792091,"name":"Buštranje","alt":["Bushtranje","Bustranje"],"lon":21.75407,"lat":42.33152,"pop":988},{"id":792089,"name":"Busur","lon":21.38536,"lat":44.22491,"pop":0},{"id":836686,"name":"Butkovo","lon":20.17183,"lat":43.5111,"pop":0},{"id":792085,"name":"Buvce","alt":["Buvci"],"lon":21.68988,"lat":42.83554,"pop":0},{"id":792082,"name":"Bzenice","alt":["Bzenica"],"lon":20.89108,"lat":43.48865,"pop":0},{"id":836895,"name":"Bzenice","lon":20.87743,"lat":43.5035,"pop":5},{"id":792081,"name":"Bzovik","lon":20.44029,"lat":43.43284,"pop":0},{"id":792078,"name":"Čačak","alt":["Cacak","Cacakas","Chachak","Tsatsak","cha cha ke","cha chak","chachak","chachakeu","chachaku","tshatshak","Čačakas","Τσάτσακ","Чачак","צאצאק","تشاتشاك","چاچاک","ชาชัก","チャチャク","查查克","차차크"],"lon":20.34972,"lat":43.89139,"pop":117072},{"id":3305194,"name":"Čadinje","alt":["Cadinje"],"lon":19.62839,"lat":43.3748,"pop":0},{"id":837172,"name":"Caganje","lon":20.22667,"lat":43.93722,"pop":0},{"id":837054,"name":"Čagljevo","lon":21.04806,"lat":44.39417,"pop":0},{"id":792071,"name":"Čagrovac","alt":["Cagrovac"],"lon":22.07199,"lat":43.20651,"pop":0},{"id":792070,"name":"Čairi","alt":["Cairi","Cajiri","Čajiri"],"lon":21.00333,"lat":43.60722,"pop":0},{"id":862758,"name":"Čairovići","lon":20.5909,"lat":43.97831,"pop":0},{"id":835947,"name":"Čajetina","alt":["Cajetina","Cajtina","Čajtina"],"lon":20.75917,"lat":43.27167,"pop":0},{"id":3202900,"name":"Čajetina","alt":["Cajetina","Chaetina","Chajetina","chayytyna","Чаетина","Чајетина","چائیتینا"],"lon":19.71273,"lat":43.74977,"pop":3162},{"id":835569,"name":"Cajiči","alt":["Cajici"],"lon":20.57333,"lat":43.34333,"pop":0},{"id":3255327,"name":"Čajići","alt":["Cajici"],"lon":19.19139,"lat":44.56667,"pop":0},{"id":792066,"name":"Cakanovac","alt":["Sakanovci"],"lon":21.68058,"lat":42.27491,"pop":0},{"id":860751,"name":"Cakina Bara","lon":22.16024,"lat":42.55601,"pop":0},{"id":861906,"name":"Cakina Mahala","lon":22.34578,"lat":42.65424,"pop":0},{"id":861894,"name":"Cakinci Mahala","lon":22.43142,"lat":42.64932,"pop":0},{"id":3318902,"name":"Čaldovići","lon":19.88083,"lat":43.70222,"pop":0},{"id":836302,"name":"Čalja","alt":["Calja"],"lon":20.42194,"lat":43.52694,"pop":5},{"id":3202886,"name":"Čalma","alt":["Calma","Chalma","Csalma","Tschalma"],"lon":19.50705,"lat":45.07948,"pop":0},{"id":3302922,"name":"Čamići","alt":["Camici"],"lon":19.75969,"lat":43.92785,"pop":0},{"id":792061,"name":"Čamurlija","alt":["Camurlija"],"lon":21.84699,"lat":43.3653,"pop":0},{"id":3202876,"name":"Čantavir","alt":["Cantavir","Csantaver","Csantavér","Csontafejer","Csontafejér","Tschantawir"],"lon":19.76609,"lat":45.92102,"pop":0},{"id":3239875,"name":"Caparić","alt":["Caparic"],"lon":19.45963,"lat":44.16936,"pop":0},{"id":835480,"name":"Čaplinci","alt":["Caplinci"],"lon":21.82148,"lat":43.24426,"pop":0},{"id":837537,"name":"Capljak","lon":20.52806,"lat":43.70333,"pop":5},{"id":792053,"name":"Čapljinac","alt":["Capljinac"],"lon":21.84351,"lat":43.24982,"pop":0},{"id":834938,"name":"Čaprići","alt":["Caprici"],"lon":20.33061,"lat":43.34031,"pop":0},{"id":863185,"name":"Čaprići","lon":21.43028,"lat":43.05528,"pop":0},{"id":792052,"name":"Čar","alt":["Car"],"lon":21.75211,"lat":42.5969,"pop":0},{"id":834603,"name":"Čarapići","alt":["Carapici"],"lon":20.10889,"lat":43.94806,"pop":0},{"id":861068,"name":"Carci","lon":22.02972,"lat":42.47944,"pop":0},{"id":834778,"name":"Čardinci","alt":["Cardinci","Cardinici","Čardinici"],"lon":22.20921,"lat":42.41865,"pop":0},{"id":792041,"name":"Carev Del","lon":22.56588,"lat":43.01181,"pop":0},{"id":792043,"name":"Carevac","lon":21.49341,"lat":44.67878,"pop":0},{"id":3216875,"name":"Carić","lon":19.63926,"lat":44.56511,"pop":0},{"id":3337465,"name":"Carić Mala","lon":19.72188,"lat":44.62393,"pop":0},{"id":861874,"name":"Carica","alt":["Gornja Carica Mahala","Tzaritza"],"lon":22.44713,"lat":42.63727,"pop":0},{"id":3202849,"name":"Caričina","alt":["Caricina","Garicina","Garičina"],"lon":19.87159,"lat":43.23467,"pop":0},{"id":3202848,"name":"Carina","lon":19.48725,"lat":44.2681,"pop":0},{"id":3319081,"name":"Čarina","lon":19.84194,"lat":43.88222,"pop":0},{"id":862228,"name":"Carkovica","alt":["Radlovci Mahala"],"lon":22.35739,"lat":42.53137,"pop":0},{"id":3275326,"name":"Ćarkovići","alt":["Carkovici"],"lon":19.68079,"lat":44.09106,"pop":0},{"id":792036,"name":"Čarovina","alt":["Carovina"],"lon":20.32052,"lat":43.13211,"pop":0},{"id":791391,"name":"Čašić-Dolac","alt":["Casic","Casic-Dolac","Dolac","Čašić"],"lon":20.43333,"lat":43.05,"pop":0},{"id":3303548,"name":"Čauševići","alt":["Causevic","Causevici","Čaušević"],"lon":19.58075,"lat":43.37216,"pop":0},{"id":833400,"name":"Cauševska Mahala","alt":["Causevska Mahala"],"lon":22.16818,"lat":42.57393,"pop":0},{"id":859520,"name":"Čavadarci","lon":21.7442,"lat":42.28069,"pop":0},{"id":3276932,"name":"Čavina","lon":19.64972,"lat":44.24806,"pop":0},