[{"id":2109932,"name":"’Ai Ni Mae","lon":161.01667,"lat":-8.9,"pop":0},{"id":2109947,"name":"’Aifaafasu","lon":161.05326,"lat":-8.93698,"pop":0},{"id":2109944,"name":"’Ailali","lon":160.82222,"lat":-8.46279,"pop":0},{"id":2109940,"name":"’Aimburu","lon":161.03265,"lat":-8.91419,"pop":0},{"id":2109938,"name":"’Aimela","lon":160.7035,"lat":-8.73274,"pop":0},{"id":2109931,"name":"’Ainimae","lon":161.05,"lat":-8.9,"pop":0},{"id":2109923,"name":"’Airumu","lon":161.03333,"lat":-8.95,"pop":0},{"id":2109920,"name":"’Aisi’ina","lon":161.01667,"lat":-8.91667,"pop":0},{"id":2109848,"name":"’Ambungali","lon":160.75,"lat":-8.96667,"pop":0},{"id":2109205,"name":"’Ere’eresulu","alt":["'Ere Amsuli","'Ere'eresulu","’Ere Amsuli"],"lon":160.75754,"lat":-8.77678,"pop":0},{"id":2109196,"name":"’Eteala","lon":161.01667,"lat":-8.95,"pop":0},{"id":2104658,"name":"’Onggou","lon":160.96325,"lat":-8.84456,"pop":0},{"id":2104647,"name":"’Oofu","alt":["'Oofa","'Oofu","’Oofa"],"lon":160.60398,"lat":-8.41443,"pop":0},{"id":2104637,"name":"’Opo’opo","lon":161.05,"lat":-9.3,"pop":0},{"id":2178448,"name":"’Uvea","lon":159.96667,"lat":-11.53333,"pop":0},{"id":2110012,"name":"A’ama","alt":["A'ama","Ama"],"lon":160.15725,"lat":-9.08848,"pop":0},{"id":2110013,"name":"A’ama","lon":160.62937,"lat":-8.34948,"pop":0},{"id":2110008,"name":"A’arai","lon":160.93223,"lat":-8.80022,"pop":0},{"id":2109802,"name":"A’opasi","lon":161.21667,"lat":-9.35,"pop":0},{"id":2109695,"name":"A’ulupeine","lon":161.57639,"lat":-9.66942,"pop":0},{"id":2110015,"name":"Aakae","lon":161.2,"lat":-9.05,"pop":0},{"id":2110011,"name":"Aanosusura","lon":160.86574,"lat":-8.68682,"pop":0},{"id":2110006,"name":"Aarite","alt":["Alita"],"lon":160.83178,"lat":-9.83177,"pop":0},{"id":2110000,"name":"Abalolo","lon":160.76399,"lat":-8.91644,"pop":0},{"id":2109999,"name":"Abe","lon":160.96667,"lat":-8.68333,"pop":0},{"id":2109997,"name":"Abira’adoa","lon":160.87746,"lat":-8.68199,"pop":0},{"id":2109996,"name":"Abu","lon":160.70234,"lat":-8.77567,"pop":0},{"id":2109994,"name":"Abungari","lon":160.93333,"lat":-9.18333,"pop":0},{"id":2109990,"name":"Ae’akwato","lon":160.81667,"lat":-8.41667,"pop":0},{"id":2109986,"name":"Aena’aiwasi","lon":161.01667,"lat":-9.25,"pop":0},{"id":2109985,"name":"Aenaangingi","lon":160.63778,"lat":-8.42665,"pop":0},{"id":2109984,"name":"Aenakaro","lon":161.15,"lat":-9.08333,"pop":0},{"id":2109983,"name":"Aenalite","alt":["Adou"],"lon":160.9545,"lat":-8.58138,"pop":0},{"id":2109981,"name":"Aenariki","lon":161.11667,"lat":-9.2,"pop":0},{"id":2109980,"name":"Aenathaia","lon":160.64105,"lat":-8.35735,"pop":0},{"id":2109977,"name":"Aerotoro","lon":161.19762,"lat":-9.29888,"pop":0},{"id":8440708,"name":"Afetonombo","lon":160.9674,"lat":-8.88945,"pop":0},{"id":2109975,"name":"Afudodo","lon":160.75,"lat":-8.58333,"pop":0},{"id":2109974,"name":"Afufu","lon":160.5622,"lat":-8.34898,"pop":0},{"id":2109973,"name":"Afusalo","lon":160.75,"lat":-8.36667,"pop":0},{"id":2109972,"name":"Afutara","alt":["AFT"],"lon":160.95018,"lat":-9.19216,"pop":0},{"id":2109970,"name":"Age","lon":160.95,"lat":-8.8,"pop":0},{"id":2109969,"name":"Ageraba","lon":160.81978,"lat":-8.61011,"pop":0},{"id":2178885,"name":"Ahanga","lon":160.65594,"lat":-11.83381,"pop":0},{"id":2178886,"name":"Ahanga","lon":159.75935,"lat":-11.27398,"pop":0},{"id":2109963,"name":"Ahatu","lon":155.73675,"lat":-7.10095,"pop":0},{"id":2109960,"name":"Ahe’ohia","lon":161.18592,"lat":-9.21631,"pop":0},{"id":2109961,"name":"Ahenawai","lon":161.40859,"lat":-9.57877,"pop":0},{"id":2109957,"name":"Ahesia","lon":161.18333,"lat":-9.06667,"pop":0},{"id":2109956,"name":"Ahi’a","lon":161.96278,"lat":-9.82403,"pop":0},{"id":2178883,"name":"Ahi’a","lon":161.70901,"lat":-10.22307,"pop":0},{"id":2178884,"name":"Ahi’a","lon":161.32587,"lat":-10.2072,"pop":0},{"id":2109955,"name":"Ahia","lon":161.25,"lat":-9.41667,"pop":0},{"id":2109952,"name":"Ahu’amu","lon":161.23333,"lat":-9.15,"pop":0},{"id":2109951,"name":"Ahuu","lon":161.25,"lat":-9.46667,"pop":0},{"id":2178882,"name":"Ai","lon":161.33333,"lat":-10.33333,"pop":0},{"id":2109949,"name":"Aiasi","lon":161.07941,"lat":-9.31217,"pop":0},{"id":2109950,"name":"Aiasi","lon":160.7287,"lat":-8.57248,"pop":0},{"id":2109946,"name":"Aifiri","lon":161.01667,"lat":-8.93333,"pop":0},{"id":2109943,"name":"Ailau","lon":160.76133,"lat":-8.92374,"pop":0},{"id":2109939,"name":"Aimela","lon":160.69398,"lat":-8.32871,"pop":0},{"id":2109937,"name":"Aimera","lon":161.13333,"lat":-9.28333,"pop":0},{"id":2109934,"name":"Ainiasi","lon":161.11667,"lat":-9.18333,"pop":0},{"id":2109928,"name":"Aio","lon":161.23333,"lat":-8.21667,"pop":0},{"id":2109926,"name":"Airaea","lon":161.17401,"lat":-9.28706,"pop":0},{"id":2109922,"name":"Aisasale","lon":160.81049,"lat":-8.63776,"pop":0},{"id":2109921,"name":"Aisato","lon":160.9426,"lat":-8.70829,"pop":0},{"id":2109919,"name":"Aisiko","lon":160.7762,"lat":-8.80784,"pop":0},{"id":2109918,"name":"Aisina","lon":160.95,"lat":-8.71667,"pop":0},{"id":2109916,"name":"Aisisiki","lon":160.71785,"lat":-8.75766,"pop":0},{"id":2109917,"name":"Aisisiki","lon":160.73333,"lat":-8.55,"pop":0},{"id":2109909,"name":"Akwariri","lon":160.75039,"lat":-8.3383,"pop":0},{"id":2109908,"name":"Akwe","alt":["Kikiri"],"lon":160.68087,"lat":-8.4885,"pop":0},{"id":2109906,"name":"Alafe","lon":160.98333,"lat":-8.66667,"pop":0},{"id":2109904,"name":"Alahasiai","lon":161.1,"lat":-9.13333,"pop":0},{"id":2178881,"name":"Alangakaula","alt":["Alangaula"],"lon":161.72592,"lat":-10.2596,"pop":0},{"id":8440711,"name":"Alelua","lon":160.94015,"lat":-9.18317,"pop":0},{"id":2109888,"name":"Aliali","lon":160.23333,"lat":-9.6,"pop":0},{"id":2109887,"name":"Alialia","alt":["Alialiala"],"lon":159.81811,"lat":-9.1008,"pop":0},{"id":2109884,"name":"Aligegeo","lon":160.69187,"lat":-8.74946,"pop":0},{"id":2109883,"name":"Alikata","lon":160.74528,"lat":-8.76871,"pop":0},{"id":2109878,"name":"Alite’au","lon":160.66667,"lat":-8.46667,"pop":0},{"id":8439997,"name":"Allardyce","lon":158.66138,"lat":-7.77845,"pop":0},{"id":2109870,"name":"Alligator Creek","lon":160.07316,"lat":-9.42461,"pop":0},{"id":2109868,"name":"Alogha","alt":["Aloha"],"lon":159.60576,"lat":-9.40288,"pop":0},{"id":2109864,"name":"Alosolo","lon":160.16309,"lat":-9.79415,"pop":0},{"id":2109863,"name":"Alotatahoma","lon":160.13137,"lat":-9.68404,"pop":0},{"id":2109859,"name":"Alundava","alt":["Mandakato"],"lon":160.26667,"lat":-9.8,"pop":0},{"id":2109858,"name":"Ama","lon":160.6363,"lat":-9.61671,"pop":0},{"id":2109857,"name":"Ama’ama","lon":161.23333,"lat":-9.1,"pop":0},{"id":2178879,"name":"Amba","lon":166.48773,"lat":-11.27515,"pop":0},{"id":2109852,"name":"Amboiosi","lon":161.01667,"lat":-8.91667,"pop":0},{"id":2109851,"name":"Ambuambili","lon":160.15,"lat":-9.43333,"pop":0},{"id":2109850,"name":"Ambuasu","lon":160.63333,"lat":-8.36667,"pop":0},{"id":2109849,"name":"Ambuavao","lon":160.21667,"lat":-9.43333,"pop":0},{"id":2109847,"name":"Ambuporondavi","alt":["Tavabuta"],"lon":160.36667,"lat":-9.55,"pop":0},{"id":2109845,"name":"Anakelo","lon":160.73333,"lat":-8.56667,"pop":0},{"id":2109843,"name":"Anda’ua","lon":160.73621,"lat":-8.39882,"pop":0},{"id":2109844,"name":"Andandaiesi","lon":160.58822,"lat":-8.33389,"pop":0},{"id":2109842,"name":"Andeande","lon":160.45562,"lat":-9.48091,"pop":0},{"id":2109841,"name":"Andevadhu","lon":160.36288,"lat":-9.554,"pop":0},{"id":2109840,"name":"Andi","lon":160.61667,"lat":-8.36667,"pop":0},{"id":2109838,"name":"Ane’efafako","lon":161.04419,"lat":-8.9262,"pop":0},{"id":2109836,"name":"Angali","lon":161.51667,"lat":-9.53333,"pop":0},{"id":2109837,"name":"Angali","lon":161.48333,"lat":-9.53333,"pop":0},{"id":2109834,"name":"Anggia","lon":161.15,"lat":-9,"pop":0},{"id":2109831,"name":"Angoango","lon":160.15534,"lat":-9.78552,"pop":0},{"id":2109829,"name":"Aniuke","lon":160.60552,"lat":-8.34516,"pop":0},{"id":2109827,"name":"Anoano","lon":160.77093,"lat":-8.99205,"pop":0},{"id":2109826,"name":"Anofai","lon":160.88564,"lat":-8.57963,"pop":0},{"id":2109825,"name":"Anofalake","lon":160.72486,"lat":-8.65691,"pop":0},{"id":2109824,"name":"Anoketo","lon":160.81804,"lat":-8.46183,"pop":0},{"id":2109823,"name":"Anokwakwale","lon":160.99628,"lat":-8.65809,"pop":0},{"id":2109822,"name":"Anokwasi","lon":160.56667,"lat":-8.38333,"pop":0},{"id":2109821,"name":"Anoni’usu","lon":161.52749,"lat":-9.60976,"pop":0},{"id":2109820,"name":"Anotole","alt":["Tereali"],"lon":161.43574,"lat":-9.65926,"pop":0},{"id":2178873,"name":"Anuta","alt":["Anata"],"lon":161.36291,"lat":-10.34365,"pop":0},{"id":2109814,"name":"Anutaiasi","alt":["Wairokai"],"lon":161.13333,"lat":-9.35,"pop":0},{"id":2109809,"name":"Aoani’iru","lon":161.15,"lat":-9.1,"pop":0},{"id":2109807,"name":"Aola","alt":["Aula","Tenaghau"],"lon":160.48788,"lat":-9.53487,"pop":0},{"id":2109803,"name":"Aona","lon":161.15,"lat":-9.33333,"pop":0},{"id":2109804,"name":"Aona","lon":160.06904,"lat":-9.81153,"pop":0},{"id":2109801,"name":"Aopasi","lon":161.48333,"lat":-9.5,"pop":0},{"id":2178871,"name":"Apakhö","alt":["Apakho","Asimboa","Aujivigno","Gnapwongo"],"lon":166.46667,"lat":-11.3,"pop":0},{"id":2178870,"name":"Apaone Village","alt":["Apaone","Apauni","Old Pawa"],"lon":161.72617,"lat":-10.26809,"pop":0},{"id":2178869,"name":"Apaora","alt":["Apaoro"],"lon":161.51917,"lat":-10.53946,"pop":0},{"id":2109797,"name":"Apio","lon":161.4,"lat":-9.61667,"pop":0},{"id":2109794,"name":"Apuara","lon":161.41667,"lat":-9.4,"pop":0},{"id":2109793,"name":"Apuiraramua","lon":161.18494,"lat":-9.28403,"pop":0},{"id":2109791,"name":"Apunahunu","lon":161.18333,"lat":-9.18333,"pop":0},{"id":2178867,"name":"Apurahe","alt":["Apurahi"],"lon":161.72654,"lat":-10.69571,"pop":0},{"id":2109790,"name":"Ara’arauna","lon":161.05,"lat":-9.01667,"pop":0},{"id":2109776,"name":"Ara’ou","lon":161.18333,"lat":-9.08333,"pop":0},{"id":2109789,"name":"Arabala","alt":["Arabale"],"lon":160.7605,"lat":-8.89805,"pop":0},{"id":8440741,"name":"Arai Peninsula","lon":161.33921,"lat":-9.33446,"pop":0},{"id":2109786,"name":"Arairou","lon":161.02833,"lat":-9.29129,"pop":0},{"id":2109785,"name":"Araki","lon":160.91667,"lat":-8.51667,"pop":0},{"id":2109779,"name":"Aranimamu","lon":161.23333,"lat":-9.46667,"pop":0},{"id":2109778,"name":"Arao","lon":160.67933,"lat":-8.4948,"pop":0},{"id":8439994,"name":"Arariki","lon":157.7352,"lat":-7.46209,"pop":0},{"id":2109771,"name":"Araro Puti","lon":159.93727,"lat":-9.45318,"pop":0},{"id":2109770,"name":"Arasi","lon":161.18389,"lat":-9.20019,"pop":0},{"id":2109768,"name":"Araumana","lon":161.1,"lat":-9.31667,"pop":0},{"id":2109767,"name":"Araveu","lon":159.86667,"lat":-9.36667,"pop":0},{"id":8440751,"name":"Ari’o’o","lon":161.99554,"lat":-9.72414,"pop":0},{"id":2109759,"name":"Arinapa’ewa","lon":161.25,"lat":-9.18333,"pop":0},{"id":8440709,"name":"Aringa Hill","lon":160.96988,"lat":-9.10747,"pop":0},{"id":2109755,"name":"Aro","alt":["Ato"],"lon":159.60684,"lat":-9.40349,"pop":0},{"id":2109754,"name":"Aroaha","lon":161.98195,"lat":-9.74391,"pop":0},{"id":2109751,"name":"Aroaro","lon":160.34942,"lat":-9.65715,"pop":0},{"id":2109752,"name":"Aroaro","lon":160.0571,"lat":-9.47599,"pop":0},{"id":2109753,"name":"Aroaro","lon":160.3268,"lat":-9.41941,"pop":0},{"id":2178864,"name":"Arohane","lon":161.96301,"lat":-10.47739,"pop":0},{"id":2109744,"name":"Arona","lon":161.21667,"lat":-9.23333,"pop":0},{"id":2109745,"name":"Arona","alt":["RNA"],"lon":161.988,"lat":-9.85626,"pop":0},{"id":2109741,"name":"Arovachivi","lon":160.6423,"lat":-9.90066,"pop":0},{"id":2109739,"name":"Arovia","lon":160.22217,"lat":-9.7206,"pop":0},{"id":2109736,"name":"Aruliho","alt":["Aruligo"],"lon":159.76667,"lat":-9.28333,"pop":0},{"id":2109732,"name":"Asaibala","lon":160.84797,"lat":-8.58727,"pop":0},{"id":2109731,"name":"Asibonga","lon":160.88161,"lat":-8.78876,"pop":0},{"id":2178862,"name":"Asimaenioha","alt":["Asimanioha","Assimaniona"],"lon":161.48346,"lat":-10.24733,"pop":0},{"id":2109728,"name":"Asimana","lon":160.87168,"lat":-9.15869,"pop":0},{"id":2109713,"name":"Ato","lon":160.90051,"lat":-8.50685,"pop":0},{"id":2109711,"name":"Ato’ifi","alt":["ATD","Ato'ifi"],"lon":161.00451,"lat":-8.86965,"pop":0},{"id":2109712,"name":"Atohau","lon":161.12894,"lat":-9.0106,"pop":0},{"id":2109710,"name":"Atonihare","lon":161.16667,"lat":-9.23333,"pop":0},{"id":2109709,"name":"Atori","lon":160.93321,"lat":-8.73852,"pop":0},{"id":2109708,"name":"Atuatu","lon":160.56667,"lat":-8.36667,"pop":0},{"id":2109706,"name":"Au","lon":160.33333,"lat":-9.41667,"pop":0},{"id":2109707,"name":"Au","alt":["Judaea"],"lon":157.26711,"lat":-8.63499,"pop":0},{"id":2109705,"name":"Au’alu","lon":159.55263,"lat":-8.27809,"pop":0},{"id":2109704,"name":"Auangisia","lon":160.80153,"lat":-8.50858,"pop":0},{"id":2109701,"name":"Auki","alt":["AKS","Auke","Rarasu","Ауки"],"lon":160.69778,"lat":-8.76778,"pop":7882},{"id":2109693,"name":"Aupono","lon":161.16978,"lat":-9.04249,"pop":0},{"id":2109690,"name":"Ausi","lon":161.1,"lat":-9.1,"pop":0},{"id":2109678,"name":"Avisi","lon":159.73665,"lat":-9.72001,"pop":0},{"id":2178857,"name":"Avita","lon":166.48998,"lat":-11.23685,"pop":0},{"id":2109675,"name":"Avu Avu","alt":["AVU","Kolotambu"],"lon":160.39042,"lat":-9.84528,"pop":0},{"id":2109676,"name":"Avuavu","alt":["Avuavu Mission"],"lon":160.37998,"lat":-9.84389,"pop":0},{"id":2109672,"name":"Awanararu","lon":160.87313,"lat":-9.83331,"pop":0},{"id":2109662,"name":"Bagarice","lon":160.15958,"lat":-9.57525,"pop":0},{"id":2178856,"name":"Bagharai","alt":["Bagarai"],"lon":162.03807,"lat":-10.81503,"pop":0},{"id":2109659,"name":"Baghovu","lon":159.66415,"lat":-8.20687,"pop":0},{"id":2109650,"name":"Bakofu","lon":160.71198,"lat":-8.53053,"pop":0},{"id":2109646,"name":"Balasu’u","lon":161.55,"lat":-9.56667,"pop":0},{"id":2109643,"name":"Balu","lon":157.05,"lat":-7.16667,"pop":0},{"id":11874061,"name":"Banie","lon":166.90006,"lat":-11.64987,"pop":0},{"id":2109636,"name":"Banisokeo","lon":159.33894,"lat":-7.98465,"pop":0},{"id":2109634,"name":"Baolo","lon":158.79974,"lat":-7.66549,"pop":0},{"id":2109633,"name":"Bara","lon":159.60381,"lat":-8.19053,"pop":0},{"id":2109619,"name":"Baunani","alt":["Baunuani"],"lon":160.859,"lat":-9.14001,"pop":0},{"id":2178846,"name":"Bema","alt":["Nemba"],"lon":165.75,"lat":-10.7,"pop":0},{"id":2109595,"name":"Bethany","lon":157.11667,"lat":-8.3,"pop":0},{"id":2178845,"name":"Bia","lon":161.49417,"lat":-10.38005,"pop":0},{"id":2109592,"name":"Bifonu","lon":160.69653,"lat":-8.56917,"pop":0},{"id":2109590,"name":"Biliha","lon":159.61213,"lat":-8.19627,"pop":0},{"id":2109588,"name":"Biluro","lon":159.42707,"lat":-8.29703,"pop":0},{"id":2109587,"name":"Bina","alt":["Bina Mission"],"lon":160.76256,"lat":-8.93138,"pop":0},{"id":8440211,"name":"Bina","lon":160.70476,"lat":-8.77506,"pop":0},{"id":2109581,"name":"Bio","lon":160.67833,"lat":-8.66901,"pop":0},{"id":2113930,"name":"Biporo","lon":156.78684,"lat":-7.76216,"pop":0},{"id":2109578,"name":"Bira","lon":160.9442,"lat":-9.18964,"pop":0},{"id":2109550,"name":"Boinio","lon":159.06489,"lat":-7.87848,"pop":0},{"id":2109547,"name":"Bokolo","lon":159.83634,"lat":-8.33351,"pop":0},{"id":2109545,"name":"Bolitei","lon":159.01965,"lat":-7.84981,"pop":0},{"id":2113941,"name":"Boro","lon":156.63333,"lat":-7.56667,"pop":0},{"id":2109536,"name":"Boubosu","lon":159.79765,"lat":-8.30905,"pop":0},{"id":2109528,"name":"Buala","lon":159.59212,"lat":-8.14497,"pop":2700},{"id":2178841,"name":"Bugawahu","lon":161.61667,"lat":-10.6,"pop":0},{"id":2109522,"name":"Bula","lon":160.73333,"lat":-8.85,"pop":0},{"id":2109521,"name":"Bulabu","alt":["Bula'abu","Bula’abu"],"lon":160.7441,"lat":-8.89981,"pop":0},{"id":2109517,"name":"Buma","alt":["Buga","Buna"],"lon":159.7344,"lat":-8.2522,"pop":0},{"id":2109518,"name":"Buma","lon":160.81667,"lat":-8.95,"pop":0},{"id":2109519,"name":"Buma","lon":160.68627,"lat":-8.69047,"pop":0},{"id":2109514,"name":"Bungusile","alt":["Mbughulusule"],"lon":159.66364,"lat":-8.50535,"pop":0},{"id":2109513,"name":"Burianiasi","lon":160.98333,"lat":-8.65,"pop":0},{"id":2109508,"name":"Busu","lon":160.73333,"lat":-8.88333,"pop":0},{"id":2109507,"name":"Busukwa’e","lon":160.88507,"lat":-8.73442,"pop":0},{"id":2109506,"name":"Busuone","lon":160.80179,"lat":-8.77927,"pop":0},{"id":8440707,"name":"Busurata","lon":160.82371,"lat":-8.82586,"pop":0},{"id":2178840,"name":"Bwaomarau","lon":162.11661,"lat":-10.53918,"pop":0},{"id":2178839,"name":"Bwaroo","lon":162.00662,"lat":-10.50331,"pop":0},{"id":2178838,"name":"Bwaunasughu","alt":["Bwaunasu'u","Bwaunasu’u"],"lon":161.91727,"lat":-10.46047,"pop":0},{"id":2178837,"name":"Bweinaniawarikiapu","lon":161.86667,"lat":-10.56667,"pop":0},{"id":2109502,"name":"Caledonia","lon":160.16278,"lat":-9.41021,"pop":0},{"id":2109500,"name":"Canaan","lon":161.00371,"lat":-8.84849,"pop":0},{"id":2109494,"name":"Chachara","lon":159.71667,"lat":-9.68333,"pop":0},{"id":2109491,"name":"Chaghoe","lon":159.67393,"lat":-9.61926,"pop":0},{"id":2109480,"name":"Chakundale","alt":["Lakatana"],"lon":159.87765,"lat":-9.74799,"pop":0},{"id":2109479,"name":"Chaliaru","lon":159.95021,"lat":-9.70517,"pop":0},{"id":2109478,"name":"Chalimpale","lon":160.06667,"lat":-9.8,"pop":0},{"id":2109471,"name":"Chapana","lon":159.74004,"lat":-9.72195,"pop":0},{"id":2109469,"name":"Chapunamo","lon":159.76567,"lat":-9.73088,"pop":0},{"id":2109468,"name":"Chapuru","alt":["Sapuru","Tsapuru"],"lon":159.71976,"lat":-9.25689,"pop":0},{"id":2109464,"name":"Charanggao","alt":["Karivasa"],"lon":160.23762,"lat":-9.80902,"pop":0},{"id":2109463,"name":"Charanimate","lon":159.85333,"lat":-9.73046,"pop":0},{"id":2109461,"name":"Charavutu","alt":["Malaisa","Malaisu"],"lon":160.27883,"lat":-9.81043,"pop":0},{"id":2109433,"name":"Chari Ndoke","lon":160.11667,"lat":-9.53333,"pop":0},{"id":2109456,"name":"Charihaivati","lon":160.14749,"lat":-9.58191,"pop":0},{"id":2109445,"name":"Chariko","lon":160.25,"lat":-9.58333,"pop":0},{"id":2109420,"name":"Chaukandora","lon":159.87958,"lat":-9.71292,"pop":0},{"id":2109416,"name":"Chaunarogha","alt":["Chaunaroga","Chauneroga"],"lon":159.95,"lat":-9.78333,"pop":0},{"id":2109414,"name":"Chautivi","lon":160.36667,"lat":-9.65,"pop":0},{"id":2109412,"name":"Chavunggao","alt":["Gavanga","Gavango"],"lon":159.59791,"lat":-9.35037,"pop":0},{"id":2109411,"name":"Chea","lon":158.01586,"lat":-8.5022,"pop":0},{"id":2109409,"name":"Checheche","lon":160.37554,"lat":-9.81626,"pop":0},{"id":2109405,"name":"Cheke","lon":158.08568,"lat":-8.52596,"pop":0},{"id":2109403,"name":"Cheli","alt":["Neia"],"lon":159.59532,"lat":-9.498,"pop":0},{"id":2109402,"name":"Chelu","alt":["Saungulu","Sungulu"],"lon":160.23333,"lat":-9.8,"pop":0},{"id":2109398,"name":"Chemoho","lon":158.09346,"lat":-8.52785,"pop":0},{"id":2109399,"name":"Chemoho","lon":157.93333,"lat":-8.51667,"pop":0},{"id":2109389,"name":"Chili","alt":["Sili"],"lon":160.41992,"lat":-9.58436,"pop":0},{"id":2109388,"name":"Chimbakoghe","lon":159.88501,"lat":-9.7796,"pop":0},{"id":2109387,"name":"Chimbori","lon":160.41146,"lat":-9.82467,"pop":0},{"id":2109381,"name":"Chinatown","lon":160.15,"lat":-9.1,"pop":0},{"id":2109377,"name":"Chiri","lon":159.81667,"lat":-9.45,"pop":0},{"id":2109373,"name":"Chirovanga","alt":["Chorovanga","Chörovanga"],"lon":156.55123,"lat":-6.64751,"pop":0},{"id":2109371,"name":"Chivoko","lon":156.55,"lat":-6.63333,"pop":0},{"id":2109368,"name":"Chocho","lon":160.13578,"lat":-9.81546,"pop":0},{"id":2109369,"name":"Chocho","lon":159.88333,"lat":-9.76667,"pop":0},{"id":2109366,"name":"Chochokiki","lon":159.6,"lat":-9.51667,"pop":0},{"id":2109363,"name":"Choghiri","lon":160.18004,"lat":-9.81287,"pop":0},{"id":2109361,"name":"Choha","lon":160.23674,"lat":-9.6314,"pop":0},{"id":2109355,"name":"Chokare","lon":160.41387,"lat":-9.58772,"pop":0},{"id":2109350,"name":"Chombonavaka","lon":159.65,"lat":-9.58333,"pop":0},{"id":2109347,"name":"Chombu","lon":157.9,"lat":-8.7,"pop":0},{"id":2109343,"name":"Chouna","lon":160.23234,"lat":-9.67816,"pop":0},{"id":2109338,"name":"Chuchulu","lon":157.89278,"lat":-8.5123,"pop":0},{"id":2109336,"name":"Chukakonia","lon":160.63378,"lat":-9.82004,"pop":0},{"id":2109334,"name":"Chuma","lon":160.27745,"lat":-9.77683,"pop":0},{"id":2109331,"name":"Chupuchupu","lon":160.39863,"lat":-9.81812,"pop":0},{"id":2109325,"name":"Chuva","lon":160.18333,"lat":-9.5,"pop":0},{"id":2109310,"name":"Dada’isalu","lon":160.70696,"lat":-8.72036,"pop":0},{"id":2109309,"name":"Dadaku’ulua","lon":160.70659,"lat":-8.56926,"pop":0},{"id":2109308,"name":"Dadale","lon":159.11667,"lat":-8.11667,"pop":0},{"id":2113915,"name":"Dai","lon":156.63333,"lat":-8.05,"pop":0},{"id":2109304,"name":"Dala","lon":160.68479,"lat":-8.59866,"pop":0},{"id":2109302,"name":"Dalamata","lon":160.68333,"lat":-8.66667,"pop":0},{"id":2109294,"name":"Daolusu","lon":160.74511,"lat":-8.85459,"pop":0},{"id":2109291,"name":"Daringali","lon":160.91667,"lat":-8.53333,"pop":0},{"id":2109290,"name":"Darione","lon":160.87603,"lat":-8.7225,"pop":0},{"id":2109286,"name":"Dau","lon":160.75,"lat":-8.63333,"pop":0},{"id":2109285,"name":"Dauta’e","lon":161.05989,"lat":-8.95251,"pop":0},{"id":2109283,"name":"Dedeu","lon":158.86984,"lat":-7.96393,"pop":0},{"id":2109278,"name":"Dhadhaje","lon":159.80035,"lat":-8.52653,"pop":0},{"id":2109277,"name":"Dhavoa","lon":160.37312,"lat":-9.48138,"pop":0},{"id":2206972,"name":"Di’una","lon":161.31585,"lat":-10.34536,"pop":0},{"id":2109272,"name":"Dikona’ara","lon":160.81854,"lat":-8.32668,"pop":0},{"id":2109270,"name":"Dinare","lon":160.91667,"lat":-9.16667,"pop":0},{"id":2109269,"name":"Dingodingo","lon":160.90005,"lat":-8.76657,"pop":0},{"id":2109263,"name":"Domu","lon":159.54134,"lat":-8.23375,"pop":0},{"id":2109257,"name":"Down Wind","alt":["Kolokeleve"],"lon":159.75,"lat":-8.28333,"pop":0},{"id":2109251,"name":"Dukwasi","lon":160.85,"lat":-8.75,"pop":0},{"id":2109248,"name":"Dundurava","lon":157.14164,"lat":-7.12682,"pop":0},{"id":2109237,"name":"Eghelo","alt":["Egelo"],"lon":157.36667,"lat":-8.4,"pop":0},{"id":2109233,"name":"Eke","lon":161.18333,"lat":-9.38333,"pop":0},{"id":2109229,"name":"Eleoteve","alt":["Eliotavi"],"lon":156.72401,"lat":-7.83086,"pop":0},{"id":2109228,"name":"Eliote","lon":161.40781,"lat":-9.52015,"pop":0},{"id":2109218,"name":"Ena","alt":["Aena"],"lon":156.6,"lat":-8.11667,"pop":0},{"id":2109217,"name":"Enara","lon":156.6394,"lat":-6.67076,"pop":0},{"id":2109213,"name":"Engarano","alt":["Enarano"],"lon":157.23472,"lat":-8.29767,"pop":0},{"id":9794243,"name":"Ereere Village","lon":161.72746,"lat":-10.28705,"pop":0},{"id":2109204,"name":"Erenahata","lon":161.2,"lat":-9.21667,"pop":0},{"id":2109195,"name":"Etehonu","lon":161.21667,"lat":-9.26667,"pop":0},{"id":2109194,"name":"Etei’a","lon":161.2,"lat":-9.06667,"pop":0},{"id":2178826,"name":"Etemwarore","alt":["Etamarorai"],"lon":161.54298,"lat":-10.27847,"pop":0},{"id":2109187,"name":"Fa’arau","lon":160.74376,"lat":-8.85163,"pop":0},{"id":2109185,"name":"Fa’asileta","lon":160.93922,"lat":-8.68801,"pop":0},{"id":2109189,"name":"Faalau","lon":160.7,"lat":-8.5,"pop":0},{"id":2109188,"name":"Faandile","lon":160.76405,"lat":-8.45925,"pop":0},{"id":2109186,"name":"Faasaale","lon":160.7119,"lat":-8.53561,"pop":0},{"id":2109183,"name":"Fafa’idodo","lon":160.88431,"lat":-8.76521,"pop":0},{"id":2109182,"name":"Fafa’ikafo","lon":160.8,"lat":-8.6,"pop":0},{"id":2109181,"name":"Fafalona","alt":["Fafaiona"],"lon":161.01667,"lat":-8.93333,"pop":0},{"id":2178824,"name":"Fagani","alt":["Fagini"],"lon":161.62954,"lat":-10.34189,"pop":0},{"id":2178823,"name":"Fagheifa","alt":["Fageifa"],"lon":162.35096,"lat":-10.84366,"pop":0},{"id":2109178,"name":"Faiako","lon":160.70238,"lat":-8.71072,"pop":0},{"id":2109177,"name":"Faibubulia","lon":160.69809,"lat":-8.75405,"pop":0},{"id":2109169,"name":"Falamae","lon":155.57494,"lat":-7.39874,"pop":0},{"id":2109168,"name":"Falambulu","alt":["Falabulu"],"lon":160.73333,"lat":-8.83333,"pop":0},{"id":2109164,"name":"Fanelei","alt":["Fanalei"],"lon":161.55116,"lat":-9.55951,"pop":0},{"id":2109162,"name":"Fangamboni","lon":161.00911,"lat":-8.96893,"pop":0},{"id":2109161,"name":"Fanuafalai","lon":161.04273,"lat":-8.93609,"pop":0},{"id":2109160,"name":"Fanuamba’ita","lon":161.01667,"lat":-8.91667,"pop":0},{"id":2109155,"name":"Farisi","lon":161.06667,"lat":-8.9,"pop":0},{"id":2109154,"name":"Farumalaula","lon":161.03333,"lat":-8.83333,"pop":0},{"id":2109150,"name":"Fata’olo","lon":160.79022,"lat":-8.39921,"pop":0},{"id":2109146,"name":"Fauabu","lon":160.74466,"lat":-8.82202,"pop":0},{"id":2109147,"name":"Fauabu","lon":160.71667,"lat":-8.56667,"pop":0},{"id":2109144,"name":"Fauala","alt":["Faua'ala","Faua’ala"],"lon":160.77755,"lat":-8.83967,"pop":0},{"id":2109142,"name":"Faubala","lon":160.87151,"lat":-8.7774,"pop":0},{"id":2109141,"name":"Faufala","lon":160.7376,"lat":-8.86876,"pop":0},{"id":2109140,"name":"Faufalu","lon":161.01667,"lat":-8.83333,"pop":0},{"id":2109139,"name":"Faufanea","alt":["Orumba"],"lon":160.71305,"lat":-8.33732,"pop":0},{"id":2109135,"name":"Fauiolo","lon":160.71667,"lat":-8.75,"pop":0},{"id":2109133,"name":"Fauketa","lon":160.84972,"lat":-8.74379,"pop":0},{"id":2109131,"name":"Faulaloia","lon":160.73855,"lat":-8.54889,"pop":0},{"id":2109130,"name":"Faumamanu","alt":["Faumamanu Itolo"],"lon":160.93271,"lat":-8.7806,"pop":0},{"id":2109129,"name":"Faumbaekwa","lon":160.88333,"lat":-8.46667,"pop":0},{"id":2109128,"name":"Faunikari","lon":161.00187,"lat":-8.65611,"pop":0},{"id":11001218,"name":"Fauro I","lon":156.0971,"lat":-6.90457,"pop":0},{"id":2109125,"name":"Fausindio","alt":["Fausadio"],"lon":160.79346,"lat":-8.86477,"pop":0},{"id":2109119,"name":"Ferafalu","lon":160.95,"lat":-8.66667,"pop":0},{"id":2109120,"name":"Ferafalu","lon":160.79004,"lat":-8.29156,"pop":0},{"id":2109115,"name":"Feranagono","lon":160.95364,"lat":-8.69273,"pop":0},{"id":2109114,"name":"Feranaso","lon":160.95,"lat":-8.55,"pop":0},{"id":2109112,"name":"Ferasi","lon":160.9238,"lat":-8.76018,"pop":0},{"id":2109111,"name":"Ferasimi","lon":160.95,"lat":-8.68333,"pop":0},{"id":2109106,"name":"Fifihu","lon":159.59993,"lat":-8.30174,"pop":0},{"id":2109104,"name":"Filuo","lon":158.65249,"lat":-7.79266,"pop":0},{"id":2109099,"name":"Firifau","lon":160.74272,"lat":-8.8608,"pop":0},{"id":2109096,"name":"Fiti","lon":160.58636,"lat":-8.33823,"pop":0},{"id":2109095,"name":"Fiu","alt":["Fiu Mission"],"lon":160.70423,"lat":-8.72417,"pop":0},{"id":2109092,"name":"Fiumbu","lon":160.85632,"lat":-8.48883,"pop":0},{"id":2109087,"name":"Fo’au","lon":160.76511,"lat":-8.91276,"pop":0},{"id":2109082,"name":"Fo’ondo","lon":160.65152,"lat":-8.46009,"pop":0},{"id":2178819,"name":"Foa","lon":165.86667,"lat":-10.66667,"pop":0},{"id":2109088,"name":"Foafora","lon":159.50605,"lat":-8.25222,"pop":0},{"id":2109084,"name":"Folotana","lon":160.67613,"lat":-8.48209,"pop":0},{"id":2109080,"name":"Fote","lon":160.9417,"lat":-8.82306,"pop":0},{"id":2109081,"name":"Fote","lon":160.66375,"lat":-8.63124,"pop":0},{"id":2109074,"name":"Fouambu","lon":160.80114,"lat":-8.40655,"pop":0},{"id":2109069,"name":"Fouia","lon":160.84259,"lat":-8.45665,"pop":0},{"id":2109067,"name":"Foukwakwaoa","lon":160.74946,"lat":-8.33318,"pop":0},{"id":2109065,"name":"Foulandasusu","alt":["Foulanoasusu"],"lon":161.03651,"lat":-8.91681,"pop":0},{"id":2109064,"name":"Foumamatoo","lon":160.75931,"lat":-8.29498,"pop":0},{"id":2109062,"name":"Fouongge","lon":161.06667,"lat":-8.91667,"pop":0},{"id":2109061,"name":"Foutoru","lon":161.05,"lat":-8.93333,"pop":0},{"id":2109058,"name":"Fuaga","lon":160.89852,"lat":-8.51578,"pop":0},{"id":2109055,"name":"Fugu","lon":160.78252,"lat":-8.66085,"pop":0},{"id":2109054,"name":"Fukha","lon":159.63389,"lat":-8.17114,"pop":0},{"id":2109053,"name":"Fula","lon":161.15792,"lat":-8.97738,"pop":0},{"id":2109052,"name":"Fula’ambu","lon":161.06543,"lat":-8.94882,"pop":0},{"id":2109050,"name":"Fuli","lon":160.7404,"lat":-8.83948,"pop":0},{"id":2109049,"name":"Fuliabote","lon":160.96667,"lat":-8.63333,"pop":0},{"id":2109048,"name":"Fulifata’a","lon":160.8827,"lat":-8.80763,"pop":0},{"id":2109047,"name":"Fulifo’oe","lon":160.579,"lat":-8.33194,"pop":0},{"id":2109046,"name":"Fuligura","lon":160.83452,"lat":-8.72016,"pop":0},{"id":2109045,"name":"Fulisango","lon":160.7537,"lat":-8.74471,"pop":0},{"id":2109044,"name":"Fulitafe","lon":160.73905,"lat":-8.40307,"pop":0},{"id":2109043,"name":"Fulo","alt":["Hulo"],"lon":160.82959,"lat":-9.09242,"pop":0},{"id":2178816,"name":"Funakumwa","alt":["Funakuma"],"lon":162.26346,"lat":-10.83959,"pop":0},{"id":2109039,"name":"Funiau","lon":161.03333,"lat":-8.86667,"pop":0},{"id":2109038,"name":"Funii’au","lon":161.03333,"lat":-8.9,"pop":0},{"id":2109037,"name":"Fupukuna","lon":159.54393,"lat":-8.14058,"pop":0},{"id":2109034,"name":"Furi’ilai","lon":161.01877,"lat":-8.96167,"pop":0},{"id":2109036,"name":"Furii","lon":160.73333,"lat":-8.4,"pop":0},{"id":2109035,"name":"Furii’au","lon":161.06667,"lat":-8.91667,"pop":0},{"id":2109033,"name":"Furona","lon":159.096,"lat":-8.12733,"pop":0},{"id":2109031,"name":"Furuana","lon":160.68333,"lat":-8.46667,"pop":0},{"id":2109030,"name":"Gagalu","lon":160.96998,"lat":-8.60732,"pop":0},{"id":2109022,"name":"Galilee","lon":160.36455,"lat":-9.47697,"pop":0},{"id":2109018,"name":"Galovae","lon":156.99608,"lat":-7.24213,"pop":0},{"id":2109012,"name":"Gatakesa","lon":156.76667,"lat":-7.01667,"pop":0},{"id":2109009,"name":"Gegena’ua","lon":160.71667,"lat":-8.75,"pop":0},{"id":2109002,"name":"Ghaghagra","lon":159.5112,"lat":-8.22631,"pop":0},{"id":2108999,"name":"Ghaghaolo","lon":159.55,"lat":-8.3,"pop":0},{"id":2108997,"name":"Ghaghara","alt":["Gagara"],"lon":157.11711,"lat":-7.05508,"pop":0},{"id":2108986,"name":"Ghaimali","alt":["Gaimali"],"lon":160.14392,"lat":-9.41286,"pop":0},{"id":2108985,"name":"Ghaimanggere","lon":160.19696,"lat":-9.79363,"pop":0},{"id":2108984,"name":"Ghairavu","alt":["Goiravu"],"lon":160.285,"lat":-9.10817,"pop":0},{"id":2108983,"name":"Ghaisere","alt":["Nagonangitsu","Nalaguthue"],"lon":160.26332,"lat":-9.80709,"pop":0},{"id":2108982,"name":"Ghaivale","alt":["Awale","Gauale"],"lon":159.66667,"lat":-9.61667,"pop":0},{"id":2108978,"name":"Ghaliatu","alt":["Galiatu","Haliatu"],"lon":160.08571,"lat":-9.81868,"pop":0},{"id":2108976,"name":"Ghalimbere","lon":159.82757,"lat":-9.79143,"pop":0},{"id":2108969,"name":"Ghaningangao","lon":159.6,"lat":-9.43333,"pop":0},{"id":2108966,"name":"Ghaomai","lon":155.6431,"lat":-7.06398,"pop":0},{"id":2108957,"name":"Gharina","lon":159.68278,"lat":-8.54163,"pop":0},{"id":2108954,"name":"Gharufate","alt":["Garofate"],"lon":159.53215,"lat":-8.36012,"pop":0},{"id":2108948,"name":"Ghatere","alt":["Gatere"],"lon":156.98195,"lat":-8.07795,"pop":0},{"id":2108940,"name":"Ghauvalisi","lon":159.83329,"lat":-9.73421,"pop":0},{"id":2108939,"name":"Ghavagha","alt":["Gavaga","Tatira"],"lon":159.71408,"lat":-9.69778,"pop":0},{"id":2108937,"name":"Ghavigha","lon":160.1822,"lat":-9.81155,"pop":0},{"id":2108936,"name":"Ghavighanimumu","lon":160.54489,"lat":-9.54323,"pop":0},{"id":2108931,"name":"Gheghende","alt":["Gegenda","Gegende"],"lon":160.43017,"lat":-9.50228,"pop":0},{"id":2178813,"name":"Gheighei","alt":["Geigei"],"lon":161.78625,"lat":-10.72702,"pop":0},{"id":2178812,"name":"Gheta","alt":["Geta"],"lon":162.28186,"lat":-10.84331,"pop":0},{"id":2108904,"name":"Ghole","alt":["Gole"],"lon":160.38884,"lat":-9.12153,"pop":0},{"id":2108900,"name":"Ghombaghoghoro","lon":159.83303,"lat":-9.76869,"pop":0},{"id":2108899,"name":"Ghombua","alt":["Gembua","Gombua"],"lon":160.43446,"lat":-9.51943,"pop":0},{"id":2108895,"name":"Ghorambau","lon":159.91491,"lat":-9.79511,"pop":0},{"id":2108896,"name":"Ghorambau","alt":["Gorabau","Gorambau"],"lon":160.23153,"lat":-9.42633,"pop":0},{"id":2108891,"name":"Ghoroghavutu","lon":160.08333,"lat":-9.81667,"pop":0},{"id":2108890,"name":"Ghoroghoro","lon":160.1803,"lat":-9.79694,"pop":0},{"id":2108889,"name":"Ghoromala","lon":159.82899,"lat":-9.79396,"pop":0},{"id":2108888,"name":"Ghoroveitughu","lon":160.17769,"lat":-9.79427,"pop":0},{"id":2108885,"name":"Ghove","lon":159.52319,"lat":-8.35141,"pop":0},{"id":2108884,"name":"Ghoveo","lon":159.40275,"lat":-8.00541,"pop":0},{"id":2108883,"name":"Ghoverighi","lon":159.63815,"lat":-9.55919,"pop":0},{"id":2108876,"name":"Ghulavu","alt":["Hulavu","Lavu","Nulavu"],"lon":159.60179,"lat":-9.39528,"pop":0},{"id":2108873,"name":"Ghumba","alt":["Gumba"],"lon":160.26193,"lat":-9.18379,"pop":0},{"id":2108870,"name":"Ghumu","lon":159.61064,"lat":-9.53756,"pop":0},{"id":2178809,"name":"Ghupuna","alt":["Gupuna","Upuna"],"lon":162.45518,"lat":-10.83658,"pop":0},{"id":2108865,"name":"Ghurumei","lon":159.7674,"lat":-8.27989,"pop":0},{"id":2108860,"name":"Gilbert 1","lon":159.98333,"lat":-9.45,"pop":0},{"id":2108859,"name":"Gilbert 2","lon":159.98333,"lat":-9.45,"pop":0},{"id":2108857,"name":"Gizo","alt":["GZO","Ghizo","Gizo Government Station","gizo","Гизо","ギゾ"],"lon":156.84186,"lat":-8.10303,"pop":7177},{"id":2108853,"name":"Gnulahaghe","lon":159.53859,"lat":-8.12923,"pop":0},{"id":2108852,"name":"Goe","lon":156.81596,"lat":-7.10322,"pop":0},{"id":2108848,"name":"Gold Ridge","lon":160.12722,"lat":-9.6059,"pop":0},{"id":2108839,"name":"Gotazae","lon":156.76667,"lat":-7.01667,"pop":0},{"id":8440705,"name":"Gounatolo","lon":160.83922,"lat":-8.45485,"pop":0},{"id":2108838,"name":"Gouulu","lon":160.70086,"lat":-8.31303,"pop":0},{"id":2108829,"name":"Guguha","lon":159.55,"lat":-8.11667,"pop":0},{"id":2108828,"name":"Gukhuna","lon":159.57269,"lat":-8.15583,"pop":0},{"id":2108825,"name":"Gurena","lon":159.6157,"lat":-8.17039,"pop":0},{"id":2108819,"name":"Gwa’idae","lon":160.77217,"lat":-8.68549,"pop":0},{"id":2108816,"name":"Gwa’ifaefae","lon":160.9,"lat":-8.75,"pop":0},{"id":2108814,"name":"Gwa’irade","lon":160.8,"lat":-8.65,"pop":0},{"id":2108813,"name":"Gwa’irakwana","lon":160.83333,"lat":-8.71667,"pop":0},{"id":2108824,"name":"Gwai’akama","lon":160.76667,"lat":-8.78333,"pop":0},{"id":2108820,"name":"Gwai’asai","lon":160.69292,"lat":-8.73665,"pop":0},{"id":2108823,"name":"Gwaiako","lon":160.75103,"lat":-8.72325,"pop":0},{"id":2108821,"name":"Gwaiareko","lon":160.7583,"lat":-8.34999,"pop":0},{"id":2108818,"name":"Gwaidae’dae","lon":160.70957,"lat":-8.73599,"pop":0},{"id":2108817,"name":"Gwaidingale","lon":160.76799,"lat":-8.92299,"pop":0},{"id":2108815,"name":"Gwaigeo","lon":160.68333,"lat":-8.7,"pop":0},{"id":2108812,"name":"Gwaisila","lon":160.81667,"lat":-8.81667,"pop":0},{"id":2108811,"name":"Gwaitamba’a","alt":["Gwa'itaba'a","Gwaitamba'a","Gwa’itaba’a"],"lon":160.78333,"lat":-8.8,"pop":0},{"id":2108810,"name":"Gwango","lon":160.71053,"lat":-8.33943,"pop":0},{"id":2108808,"name":"Gwaunaoa","lon":160.68509,"lat":-8.67497,"pop":0},{"id":2108807,"name":"Gwaunaruu","lon":160.68292,"lat":-8.70592,"pop":0},{"id":2108806,"name":"Gwaunasuu","alt":["Gwaunaruu"],"lon":160.79595,"lat":-8.39626,"pop":0},{"id":2108803,"name":"Gwaunatafu","lon":160.73032,"lat":-8.55641,"pop":0},{"id":2108802,"name":"Gwaunatala","lon":160.81667,"lat":-8.8,"pop":0},{"id":2108798,"name":"Haa","lon":160.19038,"lat":-9.07531,"pop":0},{"id":2108797,"name":"Haa’apu","lon":161.038,"lat":-9.28605,"pop":0},{"id":2108792,"name":"Haarumou","lon":161.29248,"lat":-9.52363,"pop":0},{"id":2108790,"name":"Hachogha","lon":160.16667,"lat":-9.8,"pop":0},{"id":2178805,"name":"Hada","alt":["Ha'atela","Ha’atela"],"lon":161.28111,"lat":-10.24954,"pop":0},{"id":2108787,"name":"Hadja","alt":["Hada"],"lon":161.95168,"lat":-9.77854,"pop":0},{"id":2108782,"name":"Haghalu","lon":160.17848,"lat":-9.09268,"pop":0},{"id":2178801,"name":"Hagharuhi","alt":["Hagharuhe"],"lon":161.93333,"lat":-10.8,"pop":0},{"id":2113893,"name":"Haghela","lon":160.16667,"lat":-9.01667,"pop":0},{"id":2108780,"name":"Hagheulu","lon":159.73598,"lat":-8.35557,"pop":0},{"id":2108775,"name":"Hahietau","lon":161.41028,"lat":-9.44472,"pop":0},{"id":2108773,"name":"Hahorarunu","alt":["Hahorarumu"],"lon":161.14132,"lat":-9.3028,"pop":0},{"id":2108769,"name":"Hailalua","lon":160.03133,"lat":-9.48871,"pop":0},{"id":2108766,"name":"Hailovo","lon":160.3,"lat":-9.73333,"pop":0},{"id":2108765,"name":"Hailupa","lon":160.05947,"lat":-9.4737,"pop":0},{"id":2108764,"name":"Haimarao","lon":160.41128,"lat":-9.86806,"pop":0},{"id":2108763,"name":"Haimatua","lon":160.40137,"lat":-9.86009,"pop":0},{"id":2108761,"name":"Haimbau","alt":["Verambasia"],"lon":160.33333,"lat":-9.7,"pop":0},{"id":2108760,"name":"Haimela","lon":160.24187,"lat":-9.68301,"pop":0},{"id":2108759,"name":"Haimolumolu","alt":["Na Mbocha"],"lon":160.40357,"lat":-9.80411,"pop":0},{"id":2108758,"name":"Hainatoha","alt":["Hainatogha"],"lon":160.57581,"lat":-9.70908,"pop":0},{"id":2108755,"name":"Haiparia","lon":160.21667,"lat":-9.7,"pop":0},{"id":2108753,"name":"Hairi","lon":159.69426,"lat":-8.51064,"pop":0},{"id":2108750,"name":"Haisavoria","alt":["Verasara"],"lon":160.23807,"lat":-9.62684,"pop":0},{"id":2108748,"name":"Haisighinia","lon":160.35622,"lat":-9.67493,"pop":0},{"id":2108745,"name":"Haitete","lon":160.37003,"lat":-9.71613,"pop":0},{"id":2108743,"name":"Haivoha","lon":160.42432,"lat":-9.79202,"pop":0},{"id":2108742,"name":"Hakama","lon":160.29279,"lat":-9.13159,"pop":0},{"id":2178800,"name":"Hakanipua","lon":161.72729,"lat":-10.26454,"pop":0},{"id":2108737,"name":"Halahala","alt":["Hala Hala Mission"],"lon":160.78333,"lat":-9.88333,"pop":0},{"id":2108735,"name":"Halavo","lon":160.20693,"lat":-9.10928,"pop":0},{"id":2108732,"name":"Haleta","alt":["Heleta"],"lon":160.11108,"lat":-9.09746,"pop":0},{"id":2108733,"name":"Haleta","lon":160.79039,"lat":-8.31564,"pop":0},{"id":2108727,"name":"Halisi","lon":157.89341,"lat":-8.68994,"pop":0},{"id":2108724,"name":"Haliupai","alt":["Kugk"],"lon":159.6,"lat":-9.41667,"pop":0},{"id":2108718,"name":"Hambere","alt":["Hamberi"],"lon":156.94789,"lat":-8.01377,"pop":0},{"id":2108716,"name":"Hambunameka","lon":160.38333,"lat":-9.65,"pop":0},{"id":2108711,"name":"Hamihumanga","lon":157.1,"lat":-8.28333,"pop":0},{"id":2108709,"name":"Hana’anaroho","lon":161.02217,"lat":-9.28489,"pop":0},{"id":2108700,"name":"Hang","lon":155.83333,"lat":-7,"pop":0},{"id":2178798,"name":"Hangataru","lon":161.31667,"lat":-10.18333,"pop":0},{"id":2108697,"name":"Hanianawa","lon":161.23333,"lat":-9.23333,"pop":0},{"id":2108695,"name":"Haninggela","lon":159.81667,"lat":-9.1,"pop":0},{"id":2108691,"name":"Hanjohapeule","lon":160.34856,"lat":-9.76953,"pop":0},{"id":2108687,"name":"Hanua’apa","lon":161.17329,"lat":-9.33958,"pop":0},{"id":2108686,"name":"Hanuaniupa","lon":161.1,"lat":-9.13333,"pop":0},{"id":2108685,"name":"Hanuasuu","lon":161.25,"lat":-9.2,"pop":0},{"id":2108684,"name":"Hanuvaivine","alt":["Hanivaivine","Hanivavine"],"lon":160.30949,"lat":-9.09491,"pop":0},{"id":2108679,"name":"Hapai","lon":161.0144,"lat":-9.27289,"pop":0},{"id":2108680,"name":"Hapai","alt":["Ghamburi"],"lon":157.56465,"lat":-8.29537,"pop":0},{"id":2108673,"name":"Hara’ina","lon":161.96088,"lat":-9.72141,"pop":0},{"id":2108674,"name":"Harai","lon":161.23387,"lat":-9.44486,"pop":0},{"id":2108675,"name":"Harai","lon":157.35,"lat":-8.55,"pop":0},{"id":2108672,"name":"Harana’eke","lon":161.1816,"lat":-9.07861,"pop":0},{"id":2108671,"name":"Harapa","lon":155.69916,"lat":-6.98636,"pop":0},{"id":2108668,"name":"Harea","lon":161.31667,"lat":-9.43333,"pop":0},{"id":2108667,"name":"Harehare","lon":155.85995,"lat":-7.0526,"pop":0},{"id":2108665,"name":"Harisi","lon":161.16667,"lat":-9.15,"pop":0},{"id":2108664,"name":"Harisiharihari","lon":161.2,"lat":-9.2,"pop":0},{"id":2108663,"name":"Harisiu","lon":161.03638,"lat":-9.24634,"pop":0},{"id":2108660,"name":"Haroro","alt":["Naroro"],"lon":160.11525,"lat":-9.02525,"pop":0},{"id":2108653,"name":"Hasupari","lon":161.21667,"lat":-9.41667,"pop":0},{"id":2108652,"name":"Hatakau","lon":161.17316,"lat":-9.24322,"pop":0},{"id":2108649,"name":"Hatodeea","lon":160.81274,"lat":-8.33495,"pop":0},{"id":2108646,"name":"Hauharii","lon":161.18792,"lat":-9.25328,"pop":0},{"id":2108645,"name":"Hauhato","lon":161.16667,"lat":-9.3,"pop":0},{"id":2108643,"name":"Hauhui","lon":160.96579,"lat":-9.22239,"pop":0},{"id":2108641,"name":"Haukoukou","lon":161.16667,"lat":-9.2,"pop":0},{"id":2108638,"name":"Haumera","lon":160.80781,"lat":-9.85347,"pop":0},{"id":2108637,"name":"Haupara","lon":161.00858,"lat":-9.26449,"pop":0},{"id":2108634,"name":"Hauporo","lon":161.00769,"lat":-9.25738,"pop":0},{"id":2108633,"name":"Hauporomaea","lon":161.08333,"lat":-9.28333,"pop":0},{"id":2108632,"name":"Hauposo","lon":161.48333,"lat":-9.5,"pop":0},{"id":2178789,"name":"Hauraha","lon":161.96763,"lat":-10.78512,"pop":0},{"id":2108627,"name":"Hautahe","alt":["Hautahi"],"lon":160.82826,"lat":-9.86108,"pop":0},{"id":2108624,"name":"Hautonima","lon":161.18333,"lat":-9.05,"pop":0},{"id":2108621,"name":"Haverughu","alt":["Havaruvu"],"lon":160.2667,"lat":-9.03586,"pop":0},{"id":2108615,"name":"Havila","lon":159.8,"lat":-8.51667,"pop":0},{"id":2178783,"name":"Henuangoto","lon":159.78333,"lat":-11.26667,"pop":0},{"id":2108592,"name":"Hera","lon":161.18333,"lat":-9.18333,"pop":0},{"id":2108593,"name":"Hera","lon":161.16676,"lat":-9.2931,"pop":0},{"id":2108590,"name":"Heraisiu","lon":161.2,"lat":-9.2,"pop":0},{"id":2108589,"name":"Herani’asuhe","lon":161.08333,"lat":-9.26667,"pop":0},{"id":2108588,"name":"Heraniesi","lon":161.48793,"lat":-9.5153,"pop":0},{"id":2108587,"name":"Heranihio","lon":161.16667,"lat":-9.35,"pop":0},{"id":2108584,"name":"Herepa’a","lon":161.39801,"lat":-9.4436,"pop":0},{"id":2108576,"name":"Heuhonu","lon":161.46495,"lat":-9.5414,"pop":0},{"id":2108574,"name":"Heupeine","lon":161.48621,"lat":-9.63897,"pop":0},{"id":2178781,"name":"Heuru","lon":161.43349,"lat":-10.21991,"pop":0},{"id":2108569,"name":"Hihiaka Patukae","alt":["Hihiaka","Patukae"],"lon":158.03333,"lat":-8.53333,"pop":0},{"id":2108561,"name":"Hilamondu","lon":160.36183,"lat":-9.65235,"pop":0},{"id":2108551,"name":"Hirihiriasi","lon":161.26667,"lat":-9.51667,"pop":0},{"id":2108550,"name":"Hirihiripopo","lon":160.77653,"lat":-9.88841,"pop":0},{"id":2108548,"name":"Hirosare","lon":159.57935,"lat":-8.29352,"pop":0},{"id":2108546,"name":"Hirovanga","lon":159.48333,"lat":-8.31667,"pop":0},{"id":2108542,"name":"Hiuasi","lon":161.2,"lat":-9.1,"pop":0},{"id":2108533,"name":"Hofi","lon":159.64709,"lat":-8.19292,"pop":0},{"id":2108521,"name":"Holebara","lon":159.56924,"lat":-8.14977,"pop":0},{"id":2108514,"name":"Homba","lon":160.40227,"lat":-9.79244,"pop":0},{"id":2108512,"name":"Hombahohoro","lon":160.1831,"lat":-9.5052,"pop":0},{"id":2108502,"name":"Honiara","alt":["HIR","Honiaro","Khoniara","Oniara","ho ni xa ra","honiala","honiara","huo ni ya la","hwnyara","Ονιάρα","Хониара","הוניארה","هونيارا","هونیارا","โฮนีอารา","ሆኒያራ","ホニアラ","霍尼亚拉","霍尼亞拉","호니아라"],"lon":159.95,"lat":-9.43333,"pop":56298},{"id":2108496,"name":"Honoa","lon":161.23762,"lat":-9.18127,"pop":0},{"id":2108488,"name":"Hopongo","alt":["Hofovo","Hofovō","New Paradise"],"lon":157.19862,"lat":-8.56471,"pop":0},{"id":2108484,"name":"Horanari","lon":161.23333,"lat":-9.36667,"pop":0},{"id":2113936,"name":"Horaniu","lon":156.73333,"lat":-7.68333,"pop":0},{"id":2108483,"name":"Horara","lon":159.80668,"lat":-8.41866,"pop":0},{"id":2108479,"name":"Horokao","lon":161.11667,"lat":-9.33333,"pop":0},{"id":2108478,"name":"Horouru","lon":161.18333,"lat":-9.06667,"pop":0},{"id":2108474,"name":"Hote","lon":161.47117,"lat":-9.53841,"pop":0},{"id":2108468,"name":"Hou’ao","lon":161.2,"lat":-9.08333,"pop":0},{"id":2108470,"name":"Houa","lon":160.76651,"lat":-9.73563,"pop":0},{"id":2108469,"name":"Houaha","lon":161.23994,"lat":-9.40173,"pop":0},{"id":2108465,"name":"Houhepa","lon":161.18333,"lat":-9.1,"pop":0},{"id":2108463,"name":"Houhou","lon":161.1,"lat":-9.33333,"pop":0},{"id":2108462,"name":"Houhouna","lon":160.63652,"lat":-9.80599,"pop":0},{"id":2108460,"name":"Houkari","lon":161.16667,"lat":-9.35,"pop":0},{"id":2108459,"name":"Houkeni","lon":161.16667,"lat":-9.35,"pop":0},{"id":2108458,"name":"Houkokore","lon":161.23333,"lat":-9.16667,"pop":0},{"id":2108457,"name":"Houkona","lon":161.03171,"lat":-9.29398,"pop":0},{"id":2108455,"name":"Houmatana","lon":161.15113,"lat":-9.3054,"pop":0},{"id":2108453,"name":"Hounasi","lon":161.18333,"lat":-9.38333,"pop":0},{"id":2108451,"name":"Houoa","lon":161.23333,"lat":-9.45,"pop":0},{"id":2108448,"name":"Houparoparo","lon":161.23333,"lat":-9.21667,"pop":0},{"id":2108446,"name":"Houpuna","lon":161.25,"lat":-9.46667,"pop":0},{"id":2108442,"name":"Houri","lon":161.02313,"lat":-9.2494,"pop":0},{"id":2108441,"name":"Houripipisu","lon":161.26667,"lat":-9.2,"pop":0},{"id":2108440,"name":"Houripou","lon":161.26667,"lat":-9.16667,"pop":0},{"id":2108439,"name":"Houro","alt":["Rio'aaea","Rio’aaea"],"lon":161.11667,"lat":-9.18333,"pop":0},{"id":2108438,"name":"Houro’a","lon":161.20171,"lat":-9.28173,"pop":0},{"id":2108437,"name":"Houroho","alt":["Foulofo","Fulufo","Hauroho"],"lon":161.14102,"lat":-8.99395,"pop":0},{"id":2108435,"name":"Housuru","lon":161.2,"lat":-9.38333,"pop":0},{"id":2108434,"name":"Houte’ete’e","lon":161.21667,"lat":-9.23333,"pop":0},{"id":2108432,"name":"Hovi","lon":159.81474,"lat":-8.37076,"pop":0},{"id":2108429,"name":"Hovoro","lon":157.60071,"lat":-8.09559,"pop":0},{"id":2108428,"name":"Hovukoilo","lon":159.5186,"lat":-8.1094,"pop":0},{"id":2108425,"name":"Hu","lon":161.1,"lat":-9.3,"pop":0},{"id":2108353,"name":"Hu’umarere","lon":160.82906,"lat":-9.78994,"pop":0},{"id":2108424,"name":"Huali","lon":159.76347,"lat":-8.39527,"pop":0},{"id":2108419,"name":"Huehule","lon":159.71788,"lat":-8.30624,"pop":0},{"id":2108410,"name":"Huhuru","lon":159.93333,"lat":-9.43333,"pop":0},{"id":2108402,"name":"Hulina Manukiki","lon":160.12413,"lat":-9.53891,"pop":0},{"id":2108395,"name":"Hunahao","lon":161.2,"lat":-9.4,"pop":0},{"id":2108394,"name":"Hunahau","lon":161.18333,"lat":-9.4,"pop":0},{"id":2108393,"name":"Hunanaawa","lon":161.35452,"lat":-9.47177,"pop":0},{"id":2108392,"name":"Hunanahara","lon":161.08333,"lat":-9.3,"pop":0},{"id":2108391,"name":"Hunanapuru","lon":161.06667,"lat":-9.26667,"pop":0},{"id":2108390,"name":"Hunda","lon":157.00854,"lat":-8.0995,"pop":0},{"id":2108384,"name":"Huni’ama","lon":161.17416,"lat":-9.07859,"pop":0},{"id":2108383,"name":"Hunihara","lon":161.21667,"lat":-9.38333,"pop":0},{"id":2178776,"name":"Hunihu","lon":161.52123,"lat":-10.47953,"pop":0},{"id":2108382,"name":"Hunimasi","lon":161.18333,"lat":-9.3,"pop":0},{"id":2108380,"name":"Hunouri","lon":161.18106,"lat":-9.22585,"pop":0},{"id":2178774,"name":"Hunurama","alt":["Huno Ramu"],"lon":161.53756,"lat":-10.56101,"pop":0},{"id":2178773,"name":"Hunuta","lon":161.75083,"lat":-10.2355,"pop":0},{"id":2108372,"name":"Hurakaia","lon":161.15,"lat":-9.28333,"pop":0},{"id":2108371,"name":"Huranahai","lon":160.59018,"lat":-9.71114,"pop":0},{"id":2108370,"name":"Huranja","alt":["Guranja","Gurauja"],"lon":159.81667,"lat":-9.38333,"pop":0},{"id":2108368,"name":"Hurasona","lon":161.23333,"lat":-9.4,"pop":0},{"id":2108367,"name":"Hure","lon":161.4,"lat":-9.46667,"pop":0},{"id":2108366,"name":"Hurepelo","lon":159.21829,"lat":-8.19889,"pop":0},{"id":2108363,"name":"Huri’i","lon":161.34242,"lat":-9.4609,"pop":0},{"id":2108364,"name":"Hurihasu","lon":160.80212,"lat":-9.87552,"pop":0},{"id":2108362,"name":"Huro","lon":161.26667,"lat":-9.16667,"pop":0},{"id":2178771,"name":"Huro","lon":161.35738,"lat":-10.26302,"pop":0},{"id":2108360,"name":"Huru","lon":161.16667,"lat":-9.21667,"pop":0},{"id":2108361,"name":"Huru","lon":161.23333,"lat":-9.16667,"pop":0},{"id":8440715,"name":"Hutarohaghi","lon":161.66309,"lat":-10.62354,"pop":0},{"id":2108355,"name":"Huu","lon":161.21667,"lat":-9.43333,"pop":0},{"id":2178769,"name":"Iaru","alt":["Iaruraha"],"lon":162.04012,"lat":-10.80507,"pop":0},{"id":2108349,"name":"Igwa","lon":160.87898,"lat":-9.16495,"pop":0},{"id":2108342,"name":"Ikupaara","lon":161.16667,"lat":-9.1,"pop":0},{"id":2108341,"name":"Ilangana","alt":["Laiana"],"lon":157.28634,"lat":-8.33707,"pop":0},{"id":2108335,"name":"Ilikaliana","lon":160.69786,"lat":-8.69881,"pop":0},{"id":2108334,"name":"Iliki","lon":160.71667,"lat":-8.45,"pop":0},{"id":8440203,"name":"Ilu","lon":160.11924,"lat":-9.4517,"pop":0},{"id":2108328,"name":"Imana","lon":157.10634,"lat":-8.28608,"pop":0},{"id":2108325,"name":"Imomoru","alt":["Sanabogo"],"lon":159.7,"lat":-9.66667,"pop":0},{"id":2108322,"name":"Ina Ghau","alt":["Inagau"],"lon":160.0093,"lat":-9.8134,"pop":0},{"id":2108321,"name":"Ina Ghavigha","lon":160.03384,"lat":-9.80934,"pop":0},{"id":2108319,"name":"Ina Ghoana","lon":160.01667,"lat":-9.8,"pop":0},{"id":2108316,"name":"Ina Kala","lon":160,"lat":-9.78333,"pop":0},{"id":2108317,"name":"Ina Kala","alt":["Smalo"],"lon":160.11968,"lat":-9.8153,"pop":0},{"id":2108314,"name":"Ina Kongga","lon":160.14129,"lat":-9.76258,"pop":0},{"id":2108313,"name":"Ina Kua","lon":160.15995,"lat":-9.79277,"pop":0},{"id":2108312,"name":"Ina Mati","lon":160.16667,"lat":-9.76667,"pop":0},{"id":2108310,"name":"Ina Mbombo","lon":160.21667,"lat":-9.78333,"pop":0},{"id":2108305,"name":"Ina Puru","lon":160,"lat":-9.8,"pop":0},{"id":2108304,"name":"Ina Ravu","lon":160.17485,"lat":-9.80069,"pop":0},{"id":2108301,"name":"Ina Vindi","lon":159.96667,"lat":-9.8,"pop":0},{"id":2108299,"name":"Ina Visa","lon":160.02523,"lat":-9.81289,"pop":0},{"id":2108315,"name":"Inakona","alt":["Inakona Mission"],"lon":160.04057,"lat":-9.82047,"pop":0},{"id":2108284,"name":"Iofana","lon":161.05564,"lat":-8.94995,"pop":0},{"id":2108283,"name":"Ione","lon":160.81697,"lat":-9.86262,"pop":0},{"id":2108282,"name":"Iramarore","lon":161.21667,"lat":-9.21667,"pop":0},{"id":2108279,"name":"Ireke","lon":157.01234,"lat":-8.09849,"pop":0},{"id":2108278,"name":"Iremaea","lon":161.28333,"lat":-9.2,"pop":0},{"id":2108277,"name":"Irindofe","alt":["Furindofe"],"lon":160.6502,"lat":-8.45762,"pop":0},{"id":2108276,"name":"Iringgila","lon":156.51787,"lat":-7.60678,"pop":0},{"id":2108275,"name":"Iripaina","lon":161.23333,"lat":-9.31667,"pop":0},{"id":2108274,"name":"Iriri","lon":156.95883,"lat":-8.0387,"pop":0},{"id":2108267,"name":"Ironunu","alt":["Inanunu","Iranumu","Iranunu"],"lon":161.01667,"lat":-8.83333,"pop":0},{"id":2108264,"name":"Irowai","lon":161.19686,"lat":-9.23026,"pop":0},{"id":2108263,"name":"Iruiru","alt":["Itina"],"lon":159.84129,"lat":-9.7969,"pop":0},{"id":2108259,"name":"Isiisu","lon":160.26667,"lat":-9.56667,"pop":0},{"id":2108258,"name":"Isipeni","lon":160.52034,"lat":-9.64427,"pop":0},{"id":2108255,"name":"Isuisu","lon":160.09244,"lat":-9.81712,"pop":0},{"id":2108256,"name":"Isuisu","alt":["Vatalochi","Vatuloki"],"lon":159.92687,"lat":-9.79935,"pop":0},{"id":2108254,"name":"Isuna","alt":["Veravaulo","Veravaulu"],"lon":159.96287,"lat":-9.80556,"pop":0},{"id":2108253,"name":"Isunavara","lon":159.68897,"lat":-9.65457,"pop":0},{"id":2108246,"name":"Jaklo","lon":159.73595,"lat":-8.33971,"pop":0},{"id":2108244,"name":"Japuana","lon":159.77547,"lat":-8.49971,"pop":0},{"id":2108242,"name":"Jarava","lon":159.82688,"lat":-8.32739,"pop":0},{"id":2108237,"name":"Jejevo","lon":159.6,"lat":-8.13333,"pop":0},{"id":2178764,"name":"Kaanggua","lon":160.00971,"lat":-11.51661,"pop":0},{"id":2108221,"name":"Kaekui","lon":156.81667,"lat":-6.81667,"pop":0},{"id":8440146,"name":"Kaevaga","lon":159.56602,"lat":-8.37653,"pop":0},{"id":2108219,"name":"Kafema’u","lon":159.53959,"lat":-8.24019,"pop":0},{"id":2108217,"name":"Kafo’elia","alt":["Kafo'elia","Lu'ue","Lu’ue"],"lon":160.88333,"lat":-8.61667,"pop":0},{"id":2108218,"name":"Kafoambu","lon":160.63333,"lat":-8.35,"pop":0},{"id":2108216,"name":"Kafoi’ilo","lon":160.73561,"lat":-8.36809,"pop":0},{"id":2108211,"name":"Kafulafiu","lon":160.9,"lat":-8.85,"pop":0},{"id":2108197,"name":"Kaio","lon":160.30454,"lat":-9.42657,"pop":0},{"id":2108188,"name":"Kakake","lon":160.06264,"lat":-9.81816,"pop":0},{"id":2108187,"name":"Kakalaa’ano","lon":160.76369,"lat":-8.55131,"pop":0},{"id":2108186,"name":"Kakalaka","lon":159.59725,"lat":-9.35271,"pop":0},{"id":2108185,"name":"Kakalambao","lon":160.2099,"lat":-9.67352,"pop":0},{"id":2108184,"name":"Kakalao","lon":160.27,"lat":-9.50079,"pop":0},{"id":2108182,"name":"Kakalokasa","lon":157.13116,"lat":-7.08014,"pop":0},{"id":2108181,"name":"Kakambona","alt":["Kakambona Villages","Kokombono","Kokumbona","Kukumbona"],"lon":159.91667,"lat":-9.41667,"pop":0},{"id":2108176,"name":"Kakara","lon":160.68658,"lat":-8.58388,"pop":0},{"id":2108174,"name":"Kakaro","lon":160.58925,"lat":-9.57191,"pop":0},{"id":2108172,"name":"Kakaru","lon":160.83886,"lat":-9.83932,"pop":0},{"id":2108173,"name":"Kakaru","lon":160.7,"lat":-8.33333,"pop":0},{"id":2108168,"name":"Kakatio","lon":159.54374,"lat":-8.21039,"pop":0},{"id":2108165,"name":"Kakavovo","alt":["Ina Maole"],"lon":159.99028,"lat":-9.80551,"pop":0},{"id":2108164,"name":"Kakaza","alt":["Kakasa"],"lon":157.01009,"lat":-7.25022,"pop":0},{"id":2108161,"name":"Kakendakena","lon":160.53333,"lat":-9.73333,"pop":0},{"id":2108157,"name":"Kalaka","alt":["Vangapisu"],"lon":159.79397,"lat":-9.14989,"pop":0},{"id":2108155,"name":"Kalala’ao","lon":160.73333,"lat":-8.55,"pop":0},{"id":2108152,"name":"Kalambisi","lon":160.7152,"lat":-9.77691,"pop":0},{"id":2108150,"name":"Kalanggwata","lon":160.75409,"lat":-8.86547,"pop":0},{"id":2108146,"name":"Kalavaolu","lon":160.17977,"lat":-9.79209,"pop":0},{"id":2108143,"name":"Kalenga","lon":159.83566,"lat":-8.55135,"pop":0},{"id":2108137,"name":"Kalima","lon":160.41623,"lat":-9.65954,"pop":0},{"id":2108136,"name":"Kalimai","lon":161.9837,"lat":-9.72211,"pop":0},{"id":2108131,"name":"Kaloka","lon":159.80397,"lat":-8.3117,"pop":0},{"id":2108129,"name":"Kalona","lon":161.53363,"lat":-9.56251,"pop":0},{"id":2108127,"name":"Kamaleai","lon":155.72598,"lat":-6.96011,"pop":0},{"id":2108123,"name":"Kamaleai 2","alt":["Kamaleai"],"lon":155.71667,"lat":-6.96667,"pop":0},{"id":2108122,"name":"Kamangga","lon":157.03732,"lat":-6.95388,"pop":0},{"id":2108120,"name":"Kamanjikoko","lon":160.58366,"lat":-9.78665,"pop":0},{"id":2108119,"name":"Kamaosi","lon":159.81126,"lat":-8.47743,"pop":0},{"id":2108107,"name":"Kanata","alt":["Lalloassi"],"lon":161.17899,"lat":-9.08947,"pop":0},{"id":2178760,"name":"Kanava’eha","lon":160.16219,"lat":-11.62481,"pop":0},{"id":2108106,"name":"Kanda","lon":160.23494,"lat":-9.69463,"pop":0},{"id":2108104,"name":"Kandiavata","lon":159.8,"lat":-9.15,"pop":0},{"id":2108102,"name":"Kandova","lon":157.00193,"lat":-6.89223,"pop":0},{"id":2178758,"name":"Kanggava","lon":160.31868,"lat":-11.68535,"pop":0},{"id":2108093,"name":"Kaoka","alt":["Kau Kau Mission"],"lon":160.68333,"lat":-9.7,"pop":0},{"id":2178757,"name":"Kaokaona","alt":["Kaukona"],"lon":161.6983,"lat":-10.38781,"pop":0},{"id":2178756,"name":"Kaonasughu","alt":["Kaonasugu","Kaunasugu"],"lon":161.78231,"lat":-10.41517,"pop":0},{"id":2108084,"name":"Kaonggele","lon":159.83516,"lat":-9.14477,"pop":0},{"id":2108083,"name":"Kaori","lon":159.61667,"lat":-8.15,"pop":0},{"id":2108081,"name":"Kaotave","lon":160.24387,"lat":-9.44873,"pop":0},{"id":2108079,"name":"Kapasiro","lon":159.55,"lat":-8.25,"pop":0},{"id":2108074,"name":"Kapeu","lon":160.83333,"lat":-9.81667,"pop":0},{"id":2108073,"name":"Kapicha","lon":160.06129,"lat":-9.7986,"pop":0},{"id":2108072,"name":"Kapika","lon":157.09232,"lat":-6.95707,"pop":0},{"id":2108065,"name":"Karaka","lon":156.67862,"lat":-7.65663,"pop":0},{"id":2108056,"name":"Kareki","lon":156.09396,"lat":-6.90089,"pop":0},{"id":2108049,"name":"Karinara","lon":161.21667,"lat":-9.41667,"pop":0},{"id":2108050,"name":"Karinara","lon":161.06667,"lat":-9.31667,"pop":0},{"id":2108048,"name":"Karo","lon":159.71513,"lat":-9.69565,"pop":0},{"id":2108046,"name":"Karokaro","lon":161.25,"lat":-9.31667,"pop":0},{"id":2108047,"name":"Karokaro","lon":161.14372,"lat":-9.1471,"pop":0},{"id":2108043,"name":"Karona","lon":161.16679,"lat":-9.14611,"pop":0},{"id":2108014,"name":"Karu’uu","lon":161.40677,"lat":-9.46934,"pop":0},{"id":2108035,"name":"Karukaru","lon":160.55,"lat":-9.88333,"pop":0},{"id":2108016,"name":"Karupopora","alt":["Karipaupapa"],"lon":160.80215,"lat":-9.87754,"pop":0},{"id":2108011,"name":"Kasarongo","lon":159.70425,"lat":-8.41878,"pop":0},{"id":8440149,"name":"Kasera","lon":159.81342,"lat":-8.46597,"pop":0},{"id":2108009,"name":"Kasimburu","lon":161.07193,"lat":-8.92685,"pop":0},{"id":2107999,"name":"Katurasele","lon":156.90548,"lat":-7.19624,"pop":0},{"id":2107997,"name":"Kau","alt":["Kowowugy"],"lon":159.59251,"lat":-9.49759,"pop":0},{"id":2107996,"name":"Kauchupuchupu","lon":159.77444,"lat":-9.73119,"pop":0},{"id":2107988,"name":"Kausa","lon":160.35105,"lat":-9.79369,"pop":0},{"id":2107987,"name":"Kauva","lon":160.14521,"lat":-9.76736,"pop":0},{"id":2107986,"name":"Kauvare","alt":["Simuli"],"lon":159.60207,"lat":-9.42434,"pop":0},{"id":2107983,"name":"Kava","lon":159.54932,"lat":-8.3504,"pop":0},{"id":2107981,"name":"Kavahambe","lon":160.18333,"lat":-9.53333,"pop":0},{"id":2107977,"name":"Kavo","lon":159.98333,"lat":-9.7,"pop":0},{"id":2107976,"name":"Kavoa","lon":160.55,"lat":-9.83333,"pop":0},{"id":2107963,"name":"Ke’ana","lon":161.16667,"lat":-8.98333,"pop":0},{"id":2107965,"name":"Keala","alt":["Kiala"],"lon":157.30073,"lat":-7.3871,"pop":0},{"id":2107962,"name":"Keara","lon":156.56174,"lat":-8.12813,"pop":0},{"id":2107952,"name":"Kekena","lon":160.29908,"lat":-9.48568,"pop":0},{"id":2107951,"name":"Kekepina","lon":159.66991,"lat":-8.28364,"pop":0},{"id":2107947,"name":"Kelakwai","lon":160.67279,"lat":-8.73952,"pop":0},{"id":2107936,"name":"Keloanamusu","lon":160.62313,"lat":-8.37451,"pop":0},{"id":2107934,"name":"Kelomari’i","lon":160.73333,"lat":-8.7,"pop":0},{"id":2107932,"name":"Kemane","lon":159.68511,"lat":-9.60169,"pop":0},{"id":2107926,"name":"Kemba","lon":159.8,"lat":-9.4,"pop":0},{"id":2107921,"name":"Kena","lon":157.01012,"lat":-8.09539,"pop":0},{"id":2107908,"name":"Keravuru","lon":160.14174,"lat":-9.42781,"pop":0},{"id":2107907,"name":"Kere","lon":161.01667,"lat":-9.25,"pop":0},{"id":2107903,"name":"Kerekoka","lon":160.36563,"lat":-9.41769,"pop":0},{"id":2107902,"name":"Keremanivo","lon":160.37513,"lat":-9.64693,"pop":0},{"id":2107901,"name":"Kerenapisi","lon":161.10336,"lat":-9.2025,"pop":0},{"id":2113788,"name":"Kerepei","lon":159.81667,"lat":-8.45,"pop":0},{"id":2178754,"name":"Kerepei","alt":["Kerepai"],"lon":161.73283,"lat":-10.28211,"pop":0},{"id":2107900,"name":"Kerepukavala","lon":160.15581,"lat":-9.79092,"pop":0},{"id":2107898,"name":"Keru","alt":["Keru Village"],"lon":157.6685,"lat":-8.19144,"pop":0},{"id":2107893,"name":"Kesao","lon":159.65846,"lat":-9.26596,"pop":0},{"id":2107890,"name":"Kesatamba","lon":160.39211,"lat":-9.85048,"pop":0},{"id":2107883,"name":"Ketoketo","lon":158.12096,"lat":-8.58628,"pop":0},{"id":2107879,"name":"Keviani","lon":157.11679,"lat":-8.29613,"pop":0},{"id":2107873,"name":"Kia","lon":158.44046,"lat":-7.5635,"pop":0},{"id":2107863,"name":"Kibelifolo","alt":["Kibelifolu"],"lon":160.74054,"lat":-8.84427,"pop":0},{"id":2107859,"name":"Kicho","lon":159.95,"lat":-9.45,"pop":0},{"id":2107853,"name":"Kikinocho","lon":159.99806,"lat":-9.81452,"pop":0},{"id":2107846,"name":"Kililonga","alt":["Lova"],"lon":160.34996,"lat":-9.78857,"pop":0},{"id":2107843,"name":"Kilokaka","lon":159.31798,"lat":-8.24189,"pop":0},{"id":2107842,"name":"Kilufali","lon":160.7,"lat":-8.68333,"pop":0},{"id":2107841,"name":"Kilufi","alt":["Kiluufi"],"lon":160.68933,"lat":-8.74318,"pop":0},{"id":2107840,"name":"Kilusakwalo","lon":160.70685,"lat":-8.74118,"pop":0},{"id":2107834,"name":"Kindivoroa","alt":["Karivalu"],"lon":160.32777,"lat":-9.8109,"pop":0},{"id":2107832,"name":"Kinoso","lon":156.93813,"lat":-7.21831,"pop":0},{"id":2107829,"name":"Kioramo","alt":["Obaum"],"lon":160.65782,"lat":-9.65861,"pop":0},{"id":2107825,"name":"Kira","lon":161.25,"lat":-9.33333,"pop":0},{"id":2178753,"name":"Kirakira","alt":["IRA","ji la ji la","kirakira","kyrakyra","Киракира","کیراکیرا","キラキラ","基拉基拉"],"lon":161.92045,"lat":-10.45442,"pop":3500},{"id":2107823,"name":"Kirighi","alt":["Kirigi"],"lon":160.26667,"lat":-9.11667,"pop":0},{"id":2107824,"name":"Kirighi","lon":159.66181,"lat":-8.46247,"pop":0},{"id":2107820,"name":"Kiripaasu","lon":161.23333,"lat":-9.2,"pop":0},{"id":2107817,"name":"Kiu","lon":161.03005,"lat":-9.29086,"pop":0},{"id":2107813,"name":"Kmagha","alt":["Kimaga"],"lon":159.68738,"lat":-8.21734,"pop":0},{"id":2107321,"name":"Ko’ombaita","lon":160.77393,"lat":-8.41754,"pop":0},{"id":2107809,"name":"Koa","lon":160.69754,"lat":-8.69319,"pop":0},{"id":2107807,"name":"Koaa","lon":161.06667,"lat":-8.91667,"pop":0},{"id":2107805,"name":"Koache","alt":["Imomoru","Maroco"],"lon":159.70213,"lat":-9.67586,"pop":0},{"id":2107804,"name":"Koalia","lon":160.73333,"lat":-8.86667,"pop":0},{"id":2107802,"name":"Koatolo","lon":160.69196,"lat":-8.68857,"pop":0},{"id":2107799,"name":"Koburu","lon":160.8,"lat":-8.31667,"pop":0},{"id":2107793,"name":"Kochitoa","lon":159.84862,"lat":-9.75589,"pop":0},{"id":9781026,"name":"Kocho","lon":156.53599,"lat":-8.24547,"pop":0},{"id":2107792,"name":"Kochokocho","lon":160.04868,"lat":-9.79289,"pop":0},{"id":2107783,"name":"Koela","lon":160.35,"lat":-9.78333,"pop":0},{"id":2107784,"name":"Koela","lon":160.36778,"lat":-9.48169,"pop":0},{"id":2107785,"name":"Koela","lon":159.79653,"lat":-9.15199,"pop":0},{"id":2107780,"name":"Koepilua","lon":160.39366,"lat":-9.8278,"pop":0},{"id":2107777,"name":"Koetungi","lon":160.70189,"lat":-9.71975,"pop":0},{"id":2107774,"name":"Kofi","lon":157.33882,"lat":-8.60601,"pop":0},{"id":2107773,"name":"Kofiloko","lon":160.83608,"lat":-8.44532,"pop":0},{"id":2107772,"name":"Koghambugha","lon":159.79607,"lat":-9.75066,"pop":0},{"id":2107771,"name":"Koghe","lon":159.5934,"lat":-8.27404,"pop":0},{"id":9794242,"name":"Kohu Village","lon":161.72716,"lat":-10.27383,"pop":0},{"id":2107761,"name":"Koilambu","alt":["Kovahu"],"lon":160.6,"lat":-9.58333,"pop":0},{"id":2107758,"name":"Koilonambo","lon":159.65935,"lat":-9.5919,"pop":0},{"id":2107756,"name":"Koilosuimomoru","lon":159.71802,"lat":-9.689,"pop":0},{"id":2107754,"name":"Koilotumuria","alt":["Koilotumaria","Kolotumaria"],"lon":160.40841,"lat":-9.45716,"pop":0},{"id":2107753,"name":"Koilovala","alt":["Koilovata"],"lon":160.24454,"lat":-9.19107,"pop":0},{"id":2107748,"name":"Kokamau","lon":159.65372,"lat":-9.27375,"pop":0},{"id":2107746,"name":"Kokenggolo","alt":["Kokengolo","Kokengolo Mission"],"lon":157.25165,"lat":-8.32667,"pop":0},{"id":2107745,"name":"Kokepaku","lon":160.52787,"lat":-9.54431,"pop":0},{"id":2107734,"name":"Kokoerata","alt":["Kwakwailata"],"lon":161.19385,"lat":-9.02788,"pop":0},{"id":2107726,"name":"Kokoilo","lon":160.18333,"lat":-9.55,"pop":0},{"id":2107727,"name":"Kokoilo","lon":159.84878,"lat":-9.4299,"pop":0},{"id":2107722,"name":"Kokolapa","lon":160.14611,"lat":-9.66055,"pop":0},{"id":2107720,"name":"Kokolope","lon":156.73512,"lat":-7.70691,"pop":0},{"id":2107715,"name":"Kokomu","alt":["Kalibato"],"lon":160.15936,"lat":-9.81621,"pop":0},{"id":2107716,"name":"Kokomu","lon":159.6,"lat":-9.46667,"pop":0},{"id":2107717,"name":"Kokomu","lon":160.18333,"lat":-9.45,"pop":0},{"id":2107711,"name":"Kokomuruka","alt":["Kokumaruki","Kokumuruka"],"lon":159.63053,"lat":-9.55777,"pop":0},{"id":2107700,"name":"Kokosurisau","alt":["Kokosuliseu"],"lon":161.43713,"lat":-9.65797,"pop":0},{"id":2107697,"name":"Kokote","lon":159.8036,"lat":-8.52782,"pop":0},{"id":2107682,"name":"Koleala","alt":["Kaliala"],"lon":160.26667,"lat":-9.01667,"pop":0},{"id":2107678,"name":"Kolenamoa","lon":156.71667,"lat":-6.96667,"pop":0},{"id":2107676,"name":"Koli","lon":160.18127,"lat":-9.41085,"pop":0},{"id":2107675,"name":"Koliai","lon":155.8539,"lat":-7.03424,"pop":0},{"id":2107674,"name":"Kolika","lon":159.82714,"lat":-9.15178,"pop":0},{"id":2107671,"name":"Kolina","lon":159.97777,"lat":-9.80585,"pop":0},{"id":2107661,"name":"Kolochachara","lon":160.02819,"lat":-9.81571,"pop":0},{"id":2107658,"name":"Kolochega","lon":159.75817,"lat":-8.29455,"pop":0},{"id":2107656,"name":"Kolochemba","lon":160.56547,"lat":-9.61152,"pop":0},{"id":2107655,"name":"Kolochimiu","lon":159.85,"lat":-9.75,"pop":0},{"id":2107652,"name":"Kolochiri","lon":159.98233,"lat":-9.80711,"pop":0},{"id":2107650,"name":"Kolochulu","alt":["Kolosula","Kolosulu"],"lon":160.30585,"lat":-9.62076,"pop":0},{"id":2107648,"name":"Koloe","lon":156.76775,"lat":-7.05186,"pop":0},{"id":2107649,"name":"Koloe","lon":156.9741,"lat":-6.8765,"pop":0},{"id":2107645,"name":"Kolofi","lon":160.75,"lat":-8.36667,"pop":0},{"id":2107640,"name":"Kologhajogha","lon":159.74189,"lat":-8.39599,"pop":0},{"id":2107639,"name":"Kologhalivei","alt":["Kolovaleve","Veramogo"],"lon":160.14928,"lat":-9.81665,"pop":0},{"id":2107638,"name":"Kologhasi","lon":160.17223,"lat":-9.81778,"pop":0},{"id":2107637,"name":"Kologhavutu","alt":["Kologhavatu"],"lon":159.84484,"lat":-8.34573,"pop":0},{"id":2107636,"name":"Kologhodu","lon":159.48166,"lat":-8.19855,"pop":0},{"id":2107634,"name":"Kologhona","lon":159.82139,"lat":-9.73099,"pop":0},{"id":2107620,"name":"Kolohambusi","lon":160.52451,"lat":-9.59676,"pop":0},{"id":2107617,"name":"Kolohaumbi","lon":160.51667,"lat":-9.88333,"pop":0},{"id":2107603,"name":"Kolokapalu","lon":160.33873,"lat":-9.74835,"pop":0},{"id":2107602,"name":"Kolokapasi","lon":156.95564,"lat":-7.22546,"pop":0},{"id":2107599,"name":"Kolokarako","lon":160.38333,"lat":-9.63333,"pop":0},{"id":2107591,"name":"Kolokiki","lon":160.59299,"lat":-9.92084,"pop":0},{"id":2107592,"name":"Kolokiki","lon":160.11417,"lat":-9.81644,"pop":0},{"id":2107585,"name":"Kolokoko","lon":160.34147,"lat":-9.81477,"pop":0},{"id":2107575,"name":"Kolokundukundu","lon":160.01555,"lat":-9.80403,"pop":0},{"id":2107569,"name":"Kololauvi","alt":["Behelula","Beholua"],"lon":160.67699,"lat":-9.90476,"pop":0},{"id":2107558,"name":"Kolombaleho","lon":160.30124,"lat":-9.73176,"pop":0},{"id":11001173,"name":"Kolombangar","lon":156.78602,"lat":-8.09458,"pop":0},{"id":2107557,"name":"Kolombangara","lon":156.78333,"lat":-8.08333,"pop":0},{"id":2107551,"name":"Kolombari","lon":160.78333,"lat":-9.88333,"pop":0},{"id":2107545,"name":"Kolombolo","lon":160.16667,"lat":-9.78333,"pop":0},{"id":2107541,"name":"Kolombora","lon":160.38951,"lat":-9.69408,"pop":0},{"id":2107534,"name":"Kolomola","lon":159.5547,"lat":-8.28659,"pop":0},{"id":2107535,"name":"Kolomola","lon":159.53589,"lat":-8.13492,"pop":0},{"id":2107531,"name":"Kolomosu","lon":159.69534,"lat":-8.22304,"pop":0},{"id":2107528,"name":"Kolondoli","lon":160.16134,"lat":-9.78301,"pop":0},{"id":2107515,"name":"Kolonjiri","lon":160.74088,"lat":-9.75005,"pop":0},{"id":2107494,"name":"Kolosigana","lon":159.74662,"lat":-8.30755,"pop":0},{"id":2107479,"name":"Koloteve","lon":159.78399,"lat":-8.45679,"pop":0},{"id":2107477,"name":"Kolotita","lon":160.63456,"lat":-9.76934,"pop":0},{"id":2107475,"name":"Kolotubi","lon":159.55692,"lat":-8.34838,"pop":0},{"id":2107468,"name":"Kolovalu","lon":156.6,"lat":-6.86667,"pop":0},{"id":2107467,"name":"Kolovaolu","alt":["Papasuli"],"lon":160.6473,"lat":-9.92273,"pop":0},{"id":2107465,"name":"Kolovasari","lon":156.58333,"lat":-6.85,"pop":0},{"id":2107464,"name":"Kolovatuniura","lon":160.59277,"lat":-9.68243,"pop":0},{"id":2107463,"name":"Kolovelo","lon":160.76667,"lat":-9.81667,"pop":0},{"id":2107458,"name":"Kolovuluvulu","lon":160.57793,"lat":-9.74064,"pop":0},{"id":2107456,"name":"Kolumbaghea","alt":["Kokombagia","Kolombagia","Kolumbungara"],"lon":157.59687,"lat":-8.0227,"pop":0},{"id":2107454,"name":"Kolutoha","lon":159.9,"lat":-9.41667,"pop":0},{"id":2107453,"name":"Komambulu","lon":159.59736,"lat":-9.33503,"pop":0},{"id":2107449,"name":"Komaru","lon":160.15,"lat":-9.41667,"pop":0},{"id":2107448,"name":"Komate","alt":["Komati"],"lon":159.876,"lat":-9.7811,"pop":0},{"id":2107445,"name":"Kombae","lon":156.71667,"lat":-6.96667,"pop":0},{"id":2107443,"name":"Kombalombalo","lon":159.7158,"lat":-9.68619,"pop":0},{"id":2107441,"name":"Kombau","lon":159.66997,"lat":-9.62243,"pop":0},{"id":2107439,"name":"Kombe","lon":160.34701,"lat":-9.10584,"pop":0},{"id":2107438,"name":"Kombe’ai","alt":["Kombe'ai","Kombe'aikiki","Kombe’aikiki"],"lon":160.78239,"lat":-8.44676,"pop":0},{"id":2107435,"name":"Kombi","lon":159.77242,"lat":-9.70794,"pop":0},{"id":2107433,"name":"Kombiloko","lon":160.34112,"lat":-9.79896,"pop":0},{"id":2107434,"name":"Kombiloko","alt":["Kobiloko"],"lon":159.60276,"lat":-9.42106,"pop":0},{"id":2107429,"name":"Kombito","lon":159.98333,"lat":-9.43333,"pop":0},{"id":2107430,"name":"Kombito","alt":["Kimbito","Kombito I","Kombito II"],"lon":160.52495,"lat":-9.53719,"pop":0},{"id":2107426,"name":"Kombokisa","alt":["Kumbokesa"],"lon":157.04409,"lat":-6.9205,"pop":0},{"id":2107417,"name":"Komimbo","lon":159.67342,"lat":-9.26368,"pop":0},{"id":2107415,"name":"Komindi","lon":160.18535,"lat":-9.44037,"pop":0},{"id":2107414,"name":"Komoto","lon":160.65,"lat":-9.7,"pop":0},{"id":2107413,"name":"Komu","lon":160.18333,"lat":-9.8,"pop":0},{"id":2107411,"name":"Komu’isia","lon":160.87563,"lat":-9.83103,"pop":0},{"id":2107412,"name":"Komughavea","lon":160.25,"lat":-9.45,"pop":0},{"id":2107410,"name":"Komukama","lon":160.2964,"lat":-9.53041,"pop":0},{"id":2107408,"name":"Komukea","lon":160.28874,"lat":-9.46767,"pop":0},{"id":2107409,"name":"Komukea","lon":160.25,"lat":-9.41667,"pop":0},{"id":2107407,"name":"Komukomu","lon":159.73333,"lat":-9.66667,"pop":0},{"id":2107406,"name":"Komukusua","lon":160.59629,"lat":-9.73052,"pop":0},{"id":2107403,"name":"Komulevugha","lon":160.65967,"lat":-9.64254,"pop":0},{"id":2107404,"name":"Komulevugha","lon":159.60831,"lat":-9.52525,"pop":0},{"id":2107405,"name":"Komuliae","alt":["Komule"],"lon":160.28482,"lat":-9.56767,"pop":0},{"id":2107402,"name":"Komumarara","lon":160.08862,"lat":-8.98171,"pop":0},{"id":2107400,"name":"Komumbembe","lon":160.23333,"lat":-9.41667,"pop":0},{"id":2107399,"name":"Komuna","lon":160.57613,"lat":-9.72096,"pop":0},{"id":2107397,"name":"Komungelea","lon":160.32263,"lat":-9.60361,"pop":0},{"id":2107398,"name":"Komungelea","lon":160.55929,"lat":-9.5464,"pop":0},{"id":2107396,"name":"Komuniao","lon":160.28967,"lat":-9.61901,"pop":0},{"id":2107395,"name":"Komuniato","lon":160.59903,"lat":-9.58811,"pop":0},{"id":2107394,"name":"Komunidhimbo","lon":160.43732,"lat":-9.46887,"pop":0},{"id":2107393,"name":"Komunighogha","lon":160.31668,"lat":-9.55212,"pop":0},{"id":2107392,"name":"Komunihaka","lon":161.25,"lat":-9.5,"pop":0},{"id":2107391,"name":"Komunihara","lon":160.78725,"lat":-9.80251,"pop":0},{"id":2107390,"name":"Komunikoa","lon":160.81754,"lat":-9.81901,"pop":0},{"id":2107389,"name":"Komunima’angga","lon":160.65639,"lat":-9.66074,"pop":0},{"id":2107387,"name":"Komunimala","lon":160.25,"lat":-9.45,"pop":0},{"id":2107388,"name":"Komunimala","lon":160.38333,"lat":-9.43333,"pop":0},{"id":2107386,"name":"Komunimatangga","lon":160.38333,"lat":-9.43333,"pop":0},{"id":2107385,"name":"Komunimbaimbai","lon":160.82435,"lat":-9.85809,"pop":0},{"id":2107384,"name":"Komunimbambasa","lon":160.55,"lat":-9.65,"pop":0},{"id":2107382,"name":"Komunimboko","alt":["Kamoniboko","Komoniboko"],"lon":160.70723,"lat":-9.7445,"pop":0},{"id":2107383,"name":"Komunimboko","lon":160.49249,"lat":-9.5372,"pop":0},{"id":2107381,"name":"Komunimbolo","lon":160.52595,"lat":-9.64266,"pop":0},{"id":2107380,"name":"Komunimbombolo","lon":160.73333,"lat":-9.75,"pop":0},{"id":2107379,"name":"Komuninggita","alt":["Gaini Viti","Tenauti"],"lon":160.45,"lat":-9.48333,"pop":0},{"id":2107377,"name":"Komunisambaha","lon":160.52423,"lat":-9.64596,"pop":0},{"id":2107376,"name":"Komunitambalolo","lon":160.68333,"lat":-9.9,"pop":0},{"id":2107374,"name":"Komunivele","lon":160.16351,"lat":-9.41614,"pop":0},{"id":2107373,"name":"Komupau","alt":["Konibau"],"lon":160.81827,"lat":-9.86906,"pop":0},{"id":2107371,"name":"Komuporo","lon":160.80165,"lat":-9.81392,"pop":0},{"id":2107372,"name":"Komuporo","lon":160.1613,"lat":-9.4106,"pop":0},{"id":2107370,"name":"Komusondu","lon":160.63732,"lat":-9.63348,"pop":0},{"id":2107368,"name":"Komuvadha","lon":160.23736,"lat":-9.46758,"pop":0},{"id":2107363,"name":"Komuvaolu","alt":["Komovaolo"],"lon":160.57632,"lat":-9.91736,"pop":0},{"id":2107364,"name":"Komuvaolu","lon":160.63277,"lat":-9.602,"pop":0},{"id":2107365,"name":"Komuvaolu","lon":160.27891,"lat":-9.5881,"pop":0},{"id":2107366,"name":"Komuvaolu","lon":160.4825,"lat":-9.5286,"pop":0},{"id":2107367,"name":"Komuvaolu","lon":160.18333,"lat":-9.43333,"pop":0},{"id":2107362,"name":"Kona","lon":156.6,"lat":-6.86667,"pop":0},{"id":2107356,"name":"Konapou","lon":159.68555,"lat":-9.65344,"pop":0},{"id":2107351,"name":"Kondodhau","alt":["Kondothau","Kotokum"],"lon":160.59089,"lat":-9.56345,"pop":0},{"id":2107346,"name":"Kondovele","lon":159.73939,"lat":-9.27859,"pop":0},{"id":2107345,"name":"Kongga","lon":160.11504,"lat":-9.4884,"pop":0},{"id":2107343,"name":"Konggau","lon":159.65721,"lat":-9.64356,"pop":0},{"id":2107342,"name":"Konggeva","lon":159.60326,"lat":-9.52189,"pop":0},{"id":2107340,"name":"Konggo","lon":156.76667,"lat":-7.01667,"pop":0},{"id":2113964,"name":"Konggu","lon":157.81667,"lat":-8.26667,"pop":0},{"id":2107337,"name":"Konggulai","lon":159.91503,"lat":-9.43823,"pop":0},{"id":2107331,"name":"Konitarake","alt":["Konitaraka","Tina"],"lon":160.28333,"lat":-9.43333,"pop":0},{"id":2107329,"name":"Konjonambangaro","lon":156.792,"lat":-6.77754,"pop":0},{"id":2107328,"name":"Konure","alt":["Kanipa"],"lon":159.7,"lat":-9.65,"pop":0},{"id":2107323,"name":"Koo","lon":160.01191,"lat":-9.79293,"pop":0},{"id":2107318,"name":"Kopapara","lon":159.66853,"lat":-9.62614,"pop":0},{"id":2107317,"name":"Kopau","alt":["Tamanby"],"lon":159.58966,"lat":-9.52566,"pop":0},{"id":2107312,"name":"Kopiu","lon":160.78684,"lat":-9.88219,"pop":0},{"id":2107305,"name":"Koragha","alt":["Koraga"],"lon":159.72655,"lat":-9.72078,"pop":0},{"id":2107300,"name":"Korambu","lon":160.34496,"lat":-9.41218,"pop":0},{"id":2107297,"name":"Korasa","lon":160.31106,"lat":-9.56484,"pop":0},{"id":2107298,"name":"Korasa","lon":156.42574,"lat":-6.61449,"pop":0},{"id":8439983,"name":"Korasa","lon":157.1967,"lat":-7.16562,"pop":0},{"id":2107285,"name":"Korikasike","lon":160.05311,"lat":-9.50729,"pop":0},{"id":2107283,"name":"Korogha","lon":159.62357,"lat":-8.15913,"pop":0},{"id":2107274,"name":"Korove","lon":160.3414,"lat":-9.43289,"pop":0},{"id":2107273,"name":"Korovou","lon":155.86416,"lat":-7.07942,"pop":0},{"id":2107269,"name":"Koruha","lon":161.02384,"lat":-9.28747,"pop":0},{"id":2107266,"name":"Kosarara","lon":159.61667,"lat":-9.51667,"pop":0},{"id":2107264,"name":"Kosifu","lon":160.74185,"lat":-8.38375,"pop":0},{"id":2107263,"name":"Kosikosi","lon":160.23688,"lat":-9.77637,"pop":0},{"id":2107261,"name":"Kosipo","lon":159.76794,"lat":-9.72462,"pop":0},{"id":2107260,"name":"Kosisi","lon":159.62182,"lat":-8.35225,"pop":0},{"id":2107259,"name":"Koso","lon":159.99702,"lat":-9.53485,"pop":0},{"id":2107258,"name":"Kosuarangga","alt":["Kasaranga","Koseranga","Takosoarangga"],"lon":159.65,"lat":-9.63333,"pop":0},{"id":2107255,"name":"Kotaoa","lon":159.59857,"lat":-9.34896,"pop":0},{"id":2107251,"name":"Kotatave","lon":159.61479,"lat":-9.48551,"pop":0},{"id":2107245,"name":"Kouasi","lon":161.2,"lat":-9.4,"pop":0},{"id":2107240,"name":"Kovare","lon":159.91667,"lat":-9.41667,"pop":0},{"id":2107234,"name":"Koviloko","lon":159.65561,"lat":-8.20553,"pop":0},{"id":2107223,"name":"Kubolota","lon":159.56667,"lat":-8.13333,"pop":0},{"id":2107220,"name":"Kuchira","lon":159.84036,"lat":-8.33643,"pop":0},{"id":2107218,"name":"Kuekue","lon":159.77585,"lat":-9.72847,"pop":0},{"id":2107214,"name":"Kuikuila","alt":["Kukuhila"],"lon":160.2748,"lat":-9.0408,"pop":0},{"id":2107212,"name":"Kuila","alt":["Koela","Koila"],"lon":159.78799,"lat":-9.11762,"pop":0},{"id":2107210,"name":"Kuki","lon":156.76667,"lat":-7.01667,"pop":0},{"id":2107209,"name":"Kuku","lon":156.58333,"lat":-6.85,"pop":0},{"id":2107207,"name":"Kukuduro","lon":159.49103,"lat":-8.10444,"pop":0},{"id":2107201,"name":"Kukum","alt":["Kokomu"],"lon":159.98193,"lat":-9.43468,"pop":0},{"id":2107200,"name":"Kukumu","lon":160.7,"lat":-8.76667,"pop":0},{"id":2107198,"name":"Kukundu","alt":["KUE"],"lon":156.94534,"lat":-8.02519,"pop":0},{"id":2107195,"name":"Kukunu","lon":160.7386,"lat":-8.32018,"pop":0},{"id":2107193,"name":"Kukuruu","lon":160.61701,"lat":-8.36022,"pop":0},{"id":2107180,"name":"Kulu","lon":160.31667,"lat":-9.41667,"pop":0},{"id":2107178,"name":"Kuma","lon":160.53333,"lat":-9.9,"pop":0},{"id":2107179,"name":"Kuma","alt":["Kumu"],"lon":160.1,"lat":-9.81667,"pop":0},{"id":2107173,"name":"Kuma’ihavi","lon":159.68866,"lat":-8.27091,"pop":0},{"id":2107170,"name":"Kumanakati","lon":160.39921,"lat":-9.71904,"pop":0},{"id":2107167,"name":"Kumarei","alt":["Kumariva"],"lon":160.19113,"lat":-9.8141,"pop":0},{"id":2107164,"name":"Kumbakale","alt":["Kumbokale"],"lon":156.54803,"lat":-6.64279,"pop":0},{"id":2107159,"name":"Kumbolia","lon":156.76572,"lat":-7.70915,"pop":0},{"id":2107155,"name":"Kumotu","alt":["Vow Vow"],"lon":159.70162,"lat":-9.68362,"pop":0},{"id":2107153,"name":"Kumundi","lon":160.44323,"lat":-9.50872,"pop":0},{"id":2107152,"name":"Kundale","lon":160.22724,"lat":-9.70512,"pop":0},{"id":2107149,"name":"Kundu","alt":["Ganongga"],"lon":156.53334,"lat":-8.09012,"pop":0},{"id":2107139,"name":"Kunji","lon":157.05,"lat":-8.1,"pop":0},{"id":2107138,"name":"Kunjo","alt":["Kunso","Puchua"],"lon":159.58875,"lat":-9.51473,"pop":0},{"id":2107136,"name":"Kunokuno","lon":161.07672,"lat":-9.062,"pop":0},{"id":2107134,"name":"Kunumboko","lon":156.79018,"lat":-7.02383,"pop":0},{"id":2107133,"name":"Kunura","lon":160.80284,"lat":-8.85616,"pop":0},{"id":11257985,"name":"Kunura","lon":160.76929,"lat":-8.85369,"pop":0},{"id":11257986,"name":"Kura","lon":160.7541,"lat":-8.83224,"pop":0},{"id":2107130,"name":"Kuraisau","alt":["Marau"],"lon":160.85445,"lat":-9.83869,"pop":0},{"id":2107126,"name":"Kurilaka","lon":160.65567,"lat":-9.90829,"pop":0},{"id":2107124,"name":"Kuru","lon":160.35791,"lat":-9.45679,"pop":0},{"id":2107116,"name":"Kusini","lon":159.83333,"lat":-9.11667,"pop":0},{"id":2107114,"name":"Kusumba","lon":159.70975,"lat":-9.58993,"pop":0},{"id":2107113,"name":"Kutakana","lon":157.0735,"lat":-6.94335,"pop":0},{"id":2107110,"name":"Kuva Kei","lon":160.38645,"lat":-9.75186,"pop":0},{"id":2107109,"name":"Kuvamiti","lon":160.61987,"lat":-9.70795,"pop":0},{"id":2107105,"name":"Kwa’a","lon":160.8,"lat":-9.01667,"pop":0},{"id":2107103,"name":"Kwaakwadi","alt":["Kwaakwandi"],"lon":160.71726,"lat":-8.34421,"pop":0},{"id":2107097,"name":"Kwai","lon":160.9476,"lat":-8.77226,"pop":0},{"id":2107095,"name":"Kwaiafaa","lon":160.62139,"lat":-8.42316,"pop":0},{"id":2107091,"name":"Kwaiana","lon":160.58619,"lat":-8.39744,"pop":0},{"id":2107090,"name":"Kwaiaroaro","lon":160.9113,"lat":-8.8483,"pop":0},{"id":2107087,"name":"Kwaifiu","lon":160.71048,"lat":-8.39846,"pop":0},{"id":2107084,"name":"Kwaila’abu","alt":["Kwaila'abu","Maana'oba","Maana’oba"],"lon":160.75748,"lat":-8.30166,"pop":0},{"id":2107079,"name":"Kwailaua","alt":["Kwailava"],"lon":160.85939,"lat":-8.7762,"pop":0},{"id":2107078,"name":"Kwailibesi","lon":160.77444,"lat":-8.35904,"pop":0},{"id":2107075,"name":"Kwaimae","lon":160.7062,"lat":-8.7523,"pop":0},{"id":2107073,"name":"Kwaimbaambaala","lon":161.01929,"lat":-8.90281,"pop":0},{"id":2107067,"name":"Kwainaketo","lon":160.7,"lat":-8.78333,"pop":0},{"id":2107066,"name":"Kwainangali","alt":["Gwa'ininiu","Gwa’ininiu"],"lon":160.81667,"lat":-8.63333,"pop":0},{"id":2107064,"name":"Kwaiorua","alt":["Maanakafo"],"lon":160.58324,"lat":-8.39424,"pop":0},{"id":2107059,"name":"Kwalakwala","lon":160.987,"lat":-8.8639,"pop":0},{"id":2107051,"name":"Kwao","lon":161.1,"lat":-8.88333,"pop":0},{"id":2107050,"name":"Kwaoasi","alt":["Kwaoasio"],"lon":160.8855,"lat":-8.49877,"pop":0},{"id":2107045,"name":"Kwari’ekwa","alt":["Kwapiekwa","Kwari'ekwa"],"lon":160.92502,"lat":-9.16987,"pop":0},{"id":2107041,"name":"Kwene","lon":160.63333,"lat":-8.33333,"pop":0},{"id":2107035,"name":"Lache","lon":161.45,"lat":-9.66667,"pop":0},{"id":2113789,"name":"Lageba","lon":159.83022,"lat":-8.46014,"pop":0},{"id":2107022,"name":"Laghira","lon":160.2,"lat":-9.45,"pop":0},{"id":2107016,"name":"Lakatana","alt":["Lochatana"],"lon":160.04688,"lat":-9.81901,"pop":0},{"id":2107008,"name":"Lalalo","lon":161.05,"lat":-8.91667,"pop":0},{"id":2107009,"name":"Lalalo","lon":161.08333,"lat":-8.9,"pop":0},{"id":2107007,"name":"Lalande","lon":160.5669,"lat":-8.33246,"pop":0},{"id":2107005,"name":"Lalao","lon":160.26446,"lat":-9.58787,"pop":0},{"id":2178751,"name":"Lale","lon":166.79957,"lat":-11.61148,"pop":0},{"id":2107002,"name":"Lali","lon":160.16767,"lat":-9.5614,"pop":0},{"id":2106999,"name":"Laloato","lon":160.24467,"lat":-9.80846,"pop":0},{"id":2106998,"name":"Laloe’efou","lon":161.02902,"lat":-8.93867,"pop":0},{"id":2106997,"name":"Lamaa","lon":160.85,"lat":-8.68333,"pop":0},{"id":2106993,"name":"Lambeana","alt":["Kovatali"],"lon":160.34889,"lat":-9.81804,"pop":0},{"id":2106990,"name":"Lambete","alt":["Lambeti"],"lon":157.2707,"lat":-8.32853,"pop":0},{"id":2106986,"name":"Lambi","lon":160.19206,"lat":-9.41472,"pop":0},{"id":2106987,"name":"Lambi","alt":["Matenggolo"],"lon":159.6086,"lat":-9.40794,"pop":0},{"id":2106984,"name":"Lambia","lon":160.08333,"lat":-9.81667,"pop":0},{"id":2106981,"name":"Lambughue","lon":159.6,"lat":-9.41667,"pop":0},{"id":2106979,"name":"Lambukasigha","alt":["Labukasga","Labukasiha","Lambukasigu"],"lon":160.35397,"lat":-9.78594,"pop":0},{"id":2106977,"name":"Lambungasi","alt":["Lamuas"],"lon":159.6971,"lat":-9.59913,"pop":0},{"id":2106976,"name":"Lambunggaula","lon":160.54981,"lat":-9.54512,"pop":0},{"id":2106973,"name":"Lame","lon":160.41667,"lat":-9.83333,"pop":0},{"id":2106974,"name":"Lame","alt":["Limi"],"lon":160.28206,"lat":-9.62623,"pop":0},{"id":2106969,"name":"Landeni","lon":160.63518,"lat":-9.61599,"pop":0},{"id":2106963,"name":"Langanaku","alt":["Hoilona"],"lon":159.7,"lat":-9.65,"pop":0},{"id":2106962,"name":"Langange","lon":160.83641,"lat":-8.47773,"pop":0},{"id":2106958,"name":"Langgo","lon":160.3416,"lat":-9.17293,"pop":0},{"id":2106957,"name":"Langgoi","alt":["Langgoe"],"lon":160.86355,"lat":-8.49047,"pop":0},{"id":2106953,"name":"Lango","lon":159.74713,"lat":-9.72827,"pop":0},{"id":2106951,"name":"Langumusu","lon":159.68811,"lat":-9.59547,"pop":0},{"id":2106948,"name":"Laotatau","alt":["Lalitau"],"lon":159.61013,"lat":-9.49787,"pop":0},{"id":2106947,"name":"Laovavasa","alt":["Lauvavasa","Ngautu","Tanalanga"],"lon":159.64451,"lat":-9.27936,"pop":0},{"id":2106946,"name":"Laovundi","lon":159.60244,"lat":-9.39612,"pop":0},{"id":2106942,"name":"Larimbaolo","lon":160.9,"lat":-8.83333,"pop":0},{"id":2106939,"name":"Laru","lon":161.05,"lat":-8.9,"pop":0},{"id":2106938,"name":"Lasa","alt":["Laga"],"lon":160.46772,"lat":-9.49636,"pop":0},{"id":2106937,"name":"Laso","lon":160.31667,"lat":-9.41667,"pop":0},{"id":2178750,"name":"Lata","lon":165.79722,"lat":-10.725,"pop":553},{"id":2106935,"name":"Latina","lon":160.79346,"lat":-9.814,"pop":0},{"id":2106931,"name":"Lauhavigha","lon":160.29764,"lat":-9.662,"pop":0},{"id":2106930,"name":"Laukolo","lon":160.78603,"lat":-9.88583,"pop":0},{"id":2106929,"name":"Laula","lon":160.8,"lat":-8.45,"pop":0},{"id":2106927,"name":"Laulambeti","lon":160.31137,"lat":-9.74026,"pop":0},{"id":2106926,"name":"Laulasi","lon":160.73772,"lat":-8.8761,"pop":0},{"id":2106923,"name":"Lauru","lon":160.33514,"lat":-9.41636,"pop":0},{"id":2106921,"name":"Lauta","lon":159.7,"lat":-9.65,"pop":0},{"id":2106920,"name":"Lauvi","lon":160.43149,"lat":-9.89274,"pop":0},{"id":2178748,"name":"Lavaka","alt":["Arambu","Lovoko"],"lon":166.89148,"lat":-11.59198,"pop":0},{"id":2178747,"name":"Lavanggu","lon":160.28016,"lat":-11.65602,"pop":0},{"id":2106912,"name":"Lavuro","lon":159.59456,"lat":-9.32051,"pop":0},{"id":2106910,"name":"Lea’angeange","lon":160.9,"lat":-8.68333,"pop":0},{"id":2106907,"name":"Leche","lon":161.5567,"lat":-9.59962,"pop":0},{"id":2106901,"name":"Leitongo","alt":["Leitango"],"lon":160.07575,"lat":-9.01594,"pop":0},{"id":2106896,"name":"Leleghia","lon":159.66435,"lat":-8.39835,"pop":0},{"id":2106892,"name":"Lelei","lon":159.89687,"lat":-9.41508,"pop":0},{"id":2106888,"name":"Leleola","lon":159.94131,"lat":-9.79115,"pop":0},{"id":2106887,"name":"Leleona","lon":159.59658,"lat":-9.49615,"pop":0},{"id":2106882,"name":"Lenga","alt":["Lengga"],"lon":161.95624,"lat":-9.79067,"pop":0},{"id":2106881,"name":"Lengalau","alt":["Lenggalau"],"lon":160.31451,"lat":-9.42435,"pop":0},{"id":2106879,"name":"Lengatura","lon":157.09899,"lat":-6.96386,"pop":0},{"id":2106878,"name":"Lenggakiki","lon":159.94661,"lat":-9.436,"pop":0},{"id":2106877,"name":"Lenggalei","lon":160.13333,"lat":-9.41667,"pop":0},{"id":2106876,"name":"Lenggaloki","alt":["Langalky"],"lon":159.59973,"lat":-9.4086,"pop":0},{"id":2106875,"name":"Lenggarauna","lon":159.69244,"lat":-9.25258,"pop":0},{"id":2106871,"name":"Leomate","lon":160.33298,"lat":-9.70729,"pop":0},{"id":2106868,"name":"Leosa","alt":["Komanuga","Komanuha"],"lon":159.7,"lat":-9.25,"pop":0},{"id":2106867,"name":"Leovatu","lon":160.56691,"lat":-9.67391,"pop":0},{"id":2106863,"name":"Letuni","alt":["Lituni"],"lon":157.14762,"lat":-7.35288,"pop":0},{"id":2106861,"name":"Levaleva","alt":["Gazalata"],"lon":156.53333,"lat":-6.8,"pop":0},{"id":2106857,"name":"Liangai","lon":156.62051,"lat":-7.58519,"pop":0},{"id":2106853,"name":"Lighara","lon":159.8139,"lat":-8.37477,"pop":0},{"id":2106852,"name":"Lilifia","lon":160.88153,"lat":-8.48948,"pop":0},{"id":2106846,"name":"Lilisiana","lon":160.69324,"lat":-8.77415,"pop":0},{"id":2106841,"name":"Lio","lon":159.98333,"lat":-9.43333,"pop":0},{"id":2178743,"name":"Lipe","lon":166.35804,"lat":-10.26522,"pop":0},{"id":2106836,"name":"Litoghahira","lon":158.80906,"lat":-7.90888,"pop":0},{"id":2106831,"name":"Liufanithauthau","lon":160.70063,"lat":-8.38594,"pop":0},{"id":2106830,"name":"Liuliu","alt":["Liulu"],"lon":156.45,"lat":-6.63333,"pop":0},{"id":2106826,"name":"Liwe","lon":161.47027,"lat":-9.64761,"pop":0},{"id":2106825,"name":"Liweliwe","lon":161.48333,"lat":-9.53333,"pop":0},{"id":2106745,"name":"Lo’ombola","lon":161.03333,"lat":-8.91667,"pop":0},{"id":2106822,"name":"Loalonga","lon":159.6512,"lat":-8.38127,"pop":0},{"id":2106815,"name":"Logha","lon":156.84255,"lat":-8.09274,"pop":0},{"id":2106814,"name":"Loghahaja","lon":159.49354,"lat":-8.09009,"pop":0},{"id":2106811,"name":"Loghasia","lon":160.13711,"lat":-9.75819,"pop":0},{"id":2106803,"name":"Loimboro","lon":160.33333,"lat":-9.46667,"pop":0},{"id":2106802,"name":"Loina","lon":160.69177,"lat":-8.37639,"pop":0},{"id":2106800,"name":"Lokanipeo","alt":["Lakampao"],"lon":159.81667,"lat":-9.1,"pop":0},{"id":2106794,"name":"Lokiha","lon":159.85,"lat":-8.46667,"pop":0},{"id":2106789,"name":"Lōkuru","lon":157.33218,"lat":-8.62044,"pop":0},{"id":2106786,"name":"Lolinggi","lon":160.80377,"lat":-8.41664,"pop":0},{"id":2106785,"name":"Lolofoe","lon":160.65871,"lat":-8.45431,"pop":0},{"id":2106784,"name":"Lologhae","alt":["Lologae"],"lon":156.79046,"lat":-7.06646,"pop":0},{"id":2106782,"name":"Lologhana","alt":["Lologana"],"lon":160.13933,"lat":-9.06936,"pop":0},{"id":2106779,"name":"Lololo","lon":160.95372,"lat":-8.59206,"pop":0},{"id":2106767,"name":"Lombe’esuala","lon":161.03575,"lat":-8.90454,"pop":0},{"id":2106754,"name":"Longapolo","lon":160.34711,"lat":-9.18126,"pop":0},{"id":8440205,"name":"Longave","lon":160.02504,"lat":-8.88898,"pop":0},{"id":2106749,"name":"Longgu","lon":160.33333,"lat":-9.8,"pop":0},{"id":2106750,"name":"Longgu","lon":160.65768,"lat":-9.66091,"pop":0},{"id":2106748,"name":"Longguna","lon":160.26667,"lat":-9.8,"pop":0},{"id":2106740,"name":"Lotiloti","lon":156.6,"lat":-7.81667,"pop":0},{"id":2178741,"name":"Lueselemba","alt":["Lausalemba"],"lon":165.93333,"lat":-10.66667,"pop":0},{"id":2106720,"name":"Lughunataumana","lon":160.40963,"lat":-9.71926,"pop":0},{"id":2106718,"name":"Lughuvasa","lon":160.63762,"lat":-9.78435,"pop":0},{"id":2106716,"name":"Lukuvaru","lon":157.0649,"lat":-6.93371,"pop":0},{"id":2106715,"name":"Lulambai","lon":157.11667,"lat":-8.28333,"pop":0},{"id":2106714,"name":"Lulemikilo","alt":["Lolomikilo"],"lon":157.12094,"lat":-7.06847,"pop":0},{"id":2106711,"name":"Luluvato","lon":156.56667,"lat":-6.66667,"pop":0},{"id":2106708,"name":"Lumanambolo","lon":160.38333,"lat":-9.75,"pop":0},{"id":2106707,"name":"Lumanaroko","lon":159.74374,"lat":-9.72666,"pop":0},{"id":2106705,"name":"Lumarau","lon":160.58333,"lat":-9.7,"pop":0},{"id":2106692,"name":"Lumu","lon":160.65201,"lat":-9.63466,"pop":0},{"id":2106687,"name":"Lungga","alt":["Lunga"],"lon":160.03014,"lat":-9.42604,"pop":0},{"id":2106688,"name":"Lungga","alt":["Lunga"],"lon":156.57542,"lat":-7.75914,"pop":0},{"id":2106678,"name":"Lungua","lon":160.01667,"lat":-8.88333,"pop":0},{"id":2106672,"name":"Luti","lon":156.98213,"lat":-7.23564,"pop":0},{"id":2106667,"name":"Luvuna","lon":160.2416,"lat":-9.69263,"pop":0},{"id":2106666,"name":"Luvunambuli","alt":["Lugunabuli","Luvunbuli"],"lon":160.48366,"lat":-9.53026,"pop":0},{"id":2178738,"name":"Lwowa","alt":["Matamofu","Matamotu"],"lon":165.75,"lat":-10.73333,"pop":0},{"id":8440744,"name":"Ma Mugha","lon":162.29201,"lat":-10.81779,"pop":0},{"id":2106653,"name":"Ma’ara’ara","lon":161.06667,"lat":-9.28333,"pop":0},{"id":2106654,"name":"Ma’ara’ara","lon":161.16667,"lat":-9.33333,"pop":0},{"id":2106635,"name":"Ma’eanikana","lon":161.18333,"lat":-9.08333,"pop":0},{"id":2106665,"name":"Maamalasuala","lon":161.04727,"lat":-8.93499,"pop":0},{"id":2106663,"name":"Maamburu","lon":161.06667,"lat":-8.9,"pop":0},{"id":2106662,"name":"Maanafaene","lon":160.62876,"lat":-8.4285,"pop":0},{"id":2106660,"name":"Maanafiu","lon":160.68333,"lat":-8.43333,"pop":0},{"id":2106657,"name":"Maanggwarafu","lon":160.6291,"lat":-8.42982,"pop":0},{"id":2106652,"name":"Maariki","lon":161.38333,"lat":-9.5,"pop":0},{"id":2106651,"name":"Maariwai","lon":161.16667,"lat":-9.38333,"pop":0},{"id":2106650,"name":"Maasupa","alt":["Takataka"],"lon":161.24415,"lat":-9.28843,"pop":0},{"id":2106649,"name":"Maatona","lon":161.23566,"lat":-9.36436,"pop":0},{"id":2106646,"name":"Mablosi","lon":159.5,"lat":-8.31667,"pop":0},{"id":2106634,"name":"Maeloboa","lon":160.80287,"lat":-8.29661,"pop":0},{"id":2106631,"name":"Maeroto","lon":161.18333,"lat":-9.15,"pop":0},{"id":2106628,"name":"Mage","lon":160.7114,"lat":-8.78454,"pop":0},{"id":2106626,"name":"Maghati","lon":160.19664,"lat":-9.81302,"pop":0},{"id":2106618,"name":"Mahagha","lon":159.76158,"lat":-8.46958,"pop":0},{"id":2106607,"name":"Mahuto","lon":161.36667,"lat":-9.4,"pop":0},{"id":2106604,"name":"Maimali","lon":159.6836,"lat":-8.49739,"pop":0},{"id":2106600,"name":"Maira","lon":161.40774,"lat":-9.43184,"pop":0},{"id":2106598,"name":"Maisinirae","lon":161.16667,"lat":-9.36667,"pop":0},{"id":2106597,"name":"Maisu","lon":159.73136,"lat":-9.72077,"pop":0},{"id":2106595,"name":"Maka","lon":160.39052,"lat":-9.79669,"pop":0},{"id":2106596,"name":"Maka","lon":161.39861,"lat":-9.59127,"pop":0},{"id":2106592,"name":"Makali","lon":160.34953,"lat":-9.76321,"pop":0},{"id":2106586,"name":"Makana","lon":160.5,"lat":-9.73333,"pop":0},{"id":2106587,"name":"Makana","lon":160.32427,"lat":-9.63163,"pop":0},{"id":2106585,"name":"Makanakolopao","lon":160.62693,"lat":-9.76936,"pop":0},{"id":2106583,"name":"Makanapeo","lon":160.28051,"lat":-9.73345,"pop":0},{"id":2106581,"name":"Makaranguru Nguru","lon":160.1309,"lat":-9.69138,"pop":0},{"id":2106576,"name":"Makaruka","alt":["Makarukar"],"lon":160.55098,"lat":-9.91585,"pop":0},{"id":2106577,"name":"Makaruka","lon":160.23903,"lat":-9.77778,"pop":0},{"id":2106578,"name":"Makaruka","lon":160.59571,"lat":-9.75275,"pop":0},{"id":2178732,"name":"Makia","lon":161.76288,"lat":-10.25776,"pop":0},{"id":2106573,"name":"Makile","lon":159.61763,"lat":-9.5388,"pop":0},{"id":2106574,"name":"Makile","alt":["Lengo","Makila","Makilo"],"lon":160.13822,"lat":-9.42033,"pop":0},{"id":2106572,"name":"Makina","lon":160.81132,"lat":-9.84037,"pop":0},{"id":2178729,"name":"Makorukoru","lon":162.22923,"lat":-10.82578,"pop":0},{"id":2106566,"name":"Makweunu","lon":160.79728,"lat":-8.38062,"pop":0},{"id":2106564,"name":"Malaengari","lon":156.63157,"lat":-6.66145,"pop":0},{"id":2106558,"name":"Malagwasu","lon":160.83858,"lat":-8.72803,"pop":0},{"id":2106556,"name":"Malaisu","alt":["Ouitcho"],"lon":159.7,"lat":-9.68333,"pop":0},{"id":2106547,"name":"Malalaia","lon":161.01197,"lat":-8.94839,"pop":0},{"id":2106543,"name":"Malango","lon":159.71734,"lat":-9.69523,"pop":10532},{"id":2106542,"name":"Malangono","alt":["Malangano"],"lon":156.78257,"lat":-7.05976,"pop":0},{"id":2106539,"name":"Malanjoru","lon":160.66667,"lat":-9.81667,"pop":0},{"id":2106538,"name":"Malapau","lon":161.48333,"lat":-9.5,"pop":0},{"id":2178728,"name":"Malapu","lon":166.30596,"lat":-10.22133,"pop":0},{"id":2106534,"name":"Malatabii","lon":160.80251,"lat":-8.42181,"pop":0},{"id":2106533,"name":"Malatawa’a","alt":["Malatawa'a","Malathawa"],"lon":160.66405,"lat":-8.36331,"pop":0},{"id":2106532,"name":"Malatema","lon":159.5936,"lat":-8.1875,"pop":0},{"id":2106531,"name":"Malatoha","lon":160.06995,"lat":-9.49579,"pop":0},{"id":2106524,"name":"Maleai","lon":155.84465,"lat":-7.10788,"pop":0},{"id":2106523,"name":"Malefomuu","lon":160.71667,"lat":-8.36667,"pop":0},{"id":2178725,"name":"Malemgeulu","alt":["Malumgeulu"],"lon":165.71667,"lat":-10.83333,"pop":0},{"id":2106519,"name":"Malevangga","alt":["Malabague","Maleva","Malevaga","Malivaga","Malivanga","Malivugu"],"lon":156.4304,"lat":-6.61045,"pop":0},{"id":2106518,"name":"Maliali","lon":160.13333,"lat":-9.06667,"pop":0},{"id":2106513,"name":"Malisa","lon":159.95415,"lat":-9.79709,"pop":0},{"id":2178724,"name":"Malitawaniuhu","lon":161.64764,"lat":-10.35753,"pop":0},{"id":2178723,"name":"Malo","lon":165.79894,"lat":-10.69859,"pop":0},{"id":2106498,"name":"Malo’u","lon":161.08333,"lat":-8.9,"pop":0},{"id":2106511,"name":"Maloaini","lon":155.59597,"lat":-7.34515,"pop":0},{"id":2106508,"name":"Malohu","alt":["Malona"],"lon":160.30642,"lat":-9.66854,"pop":0},{"id":2106507,"name":"Malohumbisi","lon":160.57518,"lat":-9.72895,"pop":0},{"id":2178722,"name":"Malombo","alt":["Matombo"],"lon":166.52134,"lat":-11.21629,"pop":0},{"id":2106499,"name":"Malosu","lon":160.02059,"lat":-9.51911,"pop":0},{"id":2106497,"name":"Malou","lon":161.15,"lat":-8.96667,"pop":0},{"id":2178721,"name":"Malue","lon":165.81667,"lat":-10.7,"pop":0},{"id":2106494,"name":"Maluka","lon":160.11667,"lat":-9.41667,"pop":0},{"id":2106492,"name":"Malukuna","lon":160.02974,"lat":-9.62931,"pop":0},{"id":2106489,"name":"Malumalunimbirisi","alt":["Malvmalunavirsu"],"lon":160.63333,"lat":-9.61667,"pop":0},{"id":2106488,"name":"Maluu","alt":["Malu"],"lon":160.63349,"lat":-8.3505,"pop":0},{"id":2106482,"name":"Mamalade","lon":160.77902,"lat":-8.80627,"pop":0},{"id":2106479,"name":"Mamara","lon":159.88333,"lat":-9.4,"pop":0},{"id":2106474,"name":"Mamarei","alt":["Chamburu","Mamarea","Tsamburu"],"lon":159.67431,"lat":-9.26931,"pop":0},{"id":8440746,"name":"Mamarunangari","lon":161.92621,"lat":-10.58204,"pop":0},{"id":2106470,"name":"Mamatoa","lon":161.11667,"lat":-9.15,"pop":0},{"id":2106469,"name":"Mambulu Na Kake","lon":160.23333,"lat":-9.6,"pop":0},{"id":2178717,"name":"Mami","lon":162.32936,"lat":-10.83659,"pop":0},{"id":2106466,"name":"Mamui","lon":161.25,"lat":-9.26667,"pop":0},{"id":2106465,"name":"Mamulele","lon":160.89962,"lat":-8.80412,"pop":0},{"id":2106462,"name":"Manaambu","lon":160.62648,"lat":-8.35001,"pop":0},{"id":2106461,"name":"Manaara","lon":160.92065,"lat":-8.55374,"pop":0},{"id":2106460,"name":"Manabubulu","lon":160.93869,"lat":-8.56559,"pop":0},{"id":2178714,"name":"Manakia","lon":162.084,"lat":-10.5181,"pop":0},{"id":2106459,"name":"Manakukunu","lon":160.81667,"lat":-8.5,"pop":0},{"id":2106457,"name":"Manakwai","lon":160.56667,"lat":-8.35,"pop":0},{"id":2106458,"name":"Manakwai","lon":160.61244,"lat":-8.34169,"pop":0},{"id":2106456,"name":"Manamba","alt":["Manaba"],"lon":160.81667,"lat":-9.06667,"pop":0},{"id":2106455,"name":"Manambusu","lon":158.11148,"lat":-8.62552,"pop":0},{"id":2106453,"name":"Manano","lon":161.01506,"lat":-8.88168,"pop":0},{"id":2106451,"name":"Manaoru","lon":160.66667,"lat":-8.46667,"pop":0},{"id":2106449,"name":"Manawai","lon":161.09009,"lat":-9.30855,"pop":0},{"id":2106446,"name":"Mandalua","lon":160.68869,"lat":-8.50379,"pop":0},{"id":2106443,"name":"Mandekachu","alt":["Mandakacho","Manivasa"],"lon":160.24021,"lat":-9.80789,"pop":0},{"id":2106436,"name":"Mandou","alt":["Manduo"],"lon":157.11667,"lat":-8.33333,"pop":0},{"id":2178712,"name":"Manegohere","lon":162.06667,"lat":-10.61667,"pop":0},{"id":2178711,"name":"Maneura","alt":["Maneoura"],"lon":161.36667,"lat":-10.3,"pop":0},{"id":2178709,"name":"Manewaro","lon":161.58671,"lat":-10.3165,"pop":0},{"id":2178708,"name":"Manewiriwiri","lon":161.99252,"lat":-10.49842,"pop":0},{"id":2106428,"name":"Manga","lon":159.7,"lat":-9.65,"pop":0},{"id":2106429,"name":"Manga","lon":159.58333,"lat":-9.51667,"pop":0},{"id":2106427,"name":"Mangakiki","lon":159.59732,"lat":-9.3309,"pop":0},{"id":2106426,"name":"Mangalao","alt":["Labogo"],"lon":159.71667,"lat":-9.68333,"pop":0},{"id":2106422,"name":"Manganakao","lon":159.6435,"lat":-9.57573,"pop":0},{"id":2106419,"name":"Mangapahu","lon":159.96667,"lat":-9.56667,"pop":0},{"id":2106417,"name":"Mangautu","lon":160.19599,"lat":-9.45103,"pop":0},{"id":2106414,"name":"Manggari","lon":159.92043,"lat":-9.79707,"pop":0},{"id":2106413,"name":"Manggatarava","lon":156.53333,"lat":-6.81667,"pop":0},{"id":2178706,"name":"Manggautu","lon":159.98081,"lat":-11.4745,"pop":0},{"id":2106411,"name":"Manggo","lon":157.08114,"lat":-7.28977,"pop":0},{"id":2106393,"name":"Mani’iira","lon":161.2,"lat":-9.18333,"pop":0},{"id":2106404,"name":"Mania","lon":156.00237,"lat":-7.01596,"pop":0},{"id":2106403,"name":"Mania’aa","lon":161.01932,"lat":-8.92934,"pop":0},{"id":2178703,"name":"Maniate","lon":161.90092,"lat":-10.58879,"pop":0},{"id":2178704,"name":"Maniate","alt":["Maneade"],"lon":162.14045,"lat":-10.55144,"pop":0},{"id":2178705,"name":"Maniate","lon":162.04467,"lat":-10.49717,"pop":0},{"id":2106401,"name":"Manierate","lon":161.25,"lat":-9.2,"pop":0},{"id":2106400,"name":"Manifao","lon":160.68579,"lat":-8.32634,"pop":0},{"id":2178702,"name":"Manighai","alt":["Manigai"],"lon":161.88361,"lat":-10.54469,"pop":0},{"id":2178701,"name":"Manihinua","lon":161.85,"lat":-10.48333,"pop":0},{"id":2106398,"name":"Manihouhou","alt":["Manihauhau"],"lon":161.23333,"lat":-9.25,"pop":0},{"id":2106396,"name":"Manihouni","alt":["Manihauni"],"lon":161.2,"lat":-9.26667,"pop":0},{"id":2106395,"name":"Manihusi","lon":161.18288,"lat":-9.32088,"pop":0},{"id":2106392,"name":"Manikaraku","lon":160.83061,"lat":-9.84813,"pop":0},{"id":2106391,"name":"Manikiriu","lon":161.16667,"lat":-9.06667,"pop":0},{"id":2178698,"name":"Maniora","lon":161.53964,"lat":-10.27348,"pop":0},{"id":2106390,"name":"Maniota","alt":["Nimaniriko"],"lon":161.17429,"lat":-9.135,"pop":0},{"id":2106389,"name":"Maniou","lon":161.16667,"lat":-9.23333,"pop":0},{"id":2178697,"name":"Manipwena","lon":161.87304,"lat":-10.46294,"pop":0},{"id":2106388,"name":"Manivasa","lon":160.18666,"lat":-9.81509,"pop":0},{"id":2106386,"name":"Maniwaro","lon":161.17539,"lat":-9.06933,"pop":0},{"id":2106384,"name":"Manjavo","lon":160.2453,"lat":-9.68819,"pop":0},{"id":2106380,"name":"Manoroti","lon":160.86667,"lat":-9.13333,"pop":0},{"id":2106379,"name":"Manu","alt":["Mannu"],"lon":160.97309,"lat":-8.61041,"pop":0},{"id":2178694,"name":"Manuagere","lon":161.25,"lat":-10.3,"pop":0},{"id":8440740,"name":"Manuitili","lon":161.4296,"lat":-9.40812,"pop":0},{"id":2106368,"name":"Manule","lon":160.83241,"lat":-8.44309,"pop":0},{"id":2178693,"name":"Manuopo","alt":["Nuali"],"lon":166.25,"lat":-10.28333,"pop":0},{"id":2178692,"name":"Manupisu","lon":160.40812,"lat":-11.67246,"pop":0},{"id":2106363,"name":"Maokao","lon":159.76428,"lat":-9.71659,"pop":0},{"id":2106361,"name":"Maoro","lon":160.7639,"lat":-8.86624,"pop":0},{"id":2106360,"name":"Maosiri","lon":161.21667,"lat":-9.25,"pop":0},{"id":2106358,"name":"Maoto","lon":161.17382,"lat":-9.17207,"pop":0},{"id":2106357,"name":"Mapahisi","lon":161.25,"lat":-9.45,"pop":0},{"id":2106354,"name":"Maraeva","alt":["Maraiva","Mariava"],"lon":160.5853,"lat":-9.92011,"pop":0},{"id":2106352,"name":"Maraghova","alt":["Maragova"],"lon":159.73333,"lat":-9.71667,"pop":0},