[{"id":381211,"name":"‘Abalānj","alt":["Abalang","`Abalanj"],"lon":31.3475,"lat":12.6699,"pop":0},{"id":381189,"name":"‘Abata","lon":23.63526,"lat":13.15991,"pop":0},{"id":7026205,"name":"‘Abbās","alt":["`Abbas"],"lon":33.0761,"lat":14.929,"pop":0},{"id":381184,"name":"‘Abbās ‘Abd Allāh","alt":["`Abbas `Abd Allah","`Abbas `Abdullah","‘Abbas ‘Abdullah"],"lon":33.31667,"lat":14.03333,"pop":0},{"id":381183,"name":"‘Abbāsīyah","alt":["`Abbasiya","`Abbasiyah","‘Abbasiya"],"lon":27.96667,"lat":12.01667,"pop":0},{"id":381178,"name":"‘Abbūdah","alt":["Abbuda","`Abbudah"],"lon":35.88333,"lat":14.33333,"pop":0},{"id":381174,"name":"‘Abd ad Dā’im","alt":["`Abd ad Da'im","`Abd ed Daim","‘Abd ed Daim"],"lon":27.41667,"lat":11.58333,"pop":0},{"id":381173,"name":"‘Abd ad Dāyīm","alt":["`Abd ad Da'im","`Abd ad Dayim","`Abd ed Daim","‘Abd ad Dā’im","‘Abd ed Daim"],"lon":33.4537,"lat":14.3551,"pop":0},{"id":7026654,"name":"‘Abd aj Jabbar","alt":["`Abd aj Jabbar"],"lon":33.4703,"lat":14.3544,"pop":0},{"id":381162,"name":"‘Abd Aj Jalīl","alt":["`Abd Aj Jalil","`Abd al Jalil","`Abd el Galil","‘Abd al Jalīl","‘Abd el Galil"],"lon":33.3479,"lat":14.5341,"pop":0},{"id":7026267,"name":"‘Abd Al ‘Azīz","alt":["`Abd Al `Aziz"],"lon":33.3785,"lat":14.5909,"pop":0},{"id":364335,"name":"‘Abd al Banāt","alt":["Wad `Abd al Banat","Wad `Abd el Banat","Wad ‘Abd al Banāt","Wad ‘Abd el Banat","`Abd al Banat"],"lon":34.37337,"lat":12.9529,"pop":0},{"id":381169,"name":"‘Abd al Bāqi","alt":["`Abd al Baqi","`Abd el Baqi","‘Abd el Baqi"],"lon":33.3618,"lat":14.2068,"pop":0},{"id":381170,"name":"‘Abd al Bāqī","alt":["`Abd al Baqi","`Abd el Bagi","‘Abd el Bagi"],"lon":32.51667,"lat":13.63333,"pop":0},{"id":6983237,"name":"‘Abd Al Faḑīl","alt":["`Abd Al Fadil"],"lon":32.9902,"lat":14.6237,"pop":0},{"id":381168,"name":"‘Abd al Fāḑil","alt":["`Abd al Fadil","`Abd el Fadil","‘Abd el Fadil"],"lon":33.78333,"lat":14.08333,"pop":0},{"id":381166,"name":"‘Abd al Ghaffār","alt":["`Abd al Ghaffar","`Abd el Ghaffar","‘Abd el Ghaffar"],"lon":32.7,"lat":13.28333,"pop":0},{"id":381165,"name":"‘Abd al Ghani","alt":["`Abd al Ghani","`Abd el Ghani","‘Abd el Ghani"],"lon":33.2488,"lat":14.2125,"pop":0},{"id":381163,"name":"‘Abd al Ḩāfiz̧","alt":["`Abd al Hafiz","`Abd el Hafiz","‘Abd el Hafiz"],"lon":33.4197,"lat":14.3524,"pop":0},{"id":381160,"name":"‘Abd al Karīm","alt":["`Abd al Karim","`Abd el Karim","‘Abd el Karim"],"lon":33.7,"lat":14.13333,"pop":0},{"id":381161,"name":"‘Abd al Karīm","alt":["`Abd al Karim","`Abd el Karim","‘Abd el Karim"],"lon":33.81667,"lat":13.06667,"pop":0},{"id":7033675,"name":"‘Abd Al Khallāq","alt":["`Abd Al Khallaq"],"lon":34.3073,"lat":12.3935,"pop":0},{"id":381158,"name":"‘Abd al Khayr","alt":["`Abd al Khayr","`Abd el Kheir","‘Abd el Kheir"],"lon":29.5,"lat":13.7,"pop":0},{"id":6983185,"name":"‘Abd Al Majid","alt":["`Abd Al Majid"],"lon":32.8208,"lat":14.9829,"pop":0},{"id":381142,"name":"‘Abd al Mājid","alt":["Abdul Majid","`Abd al Majid","`Abd el Magid","‘Abd el Magid"],"lon":32.76667,"lat":14.76667,"pop":0},{"id":7026122,"name":"‘Abd Al Malik","alt":["`Abd Al Malik"],"lon":33.0804,"lat":14.9899,"pop":0},{"id":381151,"name":"‘Abd Allāh","alt":["`Abd Allah","`Abdullah","‘Abdullah"],"lon":33.66667,"lat":14.48333,"pop":0},{"id":381152,"name":"‘Abd Allāh","alt":["`Abd Allah","`Abdullah","‘Abdullah"],"lon":30.86667,"lat":13.56667,"pop":0},{"id":381153,"name":"‘Abd Allāh","alt":["Abdoullah","Abdullah","`Abd Allah"],"lon":23.03333,"lat":13.5,"pop":0},{"id":381154,"name":"‘Abd Allāh","alt":["`Abd Allah","`Abdullah","‘Abdullah"],"lon":25.5,"lat":12.88333,"pop":0},{"id":381149,"name":"‘Abd Allāh ‘Alī","alt":["`Abd Allah `Ali","`Abdullah `Ali","‘Abdullah ‘Ali"],"lon":32.91667,"lat":13.86667,"pop":0},{"id":381148,"name":"‘Abd Allāh Bashīr","alt":["Abdalakh Beshir","`Abd Allah Bashir","`Abdullah Beshir","‘Abdullah Beshir"],"lon":24.58659,"lat":12.98759,"pop":0},{"id":381146,"name":"‘Abd Allāh Kaḩlī","alt":["`Abd Allah Kahli","`Abdullah Kahl","‘Abdullah Kahl"],"lon":32.81667,"lat":14.91667,"pop":0},{"id":381144,"name":"‘Abd Allāh Nā’imah","alt":["`Abd Allah Na'imah","`Abdullah Naima","‘Abdullah Naima"],"lon":32.88333,"lat":13.91667,"pop":0},{"id":381136,"name":"‘Abd an Nūr","alt":["`Abd an Nur","`Abd en Nur","‘Abd en Nur"],"lon":32.68333,"lat":15.1,"pop":0},{"id":381134,"name":"‘Abd ar Raḩmān","alt":["`Abd ar Rahman","`Abd er Rahman","‘Abd er Rahman"],"lon":30.95,"lat":13.45,"pop":0},{"id":7026612,"name":"‘Abd ar Raḩmān","alt":["`Abd ar Rahman"],"lon":32.9029,"lat":14.0078,"pop":0},{"id":381133,"name":"‘Abd Ar Raḩmān","alt":["`Abd Ar Rahman","`Abd er Rahman","‘Abd er Rahman"],"lon":33.2566,"lat":14.5678,"pop":0},{"id":381131,"name":"‘Abd ar Raḩmān Subei","alt":["`Abd ar Rahman Subei","`Abd er Rahman Subei","‘Abd er Rahman Subei"],"lon":29.05,"lat":14.46667,"pop":0},{"id":381130,"name":"‘Abd ar Rasūl","alt":["`Abd ar Rasul","`Abd er Rasul","‘Abd er Rasul"],"lon":32.5934,"lat":14.2922,"pop":0},{"id":7028858,"name":"‘Abd ar Rāziq","alt":["`Abd ar Raziq"],"lon":32.0208,"lat":13.3048,"pop":0},{"id":381129,"name":"‘Abd ar Razzāq","alt":["Abd er Razzaq","`Abd ar Razzaq"],"lon":34.75,"lat":13.33333,"pop":0},{"id":381127,"name":"‘Abd aş Şādiq","alt":["`Abd as Sadiq","`Abd es Sadiq","‘Abd es Sadiq"],"lon":32.51667,"lat":14.43333,"pop":0},{"id":381167,"name":"‘Abd el Farrag","alt":["`Abd al Farraj","`Abd el Farrag","‘Abd al Farrāj"],"lon":34.07355,"lat":10.25066,"pop":0},{"id":381121,"name":"‘Abd el Qadir","lon":33.48056,"lat":15.08083,"pop":0},{"id":7026489,"name":"‘Abdūn","alt":["`Abdun"],"lon":32.6989,"lat":14.4421,"pop":0},{"id":381090,"name":"‘Ābidīn","alt":["`Abdin","`Abidin","‘Abdin"],"lon":29.63333,"lat":13.55,"pop":0},{"id":381091,"name":"‘Ābidīn","alt":["`Abdin","`Abidin","‘Abdin"],"lon":33.71667,"lat":13.33333,"pop":0},{"id":381089,"name":"‘Abīdīya","alt":["Al `Ibediyya","Al ‘Ibēdiyya","`Abidiya","`Abidiyah","‘Abīdīyah"],"lon":33.94769,"lat":18.20844,"pop":0},{"id":381076,"name":"‘Abka East","lon":31.23333,"lat":21.8,"pop":0},{"id":381075,"name":"‘Abka West","alt":["`Abka","`Abka West","‘Abka"],"lon":31.18333,"lat":21.83333,"pop":0},{"id":381043,"name":"‘Abrī West","lon":30.33333,"lat":20.81667,"pop":0},{"id":380286,"name":"‘Adal","lon":34.51667,"lat":12.96667,"pop":0},{"id":380265,"name":"‘Adar","alt":["`Adar"],"lon":32.6955,"lat":14.5419,"pop":0},{"id":380249,"name":"‘Adar al Gufr","lon":31.68333,"lat":12.76667,"pop":0},{"id":380106,"name":"‘Adila","lon":27.31667,"lat":12.7,"pop":0},{"id":380107,"name":"‘Adila","lon":34.65,"lat":11.25,"pop":0},{"id":380091,"name":"‘Adlān Godat","lon":33.65,"lat":14.85,"pop":0},{"id":380043,"name":"‘Agab","lon":29.75,"lat":13.41667,"pop":0},{"id":380044,"name":"‘Agab","alt":["Gaiow","`Agab"],"lon":33.81308,"lat":10.35916,"pop":0},{"id":7026306,"name":"‘Aḩmad","alt":["`Ahmad"],"lon":33.1977,"lat":14.6408,"pop":0},{"id":6983221,"name":"‘Aj Jān","alt":["`Aj Jan"],"lon":32.9683,"lat":14.8046,"pop":0},{"id":379889,"name":"‘Ajab Allāh","alt":["`Agabullah","`Ajab Allah","‘Agabullah"],"lon":26.58333,"lat":11.33333,"pop":0},{"id":379887,"name":"‘Ajājah","alt":["`Agaga","`Ajajah","`Atmur","‘Agaga","‘Atmur"],"lon":25.1,"lat":10.75,"pop":0},{"id":7033665,"name":"‘Ajbān","alt":["`Ajban"],"lon":34.1317,"lat":12.4785,"pop":0},{"id":379986,"name":"‘Ajoba","alt":["Agoba","Agub","`Ajoba"],"lon":32.5817,"lat":14.2092,"pop":0},{"id":379843,"name":"‘Akāshah","alt":["Akasha","`Akashah"],"lon":30.71667,"lat":21.08333,"pop":0},{"id":379844,"name":"‘Akāshah","alt":["'Akasha","`Akashah","’Akasha"],"lon":30.25,"lat":21,"pop":0},{"id":6991617,"name":"‘Akod","alt":["`Akod"],"lon":32.8992,"lat":15.4426,"pop":0},{"id":379726,"name":"‘Alālī","lon":30.21667,"lat":11.28333,"pop":0},{"id":7026442,"name":"‘Alam al Huda","alt":["`Alam al Huda"],"lon":33.4253,"lat":14.3847,"pop":0},{"id":7026560,"name":"‘Alamāra ‘Abd ar Raḩīm","alt":["`Alamara `Abd ar Rahim"],"lon":32.7965,"lat":14.2031,"pop":0},{"id":7018703,"name":"‘Ali","alt":["`Ali"],"lon":32.4594,"lat":13.9413,"pop":0},{"id":379375,"name":"‘Alī","lon":25.95,"lat":13.96667,"pop":0},{"id":7026367,"name":"‘Ali Ḩiyya","alt":["`Ali Hiyya"],"lon":32.2444,"lat":14.2415,"pop":0},{"id":7026350,"name":"‘Ali Wad Mōsa","alt":["'Ali Wad Mosa"],"lon":32.19,"lat":14.1849,"pop":0},{"id":7028894,"name":"‘Amabah","alt":["`Amabah"],"lon":32.2917,"lat":13.035,"pop":0},{"id":378913,"name":"‘Amar Jadīd","alt":["`Amar Gedid","`Amar Jadid","`Amara Gedid","‘Amar Gedid","‘Amara Gedid"],"lon":25.23333,"lat":14.46667,"pop":0},{"id":378932,"name":"‘Amara East","lon":30.38333,"lat":20.8,"pop":0},{"id":7033664,"name":"‘Amāra Jaylāni","alt":["`Amara Jaylani"],"lon":34.1506,"lat":12.4896,"pop":0},{"id":378918,"name":"‘Amara West","lon":30.38333,"lat":20.83333,"pop":0},{"id":378928,"name":"‘Amārah","alt":["`Amara","`Amarah","‘Amara"],"lon":35.8,"lat":14.3,"pop":0},{"id":378929,"name":"‘Amārah","alt":["`Amara","`Amarah","‘Amara"],"lon":30.23333,"lat":12.98333,"pop":0},{"id":378930,"name":"‘Amārah","alt":["`Amara","`Amarah","‘Amara"],"lon":27.88333,"lat":12.65,"pop":0},{"id":378931,"name":"‘Amārah","alt":["`Amara","`Amarah","‘Amara"],"lon":34.2,"lat":10.36667,"pop":0},{"id":378921,"name":"‘Amārat ‘Alī","lon":33.66667,"lat":14.58333,"pop":0},{"id":7033701,"name":"‘Amārat ‘Īsa","alt":["`Amarat `Isa"],"lon":34.3469,"lat":12.0076,"pop":0},{"id":378922,"name":"‘Amārat Abū Sinn","alt":["Abu Amara","`Amara Abu Sin","`Amarat Abu Sinn","‘Amara Abu Sin"],"lon":35.75,"lat":15.35,"pop":0},{"id":378920,"name":"‘Amārat al Khalīfah","alt":["Wad el Guzuli","`Amara el Khalifa","`Amara el Khalifa Wad el Guzuli","`Amarat al Khalifah","‘Amara el Khalifa","‘Amara el Khalifa Wad el Guzuli"],"lon":34.66667,"lat":13.4,"pop":0},{"id":378919,"name":"‘Amārat an Nefeidiya","alt":["`Amarat an Nefeidiya","`Amarat en Nefeidiya","‘Amarat en Nefeidiya"],"lon":33.76667,"lat":14.15,"pop":0},{"id":7033700,"name":"‘Amārat Sābūnī","alt":["`Amarat Sabuni"],"lon":34.347,"lat":12.0038,"pop":0},{"id":378842,"name":"‘Amrīyah","alt":["`Amriya","`Amriyah","‘Amriya"],"lon":32.15,"lat":14.48333,"pop":0},{"id":378838,"name":"‘Amūd","lon":33.95,"lat":13.71667,"pop":0},{"id":378680,"name":"‘Anqash","lon":31.3,"lat":21.9,"pop":0},{"id":378650,"name":"‘Aqab el Laban","alt":["`Aqab al Laban","`Aqab el Laban","‘Aqab al Laban"],"lon":33.98632,"lat":10.26561,"pop":0},{"id":378646,"name":"‘Aqīq Kabīr","alt":["Akik Kebir","`Aqiq Kabir","`Aqiq Kebir","‘Aqiq Kebir"],"lon":38.30905,"lat":18.22261,"pop":0},{"id":378643,"name":"‘Aqūlah","alt":["`Agula","`Aqulah","‘Agula"],"lon":30.35,"lat":20.4,"pop":0},{"id":378635,"name":"‘Arab Ḩājj","alt":["`Arab Hag","`Arab Hajj","‘Arab Hag"],"lon":30.71667,"lat":18.38333,"pop":0},{"id":378629,"name":"‘Aradāya","alt":["`Aradaia","`Aradaya","‘Aradaia"],"lon":31.2646,"lat":12.7022,"pop":0},{"id":6854060,"name":"‘Aradāya","alt":["`Aradaya"],"lon":32.5152,"lat":12.7619,"pop":0},{"id":7029245,"name":"‘Aradāya","alt":["`Aradaya"],"lon":32.1839,"lat":12.8001,"pop":0},{"id":378618,"name":"‘Aradeba","alt":["`Aradeba","`Aradeiba","‘Aradeiba"],"lon":34.3317,"lat":11.6731,"pop":0},{"id":7029431,"name":"‘Aradeba","alt":["`Aradeba"],"lon":35.2676,"lat":12.8125,"pop":0},{"id":378626,"name":"‘Aradeib","alt":["`Aradeib","`Aradeiba","‘Aradeiba"],"lon":35.95,"lat":14.08333,"pop":0},{"id":378616,"name":"‘Aradeiba","lon":35.86667,"lat":14.36667,"pop":0},{"id":378617,"name":"‘Aradeiba","lon":32.33333,"lat":12.25,"pop":0},{"id":378611,"name":"‘Aradeiba Anjah","lon":24.26667,"lat":11.23333,"pop":0},{"id":6854137,"name":"‘Arādīb","alt":["`Aradib"],"lon":32.8011,"lat":12.6133,"pop":0},{"id":378593,"name":"‘Arakīyīn","lon":33.21667,"lat":13.8,"pop":0},{"id":7026157,"name":"‘Arbaji","alt":["`Arbaji"],"lon":33.3525,"lat":14.726,"pop":0},{"id":7031591,"name":"‘Arīd","alt":["`Arid"],"lon":31.485,"lat":11.0649,"pop":0},{"id":378522,"name":"‘Arīs","lon":27.95,"lat":12.11667,"pop":0},{"id":378454,"name":"‘Arsh al Yoi","alt":["Arsh el Yoi","Arsheloi","Umm Sureba","`Arsh al Yoi"],"lon":31.11667,"lat":12.58333,"pop":0},{"id":378418,"name":"‘Asalah","alt":["`Asala","`Asalah","‘Asala"],"lon":29.7,"lat":14.15,"pop":0},{"id":378341,"name":"‘Aşīdah","alt":["`Asida","`Asidah","‘Asida"],"lon":30.61667,"lat":13.58333,"pop":0},{"id":7026483,"name":"‘Asīr","alt":["`Asir"],"lon":33.3597,"lat":14.2312,"pop":0},{"id":6854120,"name":"‘Asūla","alt":["`Asula"],"lon":32.7338,"lat":12.7604,"pop":0},{"id":378220,"name":"‘Ati","lon":29.21667,"lat":13.08333,"pop":0},{"id":378206,"name":"‘Aţmūr","lon":33.53333,"lat":19.16667,"pop":0},{"id":7026644,"name":"‘Atra","alt":["`Atra"],"lon":33.498,"lat":14.4556,"pop":0},{"id":378190,"name":"‘Aţshānah","alt":["`Atshana","`Atshanah","‘Atshana"],"lon":32.25,"lat":13.78333,"pop":0},{"id":378180,"name":"‘Attab East","lon":30.43333,"lat":20.81667,"pop":0},{"id":378179,"name":"‘Attab West","lon":30.45,"lat":20.83333,"pop":0},{"id":6983264,"name":"‘Awaḑ Al ‘Alim","alt":["`Awad Al `Alim"],"lon":32.8363,"lat":14.5232,"pop":0},{"id":7018761,"name":"‘Awaḑ Allah","alt":["`Awad Allah"],"lon":32.3788,"lat":13.611,"pop":0},{"id":378110,"name":"‘Awaḑ Allāh","alt":["`Awad Allah","`Awadullah","‘Awadullah"],"lon":32.16667,"lat":13.58333,"pop":0},{"id":378109,"name":"‘Awadat","lon":36.31667,"lat":15.46667,"pop":0},{"id":378107,"name":"‘Awaḑīyah","alt":["Awadiya","`Awadiyah"],"lon":33.71667,"lat":14.41667,"pop":0},{"id":378108,"name":"‘Awaḑīyah","alt":["`Awadiya","`Awadiyah","‘Awadiya"],"lon":33.65,"lat":14.35,"pop":0},{"id":7028868,"name":"‘Awāma","alt":["`Awama"],"lon":32.1442,"lat":13.1803,"pop":0},{"id":378064,"name":"‘Awrah","alt":["Awra","`Aura","`Awrah","‘Aura"],"lon":34.15,"lat":13.28333,"pop":0},{"id":378042,"name":"‘Ayn al Luwayqah","alt":["Ain el Luweiqa","An Al Luweqa","Ein el Lueiqa","`Ayn al Luwayqah","`Ein el Luweiqa","‘Ein el Luweiqa"],"lon":33.91667,"lat":14.16667,"pop":0},{"id":378027,"name":"‘Aysh Barrah","alt":["`Aish Barra","`Aysh Barrah","‘Aish Barra"],"lon":25.61667,"lat":14.51667,"pop":0},{"id":378019,"name":"‘Azāzah","alt":["`Azaza","`Azazah","‘Azaza"],"lon":35.55,"lat":14.2,"pop":0},{"id":378020,"name":"‘Azāzah","alt":["`Azaza","`Azazah","‘Azaza"],"lon":35.3,"lat":14.13333,"pop":0},{"id":378021,"name":"‘Azāzah","alt":["Azaza","`Azazah"],"lon":34.35,"lat":11.66667,"pop":0},{"id":7029200,"name":"‘Azīza","alt":["`Aziza"],"lon":32.4282,"lat":12.9348,"pop":0},{"id":375972,"name":"‘Eilai","alt":["`Eilai","`Ilay","‘Ilay"],"lon":30.9,"lat":16.55,"pop":0},{"id":7029414,"name":"‘En Aj Jamal","alt":["`En Aj Jamal"],"lon":35.1644,"lat":12.8599,"pop":0},{"id":7029421,"name":"‘Ibek","alt":["`Ibek"],"lon":35.3148,"lat":12.7715,"pop":0},{"id":380988,"name":"‘Ibōd","alt":["'Ibod","`Abud","‘Abud"],"lon":33.1335,"lat":14.231,"pop":0},{"id":374927,"name":"‘Id Aghabāsh","alt":["Ghabash","`Id Aghabash"],"lon":33.3854,"lat":14.9129,"pop":0},{"id":7029218,"name":"‘Id Aj Jim","alt":["`Id Aj Jim"],"lon":32.3115,"lat":12.5129,"pop":0},{"id":7018765,"name":"‘Id al Burām","alt":["`Id al Buram"],"lon":32.3146,"lat":13.588,"pop":0},{"id":7018766,"name":"‘Id al Burām","alt":["`Id al Buram"],"lon":32.2787,"lat":13.5754,"pop":0},{"id":373624,"name":"‘Id Al Ḩaj","alt":["`Id Al Haj","`Idd al Hajj","`Idd el Hag","‘Idd al Ḩājj","‘Idd el Hag"],"lon":33.457,"lat":14.8725,"pop":0},{"id":7018788,"name":"‘Īd al Weka","alt":["`Id al Weka"],"lon":32.3436,"lat":13.8355,"pop":0},{"id":6983179,"name":"‘Id Ash Shekh ‘Ali","alt":["`Id Ash Shekh `Ali"],"lon":32.6099,"lat":14.9883,"pop":0},{"id":7018790,"name":"‘Id at Timed","alt":["`Id at Timed"],"lon":32.1497,"lat":13.8255,"pop":0},{"id":7026023,"name":"‘Id Um ‘Ush","alt":["`Id Um `Ush"],"lon":32.1166,"lat":14.6886,"pop":0},{"id":373629,"name":"‘Īdān","alt":["Aidam","`Idan"],"lon":25.06667,"lat":11.13333,"pop":0},{"id":373618,"name":"‘Idd al ‘Ūd","alt":["`Idd al `Ud","`Idd el `Ud","‘Idd el ‘Ud"],"lon":32.15,"lat":14.01667,"pop":0},{"id":373626,"name":"‘Idd al Ghanam","alt":["`Idd al Ghanam","`Idd el Ghanam","‘Idd el Ghanam"],"lon":24.35,"lat":11.48333,"pop":0},{"id":373625,"name":"‘Idd al Guddeim","alt":["`Idd al Guddeim","`Idd el Guddeim","‘Idd el Guddeim"],"lon":25.75,"lat":13.15,"pop":0},{"id":7029114,"name":"‘Idd Al Hijelja","alt":["`Idd Al Hijelja"],"lon":31.6637,"lat":12.7683,"pop":0},{"id":373622,"name":"‘Idd al Khāla","alt":["`Idd al Khala","`Idd el Khala","‘Idd el Khala"],"lon":22.85,"lat":13.58333,"pop":0},{"id":373617,"name":"‘Idd an Nabaq","alt":["`Idd an Nabaq","`Idd en Nabaq","‘Idd en Nabaq"],"lon":31.41667,"lat":14.13333,"pop":0},{"id":373628,"name":"‘Idd ed Dam","alt":["`Idd ad Dam","`Idd ed Dam","‘Idd ad Dam"],"lon":31.63862,"lat":10.91311,"pop":0},{"id":373623,"name":"‘Idd el Halluf","alt":["`Idd al Halluf","`Idd el Halluf","‘Idd al Ḩallūf"],"lon":32.14741,"lat":10.81662,"pop":0},{"id":7041515,"name":"‘Idd el Khirwi‘","lon":24.44877,"lat":12.62784,"pop":0},{"id":373613,"name":"‘Idd es Semi","alt":["`Idd as Sami","`Idd es Semi","‘Idd as Sami"],"lon":22.84238,"lat":14.49816,"pop":0},{"id":7026477,"name":"‘Ideda","alt":["`Ideda"],"lon":33.4224,"lat":14.1334,"pop":0},{"id":365472,"name":"‘Ifena","alt":["`Ifena","`Ufaynah","`Ufeina","‘Ufaynah","‘Ufeina"],"lon":33.1926,"lat":14.3738,"pop":0},{"id":7029399,"name":"‘Iref Ad Dīk","alt":["`Iref Ad Dik"],"lon":34.7867,"lat":12.8096,"pop":0},{"id":7026352,"name":"‘Irek","alt":["`Irek"],"lon":32.205,"lat":14.1702,"pop":0},{"id":7029258,"name":"‘Ireqāt","alt":["`Ireqat"],"lon":32.2422,"lat":12.9005,"pop":0},{"id":373503,"name":"‘Īsá Ḩamadayn","alt":["`Isa Hamadayn","`Isa Hamadein","‘Isa Hamadein"],"lon":31.48333,"lat":13.16667,"pop":0},{"id":7026390,"name":"‘Isa Ḩasan","alt":["`Isa Hasan"],"lon":33.4918,"lat":14.0854,"pop":0},{"id":7026388,"name":"‘Iweḑa","alt":["`Iweda"],"lon":33.4914,"lat":14.127,"pop":0},{"id":7018732,"name":"‘Iwewa","alt":["`Iwewa"],"lon":32.3838,"lat":13.7493,"pop":0},{"id":373478,"name":"‘Iyāl Amīn","alt":["Yelamin","`Iyal Amin"],"lon":26.88333,"lat":12.18333,"pop":0},{"id":373477,"name":"‘Iyāl an Nājī","alt":["`Iyal an Naji","`Iyal en Nagi","‘Iyal en Nagi"],"lon":26.63333,"lat":11.61667,"pop":0},{"id":6854066,"name":"‘Iyāl an Nīl","alt":["`Iyal an Nil"],"lon":32.5897,"lat":12.9836,"pop":0},{"id":373476,"name":"‘Iyāl ash Shayn","alt":["`Iyal ash Shayn","`Iyal esh Shein","‘Iyal esh Shein"],"lon":28,"lat":11.93333,"pop":0},{"id":373475,"name":"‘Iyāl Bakhīt","alt":["`Iyal Bakhit"],"lon":28.68333,"lat":13.41667,"pop":0},{"id":373474,"name":"‘Iyāl Basharo","alt":["Bashar","`Iyal Basharo"],"lon":28.48333,"lat":13.18333,"pop":0},{"id":7002055,"name":"‘Oda","lon":35.56603,"lat":12.71993,"pop":0},{"id":6977086,"name":"‘Ojli","alt":["`Ojli"],"lon":31.2556,"lat":11.548,"pop":0},{"id":7029536,"name":"‘Radeba","alt":["`Radeba"],"lon":31.5124,"lat":12.076,"pop":0},{"id":365503,"name":"‘Ubayd","alt":["`Ubayd","`Ubeid","`Udeid","‘Ubeid","‘Udeid"],"lon":31.61667,"lat":12.78333,"pop":0},{"id":365492,"name":"‘Ubeidullah","lon":33.25778,"lat":15.56639,"pop":0},{"id":365484,"name":"‘Udayd","alt":["`Udayd","`Udeid","‘Udeid"],"lon":28.35,"lat":13.36667,"pop":0},{"id":365480,"name":"‘Udayrah","alt":["`Ideira","`Udayrah","‘Ideira"],"lon":24.45,"lat":11.23333,"pop":0},{"id":365471,"name":"‘Ufaynah","alt":["`Ufaynah","`Ufeina","‘Ufeina"],"lon":33.51667,"lat":14.76667,"pop":0},{"id":365454,"name":"‘Ujayjah","alt":["Egeiga","`Ujayjah"],"lon":32.53333,"lat":15.73333,"pop":0},{"id":365453,"name":"‘Ujaymī","alt":["Ageimi","`Ujaymi"],"lon":29.25,"lat":12.96667,"pop":0},{"id":365422,"name":"‘Umar","alt":["`Umar"],"lon":32.6013,"lat":14.2346,"pop":0},{"id":365414,"name":"‘Umarāb","lon":33.92556,"lat":17.59222,"pop":0},{"id":364449,"name":"‘Unaynah","alt":["Aineina","`Ineina","`Unaynah","‘Ineina"],"lon":32.7,"lat":15.03333,"pop":0},{"id":7029123,"name":"‘Uqadāb","alt":["`Uqadab"],"lon":31.848,"lat":12.813,"pop":0},{"id":364426,"name":"‘Uqūd as Sayyālah","alt":["Uqud es Saiyala","`Uqud as Sayyalah"],"lon":32.58333,"lat":15.25,"pop":0},{"id":7026486,"name":"‘Uraq al Karallāb","alt":["`Uraq al Karallab"],"lon":32.5131,"lat":14.4461,"pop":0},{"id":364419,"name":"‘Uraq al Qala‘ab","alt":["`Uraq","`Uraq al Qala`ab","‘Uraq"],"lon":32.5179,"lat":14.4544,"pop":0},{"id":364414,"name":"‘Urayqah","alt":["`Urayqah","`Ureiga","‘Ureiga"],"lon":32.78333,"lat":14.53333,"pop":0},{"id":7029146,"name":"‘Urundi","alt":["`Urundi"],"lon":31.9233,"lat":12.6062,"pop":0},{"id":364390,"name":"‘Usaylī","alt":["`Iseili","`Usayli","‘Iseili"],"lon":32.58333,"lat":15.38333,"pop":0},{"id":364389,"name":"‘Usbān","lon":26.43333,"lat":12.25,"pop":0},{"id":7026651,"name":"‘Ushara","alt":["`Ushara"],"lon":33.4665,"lat":14.3807,"pop":0},{"id":364387,"name":"‘Usharah","alt":["`Ushara","`Usharah","‘Ushara"],"lon":22.83333,"lat":13.93333,"pop":0},{"id":364376,"name":"‘Uţaysh","alt":["`Utaysh","`Uteish","‘Uteish"],"lon":33.03333,"lat":14.33333,"pop":0},{"id":364375,"name":"‘Uţayshah","alt":["`Utayshah","`Uteisha","‘Uteisha"],"lon":33.15,"lat":14.28333,"pop":0},{"id":364373,"name":"‘Uthmān ‘Alī","lon":32.7,"lat":15.16667,"pop":0},{"id":6983266,"name":"‘Uthmān Faraḩ","alt":["`Uthman Farah"],"lon":32.9011,"lat":14.6137,"pop":0},{"id":364369,"name":"‘Utqi aj Jabbārīn","alt":["Utgi el Gabbarin","`Utqi aj Jabbarin","`Utqi al Jabbarin","`Utqi el Gabbarin","‘Utqi el Gabbarin","‘Utqī al Jabbārīn"],"lon":32.9694,"lat":14.2157,"pop":0},{"id":364366,"name":"‘Uwaynah","alt":["`Uwaynah","`Uweina","`Uweinat","‘Uweina","‘Uweinat"],"lon":30.23333,"lat":18.75,"pop":0},{"id":7029143,"name":"’Abu ‘Ambaj","alt":["'Abu `Ambaj","Abu Anbaj"],"lon":31.9476,"lat":12.721,"pop":0},{"id":6854100,"name":"’Abu ‘Ambaj Alkawāhla","alt":["'Abu `Ambaj Alkawahla"],"lon":32.7187,"lat":12.9981,"pop":0},{"id":6854177,"name":"’Abu al Lawlīs","alt":["'Abu al Lawlis"],"lon":32.9616,"lat":12.8314,"pop":0},{"id":6854205,"name":"’Abu Ḑulū‘","alt":["'Abu Dulu`"],"lon":32.8803,"lat":12.5706,"pop":0},{"id":6854183,"name":"’Abu Namil","alt":["'Abu Namil"],"lon":32.9407,"lat":12.8041,"pop":0},{"id":6854148,"name":"’Abu Qamza","alt":["'Abu Qamza"],"lon":32.7867,"lat":12.846,"pop":0},{"id":6854149,"name":"’Abūna","alt":["'Abuna"],"lon":32.7883,"lat":12.853,"pop":0},{"id":7029470,"name":"’Afanūri","alt":["'Afanuri"],"lon":31.2898,"lat":12.3971,"pop":0},{"id":7029417,"name":"’Afrush Tobak","alt":["'Afrush Tobak"],"lon":35.2244,"lat":12.8093,"pop":0},{"id":7031450,"name":"’Agal","alt":["'Agal"],"lon":30.1532,"lat":11.1452,"pop":0},{"id":6854187,"name":"’Al ’Imtidād ’al ’Aḩāmda","alt":["'Al 'Imtidad 'al 'Ahamda"],"lon":32.818,"lat":12.7728,"pop":0},{"id":6854188,"name":"’Al ’Imtidād ’al Musā‘dāb","alt":["'Al 'Imtidad 'al Musa`dab"],"lon":32.8165,"lat":12.7647,"pop":0},{"id":7746446,"name":"’Amar Gedid","lon":23.93511,"lat":13.09703,"pop":0},{"id":6854119,"name":"’Ar Rashīd","alt":["'Ar Rashid"],"lon":32.7454,"lat":12.7949,"pop":0},{"id":8390175,"name":"’Aradeiba","alt":["'Aradeiba","Koijam"],"lon":22.66149,"lat":12.16386,"pop":0},{"id":7029428,"name":"’As Ubri","alt":["'As Ubri"],"lon":35.3916,"lat":12.7426,"pop":0},{"id":378248,"name":"’Asuda","alt":["'Asuda"],"lon":32.5317,"lat":12.8959,"pop":0},{"id":8613003,"name":"’Awget el Kheima","lon":26.50058,"lat":9.92645,"pop":0},{"id":8613001,"name":"’Awget el Muhhar","lon":26.49291,"lat":9.94841,"pop":0},{"id":8613004,"name":"’Awget el Rugeiligaya","lon":26.49555,"lat":9.91799,"pop":0},{"id":8613005,"name":"’Awget el’Gallaba","lon":26.5019,"lat":9.90688,"pop":0},{"id":6854176,"name":"’Awlād ‘Īsa ad Dallās","alt":["'Awlad `Isa ad Dallas"],"lon":32.9721,"lat":12.8406,"pop":0},{"id":6854117,"name":"’Awlād as Sa‘īd","alt":["'Awlad as Sa`id"],"lon":32.7375,"lat":12.8176,"pop":0},{"id":6854115,"name":"’Awlād Shan","alt":["'Awlad Shan"],"lon":32.7407,"lat":12.8469,"pop":0},{"id":7029078,"name":"’Awlād Silemān","alt":["'Awlad Sileman"],"lon":31.5556,"lat":12.8269,"pop":0},{"id":7029089,"name":"’Ibayyiḑ Farraqat","alt":["'Ibayyid Farraqat"],"lon":31.6329,"lat":12.7622,"pop":0},{"id":7029090,"name":"’Ibayyiḑ Farraqat","alt":["'Ibayyid Farraqat"],"lon":31.6106,"lat":12.7226,"pop":0},{"id":7029085,"name":"’Ibayyiḑ Mahadi","alt":["'Ibayyid Mahadi"],"lon":31.5921,"lat":12.7465,"pop":0},{"id":7029647,"name":"’Idin","alt":["'Idin"],"lon":30.3689,"lat":11.6826,"pop":0},{"id":7029150,"name":"’Ihemir","alt":["'Ihemir"],"lon":31.9388,"lat":12.674,"pop":0},{"id":7026316,"name":"Ab ‘Adāra","alt":["Ab `Adara"],"lon":33.0154,"lat":14.6781,"pop":0},{"id":7504217,"name":"Ab ‘Adāra","alt":["Ab `Adara"],"lon":32.8202,"lat":12.4307,"pop":0},{"id":381032,"name":"Ab ‘Ajāj","alt":["Ab `Ajaj","Abu `Agag","Abu `Ajaj","Abu ‘Agag","Abū ‘Ajāj"],"lon":32.2765,"lat":14.6331,"pop":0},{"id":381005,"name":"Ab ‘Ōn","alt":["Ab 'On","Abu `Aun","Abu `Awn","Abu ‘Aun","Abū ‘Awn"],"lon":32.8056,"lat":14.1519,"pop":0},{"id":6983280,"name":"Ab ‘Uruf","alt":["Ab `Uruf"],"lon":32.8743,"lat":14.7838,"pop":0},{"id":444147,"name":"Ab Ajaj","lon":34.4835,"lat":17.3101,"pop":0},{"id":6983189,"name":"Ab Bāra","alt":["Ab Bara"],"lon":32.9158,"lat":14.9705,"pop":0},{"id":7025992,"name":"Ab Darish","lon":32.4581,"lat":14.9914,"pop":0},{"id":7031470,"name":"Ab Deinar","lon":30.0442,"lat":11.0107,"pop":0},{"id":6977078,"name":"Ab Disebi‘","alt":["Ab Disebi`"],"lon":31.0866,"lat":11.6078,"pop":0},{"id":381101,"name":"Ab Gir","lon":31.75,"lat":11.76667,"pop":0},{"id":7033674,"name":"Ab Ḩajar","alt":["Ab Hajar"],"lon":34.2801,"lat":12.4307,"pop":0},{"id":7028986,"name":"Ab Jarād","alt":["Ab Jarad"],"lon":31.1549,"lat":12.89,"pop":0},{"id":7026421,"name":"Ab Ji‘erin","alt":["Ab Ji`erin"],"lon":33.1515,"lat":14.3149,"pop":0},{"id":7029080,"name":"Ab Jireqimma","lon":31.5537,"lat":12.7919,"pop":0},{"id":7029087,"name":"Ab Jireqimma","lon":31.6086,"lat":12.776,"pop":0},{"id":7029550,"name":"Ab Lādūma","alt":["Ab Laduma"],"lon":31.5061,"lat":12.0395,"pop":0},{"id":444151,"name":"Ab Namel","lon":34.4009,"lat":17.285,"pop":0},{"id":7018687,"name":"Āb Nāyiţ","alt":["Ab Nayit"],"lon":32.2338,"lat":13.9659,"pop":0},{"id":7033669,"name":"Ab Nūra","alt":["Ab Nura"],"lon":34.21,"lat":12.4643,"pop":0},{"id":7026211,"name":"Ab Qarqur","lon":33.0124,"lat":14.8102,"pop":0},{"id":7029012,"name":"Ab Qawi Janūb","alt":["Ab Qawi Janub"],"lon":31.3037,"lat":12.8879,"pop":0},{"id":7029014,"name":"Ab Qawy","lon":31.3254,"lat":12.9174,"pop":0},{"id":7029013,"name":"Ab Qawy al Marakīb","alt":["Ab Qawy al Marakib"],"lon":31.3238,"lat":12.9062,"pop":0},{"id":380894,"name":"Ab Qumri","alt":["Abu Gimri","Abū Gimri"],"lon":32.251,"lat":13.8425,"pop":0},{"id":7026389,"name":"Ab Qumri","lon":33.4571,"lat":14.1118,"pop":0},{"id":7026592,"name":"Ab Raḑom","alt":["Ab Radom"],"lon":32.5392,"lat":14.0489,"pop":0},{"id":380610,"name":"Ab Ramād","alt":["Ab Ramad","Abu Ramad","Abū Ramād"],"lon":34.3601,"lat":11.9048,"pop":0},{"id":444007,"name":"Ab Shambala","alt":["Ab Shambal"],"lon":32.688,"lat":16.3122,"pop":0},{"id":7033692,"name":"Ab Şurra","alt":["Ab Surra"],"lon":34.3241,"lat":12.387,"pop":0},{"id":6983212,"name":"Ab Suwār","alt":["Ab Suwar"],"lon":32.6521,"lat":14.9159,"pop":0},{"id":380337,"name":"Ab Zūr","alt":["Ab Zur","Abu Zawr","Abu Zor","Abū Zawr"],"lon":34.352,"lat":12.3877,"pop":0},{"id":7026408,"name":"Ab‘iref","alt":["Ab`iref"],"lon":33.0183,"lat":14.0573,"pop":0},{"id":380957,"name":"Aba Diqin","alt":["Abu Dhaqn","Abu Dign","Abu Dīgn","Abū Dhaqn"],"lon":33.0358,"lat":14.4319,"pop":0},{"id":8148677,"name":"Abag","lon":24.90083,"lat":10.67153,"pop":0},{"id":381215,"name":"Abaka","lon":22.54611,"lat":14.34517,"pop":0},{"id":381210,"name":"Abalga","lon":23.78333,"lat":13.53333,"pop":0},{"id":381202,"name":"Abania","lon":34.55,"lat":11.06667,"pop":0},{"id":381188,"name":"Abatta","lon":30.48333,"lat":19.51667,"pop":0},{"id":381187,"name":"Abauadala","lon":34.56667,"lat":11.13333,"pop":0},{"id":7026672,"name":"Abbakar","lon":33.4715,"lat":14.1828,"pop":0},{"id":381180,"name":"Abbogol","lon":34.63333,"lat":11.18333,"pop":0},{"id":7504254,"name":"Abd as Salām","alt":["Abd as Salam"],"lon":32.7952,"lat":12.2957,"pop":0},{"id":7751662,"name":"Abdia","lon":24.91116,"lat":13.35743,"pop":0},{"id":381116,"name":"Abeikli","lon":33.46667,"lat":14.33333,"pop":0},{"id":381111,"name":"Abeiya","lon":31.1,"lat":13.18333,"pop":0},{"id":381110,"name":"Abekr","lon":28.91667,"lat":12.71667,"pop":0},{"id":381109,"name":"Abela","lon":34.58333,"lat":11.41667,"pop":0},{"id":381100,"name":"Abguana","lon":34.11667,"lat":9.61667,"pop":0},{"id":381084,"name":"Abī Karu","lon":25.7,"lat":12.21667,"pop":0},{"id":381061,"name":"Abota","lon":22.20379,"lat":13.09746,"pop":0},{"id":381060,"name":"Aboti","lon":25.61667,"lat":10.95,"pop":0},{"id":7026324,"name":"Abqar","lon":32.0741,"lat":14.4886,"pop":0},{"id":7467729,"name":"Abrabi","lon":23.75558,"lat":10.91553,"pop":0},{"id":381057,"name":"Abraq","lon":33.0081,"lat":14.3912,"pop":0},{"id":381046,"name":"Abri","alt":["Sukkot","`Abri","Абри","‘Abrī"],"lon":30.35035,"lat":20.80036,"pop":0},{"id":381047,"name":"Abri","lon":30.4508,"lat":11.6759,"pop":0},{"id":7028909,"name":"Abu ‘Aḑḑā","alt":["Abu `Adda"],"lon":32.3895,"lat":13.12,"pop":0},{"id":381035,"name":"Abū ‘Agala","lon":35.5,"lat":14.05,"pop":0},{"id":381033,"name":"Abū ‘Agub","lon":29.3,"lat":13.76667,"pop":0},{"id":381029,"name":"Abū ‘Ajūrah","alt":["Abu Ajala","Abu Ajura","Abu `Ajurah"],"lon":24.66667,"lat":11.6,"pop":0},{"id":381015,"name":"Abū ‘Aqla","lon":33.56667,"lat":14.93333,"pop":0},{"id":381016,"name":"Abū ‘Aqla","lon":34.1,"lat":12.8,"pop":0},{"id":381011,"name":"Abu ‘Arāyish","alt":["Abu `Araish","Abu `Arayish","Abū ‘Araish"],"lon":32.3912,"lat":13.4475,"pop":0},{"id":381006,"name":"Abū ‘Awjā’","alt":["Abu `Auga","Abu `Awja'","Abu ‘Auga"],"lon":31.05,"lat":12.05,"pop":0},{"id":7029010,"name":"Abu ‘Awwa","alt":["Abu `Awwa"],"lon":31.4271,"lat":12.9108,"pop":0},{"id":7029011,"name":"Abu ‘Awwa al Qal‘a","alt":["Abu `Awwa al Qal`a"],"lon":31.4179,"lat":12.8958,"pop":0},{"id":381004,"name":"Abū ‘Awwā’","alt":["Abu `Auwa","Abu `Awwa'","Abu ‘Auwa"],"lon":31.6,"lat":13.28333,"pop":0},{"id":7026261,"name":"Abu ‘Ilela","alt":["Abu `Ilela"],"lon":33.4812,"lat":14.529,"pop":0},{"id":7029553,"name":"Abu ‘Iref","alt":["Abu `Iref"],"lon":33.213,"lat":12.4109,"pop":0},{"id":380395,"name":"Abū ‘Ūd","lon":25.7,"lat":11.2,"pop":0},{"id":380396,"name":"Abū ‘Ūd","lon":24.05,"lat":11.05,"pop":0},{"id":6977089,"name":"Abu ‘Uḑām","alt":["Abu `Udam"],"lon":31.0257,"lat":11.5159,"pop":0},{"id":380381,"name":"Abū ‘Urf","lon":32.18333,"lat":13.78333,"pop":0},{"id":380377,"name":"Abū ‘Urūq","lon":30.45,"lat":15.9,"pop":0},{"id":380378,"name":"Abū ‘Urūq","alt":["Abu `Urug","Abu `Uruq","Abu ‘Urug"],"lon":34.21667,"lat":13.71667,"pop":0},{"id":380372,"name":"Abū ‘Urwah","alt":["Abu `Irwa","Abu `Urwah","Abu ‘Irwa"],"lon":35.83333,"lat":13.55,"pop":0},{"id":380371,"name":"Abū ‘Uşfūr","lon":32.18333,"lat":13.21667,"pop":0},{"id":7026037,"name":"Abu ‘Ush","alt":["Abu `Ush"],"lon":32.4758,"lat":14.7053,"pop":0},{"id":7033673,"name":"Abu ‘Ushar","alt":["Abu `Ushar"],"lon":34.2758,"lat":12.4449,"pop":0},{"id":380370,"name":"Abū ‘Ushar","alt":["Abu `Ushar"],"lon":33.2073,"lat":14.9213,"pop":0},{"id":8029656,"name":"Abu ’Ali","lon":25.00538,"lat":10.01458,"pop":0},{"id":381024,"name":"Abū al Faḩl","alt":["Abu al Fahl","Abu el Fahl"],"lon":25.48333,"lat":10.95,"pop":0},{"id":7026621,"name":"Abu al Ḩasan","alt":["Abu al Hasan"],"lon":32.7673,"lat":14.2592,"pop":0},{"id":381022,"name":"Abū al Ḩasan","alt":["Abu al Hasan","Abu el Hasan"],"lon":33.25,"lat":16.61667,"pop":0},{"id":381019,"name":"Abu Ammar","lon":34.14,"lat":17.61806,"pop":0},{"id":374165,"name":"Abu Andud","alt":["Hammad Abu Andud","Ḩammād Abū Andud"],"lon":32.68333,"lat":13.11667,"pop":0},{"id":12493827,"name":"Abu Ariash","lon":32.14417,"lat":13.20444,"pop":0},{"id":6992446,"name":"Abu Ashab","lon":32.5517,"lat":15.8991,"pop":0},{"id":381001,"name":"Abū Bābūn","lon":34.73333,"lat":13.3,"pop":0},{"id":12493848,"name":"Abu Bakar Sati","lon":32.65878,"lat":13.17341,"pop":0},{"id":380996,"name":"Abū Baraş","lon":34.51667,"lat":10.86667,"pop":0},{"id":380986,"name":"Abū Ḑabārah","alt":["Abu Dabarah","Abu Dubara"],"lon":28.03333,"lat":12.06667,"pop":0},{"id":380979,"name":"Abū Dangal","lon":25.71667,"lat":12.35,"pop":0},{"id":380978,"name":"Abū Daql","lon":28.68333,"lat":12.73333,"pop":0},{"id":380974,"name":"Abū Darīsah","alt":["Abu Darisah","Abu Derisa"],"lon":36.25894,"lat":14.29161,"pop":0},{"id":380973,"name":"Abu Dawaya","alt":["Abu Dawaia","Abu Dawayah","Abū Dawāyah"],"lon":34.4701,"lat":11.5703,"pop":0},{"id":380971,"name":"Abū Dawm","alt":["Abu Dawm","Abu Dom"],"lon":31.16667,"lat":17.96667,"pop":0},{"id":380972,"name":"Abū Dawm","alt":["Abu Dawm","Abu Dom"],"lon":32.60583,"lat":16.28139,"pop":0},{"id":380964,"name":"Abū Dawmah","alt":["Abu Dawmah","Abu Doma"],"lon":32.49611,"lat":15.44139,"pop":0},{"id":380965,"name":"Abū Dawmah","alt":["Abu Dawmah","Abu Doma"],"lon":33.73333,"lat":14.55,"pop":0},{"id":380966,"name":"Abū Dawmah","alt":["Abu Dawmah","Abu Doma"],"lon":28.05,"lat":11.88333,"pop":0},{"id":380962,"name":"Abū Dazzah","alt":["Abu Dazza","Abu Dazzah"],"lon":27.68333,"lat":13.48333,"pop":0},{"id":380961,"name":"Abu Deiyuta","alt":["Abdu Deiyata","Abu Deiyata","Abū Deiyata"],"lon":22.47431,"lat":12.71421,"pop":0},{"id":380960,"name":"Abu Delelq","lon":33.8,"lat":15.9,"pop":0},{"id":380959,"name":"Abū Dellum al A‘má","lon":30.2,"lat":13.9,"pop":0},{"id":380955,"name":"Abū Dīk","lon":27.86667,"lat":12.8,"pop":0},{"id":7026413,"name":"Abu Diqin","lon":33.0892,"lat":14.3475,"pop":0},{"id":380952,"name":"Abū Dīs","alt":["Abu Dis","abw dys","أبو ديس"],"lon":33.56667,"lat":19.13333,"pop":0},{"id":380948,"name":"Abū Dulayq","alt":["Abu Deleig","Abu Deleiq","Abu Dulayq"],"lon":33.81667,"lat":15.9,"pop":0},{"id":380940,"name":"Abū Durays","alt":["Abu Dereis","Abu Durays"],"lon":32.55,"lat":15.28333,"pop":0},{"id":381021,"name":"Abu el Khil","alt":["Abu al Khil","Abū al Khil"],"lon":34.68333,"lat":17.18333,"pop":0},{"id":380928,"name":"Abū Fāţimah","alt":["Abu Fatima","Abu Fatimah"],"lon":30.41667,"lat":19.66667,"pop":0},{"id":6992452,"name":"Abu Fatwa","lon":32.5533,"lat":15.8524,"pop":0},{"id":380926,"name":"Abū Fawaghi","lon":28.1,"lat":12.3,"pop":0},{"id":12493828,"name":"Abu Frewa","alt":["abw frywt","ابو فريوة"],"lon":32.145,"lat":13.23944,"pop":0},{"id":380922,"name":"Abū Funduq","alt":["Abu Fandok","Abu Funduq"],"lon":28.75,"lat":13.5,"pop":0},{"id":7026163,"name":"Abu Furū‘","alt":["Abu Furu`"],"lon":33.2852,"lat":14.7929,"pop":0},{"id":7751783,"name":"Abu Gabaya","lon":24.95204,"lat":13.31218,"pop":0},{"id":380921,"name":"Abū Gamal","lon":36.43333,"lat":15.16667,"pop":0},{"id":380909,"name":"Abū Gelba","lon":31.86667,"lat":13.18333,"pop":0},{"id":380904,"name":"Abu Ghanīm","alt":["Abu Ghanim"],"lon":32.4215,"lat":14.7211,"pop":0},{"id":380902,"name":"Abū Gheid","lon":27.08333,"lat":11.75,"pop":0},{"id":380898,"name":"Abū Ghunaywah","alt":["Abu Gheneiwa","Abu Ghunaywah"],"lon":32.61667,"lat":14.61667,"pop":0},{"id":380895,"name":"Abū Gi‘eirin","lon":33.13333,"lat":14.31667,"pop":0},{"id":380892,"name":"Abū Gir","alt":["Abu Gir"],"lon":31.75,"lat":11.91667,"pop":0},{"id":380891,"name":"Abū Giri","lon":26.34251,"lat":15.05102,"pop":0},{"id":380888,"name":"Abū Gogi","alt":["Abu Gogi"],"lon":31.68333,"lat":11.93333,"pop":0},{"id":380884,"name":"Abu Gudul","lon":25.05,"lat":10.61667,"pop":0},{"id":380881,"name":"Abu Guja","alt":["Abu Guya"],"lon":22.57291,"lat":14.30491,"pop":0},{"id":8029616,"name":"Abu Gurr","lon":24.97942,"lat":10.27464,"pop":0},{"id":380873,"name":"Abū Ḩadīd as Subhani","lon":30.15,"lat":14.6,"pop":0},{"id":380872,"name":"Abu Hagar","lon":30.43333,"lat":19.55,"pop":0},{"id":380868,"name":"Abū Ḩajar","alt":["Abu Hagar","Abu Hajar"],"lon":33.58333,"lat":18.75,"pop":0},{"id":380869,"name":"Abū Ḩajar","alt":["Abu Hagar","Abu Hajar"],"lon":29.71667,"lat":14.06667,"pop":0},{"id":380862,"name":"Abū Ḩalāqīm","lon":32.45,"lat":14.11667,"pop":0},{"id":7026064,"name":"Abū Ḩalāqīm","alt":["Abu Halaqim"],"lon":32.4302,"lat":14.0804,"pop":0},{"id":380859,"name":"Abu Halima","alt":["Abu Halimah","Abū Ḩalīmah"],"lon":32.5623,"lat":15.7705,"pop":0},{"id":380858,"name":"Abū Ḩamad","alt":["Abu Hamad","Abu Hamed"],"lon":33.31667,"lat":19.53333,"pop":0},{"id":7028973,"name":"Abu Ḩamara","alt":["Abu Hamara"],"lon":31.0322,"lat":12.8194,"pop":0},{"id":380854,"name":"Abū Ḩamīrah","alt":["Abu Hamira","Abu Hamirah"],"lon":31.18333,"lat":11.25,"pop":0},{"id":7028877,"name":"Abū Ḩamra","alt":["Abu Hamra"],"lon":32.2006,"lat":13.0696,"pop":0},{"id":7028921,"name":"Abu Ḩamra Al Fādniyya","alt":["Abu Hamra Al Fadniyya"],"lon":32.304,"lat":13.2506,"pop":0},{"id":7028972,"name":"Abu Ḩamra al Qoz","alt":["Abu Hamra al Qoz"],"lon":31.0054,"lat":12.8228,"pop":0},{"id":380851,"name":"Abū Ḩamrā’","lon":32.11667,"lat":13.81667,"pop":0},{"id":380852,"name":"Abū Ḩamrā’","lon":30.66667,"lat":13.28333,"pop":0},{"id":380847,"name":"Abū Har","lon":32.1,"lat":13.55,"pop":0},{"id":380841,"name":"Abū Ḩarāz","lon":33.95697,"lat":18.01082,"pop":0},{"id":380842,"name":"Abū Ḩarāz","lon":33.51667,"lat":14.48333,"pop":0},{"id":380843,"name":"Abū Ḩarāz","lon":29.86667,"lat":12.96667,"pop":0},{"id":7026118,"name":"Abu Ḩaraz Gharb","alt":["Abu Haraz Gharb"],"lon":33.483,"lat":14.4896,"pop":0},{"id":380822,"name":"Abū Hashim","lon":33.58333,"lat":19.01667,"pop":0},{"id":380823,"name":"Abū Hashim","lon":33.58333,"lat":18.93333,"pop":0},{"id":380825,"name":"Abū Hashim","alt":["Abu Hashim"],"lon":34.3494,"lat":11.9674,"pop":0},{"id":380824,"name":"Abū Hashīm","lon":34.31667,"lat":13.03333,"pop":0},{"id":413202,"name":"Abū Hashīsh","alt":["Abu Hashish"],"lon":37.2291,"lat":19.6302,"pop":0},{"id":380807,"name":"Abu Ḩawwa","alt":["Abu Hauwa","Abu Hawwa"],"lon":32.6702,"lat":14.2195,"pop":0},{"id":7028903,"name":"Abu Hayāma","alt":["Abu Hayama"],"lon":32.3826,"lat":13.0638,"pop":0},{"id":380805,"name":"Abū Ḩibera","alt":["Abu Hibeira","Abu Hibera","Abū Hibeira"],"lon":32.371,"lat":14.021,"pop":0},{"id":380802,"name":"Abu Hindi","lon":32.4984,"lat":13.7025,"pop":0},{"id":380801,"name":"Abū Ḩirāb","alt":["Abu Hirab","Abu Hurab"],"lon":34.25,"lat":12.46667,"pop":0},{"id":380798,"name":"Abū Horira","lon":33.5,"lat":15.18333,"pop":0},{"id":380803,"name":"Abu Ḩujār","alt":["Abu Higar","Abu Hijar","Abu Hujar","Abū Ḩijār"],"lon":33.9885,"lat":12.8542,"pop":0},{"id":380788,"name":"Abū Ḩumayrah","alt":["Abu Humayrah","Abu Humeira"],"lon":32.26667,"lat":13.05,"pop":0},{"id":380789,"name":"Abū Ḩumayrah","alt":["Abu Humayrah","Abu Humeira"],"lon":28.45,"lat":12.56667,"pop":0},{"id":380775,"name":"Abu Jabirah","alt":["Abu Gabra","Abu Jabra","Abu Jabrah","Abū Jabrah","Abū Jabrā"],"lon":26.85591,"lat":11.06589,"pop":0},{"id":380774,"name":"Abu Jalfa","alt":["Ab Jalfa","Abu Galfa","Abu Jalfah","Abū Jalfah"],"lon":33.4798,"lat":14.7247,"pop":0},{"id":380773,"name":"Abū Jallābīyah","alt":["Abu Gallabiya","Abu Jallabiyah"],"lon":25.2,"lat":10.95,"pop":0},{"id":380765,"name":"Abū Jaylī","alt":["Abu Geili","Abu Jayli"],"lon":33.61667,"lat":13.58333,"pop":0},{"id":7028924,"name":"Abu Jibba","lon":32.3583,"lat":13.2241,"pop":0},{"id":380757,"name":"Abu Jibeha","alt":["Abu Gibeyah","Abu Gubeiha","Abu Jubayhah","Abu-Gebeiha","Abū Jubayhah"],"lon":31.2285,"lat":11.4562,"pop":21790},{"id":7504227,"name":"Abu Jidāda","alt":["Abu Jidada"],"lon":32.5125,"lat":12.3763,"pop":0},{"id":380626,"name":"Abu Jires","alt":["Abu Cureis","Abu Gureis","Abu Qurays","Abū Qurayş","Gureis"],"lon":31.60384,"lat":11.76445,"pop":0},{"id":380754,"name":"Abū Jumayy","alt":["Abu Gemai","Abu Jumayy","Ramadan"],"lon":34.5,"lat":11.51667,"pop":0},{"id":7026241,"name":"Abu Juwēlī","alt":["Abu Juweli"],"lon":33.2296,"lat":14.6993,"pop":0},{"id":380752,"name":"Abū Kabisa","lon":27.33333,"lat":13.1,"pop":0},{"id":12493832,"name":"Abu Kardoos","alt":["abwkdrws","ابوكدروس"],"lon":32.73111,"lat":12.60528,"pop":0},{"id":380751,"name":"Abu Karinka","lon":26.54357,"lat":11.58708,"pop":0},{"id":380750,"name":"Abu Karish","lon":33.93232,"lat":10.20567,"pop":0},{"id":380747,"name":"Abu Kebeida & El Kheiran","alt":["Abu Kebeida","El Kheiran"],"lon":33.92948,"lat":18.15679,"pop":0},{"id":380746,"name":"Abū Kershola","alt":["Abu Kershola","Abukarshola","abw krshwla","ابو كرشولا"],"lon":30.8,"lat":12.15,"pop":0},{"id":380745,"name":"Abu Khadīja","alt":["Abu Khadiga","Abu Khadija","Abu Khadijah","Abū Khadījah"],"lon":34.1455,"lat":12.7068,"pop":0},{"id":8385256,"name":"Abu Khadimallata","lon":22.05835,"lat":12.75797,"pop":0},{"id":380741,"name":"Abū Khamsīn","lon":33.71667,"lat":14.55,"pop":0},{"id":7026332,"name":"Abu Khanjar","lon":32.1152,"lat":14.3433,"pop":0},{"id":380732,"name":"Abu Khoreis","alt":["Abu Khureis","Abū Khureis"],"lon":30.21667,"lat":13.28333,"pop":0},{"id":444108,"name":"Abu Khsos","lon":33.9594,"lat":17.9425,"pop":0},{"id":380734,"name":"Abū Khudeira","lon":32.31667,"lat":13.56667,"pop":0},{"id":7026012,"name":"Abu Kilāb","alt":["Abu Kilab"],"lon":32.4518,"lat":14.908,"pop":0},{"id":380749,"name":"Abu Kortod","alt":["Abu Kartod","Abū Kartod"],"lon":34.4313,"lat":11.5875,"pop":0},{"id":380725,"name":"Abū Kū‘","lon":25.93333,"lat":14.05,"pop":0},{"id":380723,"name":"Abu Kūk","alt":["Abu Kuk","Abū Kūk"],"lon":34.3013,"lat":12.1317,"pop":0},{"id":380721,"name":"Abū Kulaywāt","alt":["Abu Kulaywat","Abu Kuleiwat"],"lon":31.16667,"lat":17.96667,"pop":0},{"id":380722,"name":"Abū Kulaywāt","alt":["Abu Kulaywat","Abu Kuleiwat"],"lon":26,"lat":12.33333,"pop":0},{"id":380717,"name":"Abū Kunaysh","alt":["Abu Kunaysh","Abu Kuneish"],"lon":26.6,"lat":10.98333,"pop":0},{"id":380712,"name":"Abū Kutni","lon":22.81667,"lat":15.01667,"pop":0},{"id":380710,"name":"Abū Lamis","lon":31.33333,"lat":13.11667,"pop":0},{"id":380704,"name":"Abu Leila","alt":["Abu Layla","Abū Laylá"],"lon":30.12567,"lat":10.86787,"pop":0},{"id":380703,"name":"Abu Leileiya","alt":["Abu Laylayah","Abū Laylāyah"],"lon":24.95567,"lat":10.42985,"pop":0},{"id":7029298,"name":"Abu Liwayţa","alt":["Abu Liwayta"],"lon":33.0399,"lat":12.6645,"pop":0},{"id":380697,"name":"Abu Luk","lon":22.46725,"lat":13.22493,"pop":0},{"id":380690,"name":"Abū Mareiqa al Haggar","lon":28.55,"lat":12.76667,"pop":0},{"id":7028925,"name":"Abu Maryam","lon":32.3737,"lat":13.2328,"pop":0},{"id":380687,"name":"Abu Matariq","alt":["Abu Matirik","Abū Maţāriq"],"lon":26.29226,"lat":10.96925,"pop":0},{"id":380685,"name":"Abu Maugud","alt":["Abu Muqud"],"lon":33.97034,"lat":10.21161,"pop":0},{"id":7028974,"name":"Abu Midya","lon":31.0234,"lat":12.7437,"pop":0},{"id":380682,"name":"Abu Mina","lon":21.98333,"lat":13.05,"pop":0},{"id":7026549,"name":"Abu Mirekha","lon":32.5128,"lat":14.2479,"pop":0},{"id":8047320,"name":"Abu Naeima","lon":25.17391,"lat":10.33822,"pop":0},{"id":380672,"name":"Abu Ni‘āma","alt":["Abu Na`ama","Abu Na`amah","Abu Na‘ama","Abu Ni`ama","Abū Na‘āmah"],"lon":34.1234,"lat":12.7252,"pop":0},{"id":7029205,"name":"Abu Niwer","lon":32.466,"lat":12.8515,"pop":0},{"id":7031654,"name":"Abu Nuwara","lon":31.4569,"lat":11.2109,"pop":0},{"id":380659,"name":"Abu Nuweira","alt":["Abo Nowara","Abu Nowara","Abu Nuwara","Abu Nuwwara","Abu Nuwwarah","Abu Nuwwāra","Abū Nuwwārah","abw nwarh","ابو نواره"],"lon":31.5202,"lat":11.188,"pop":0},{"id":380658,"name":"Abū Nyanya","lon":25.21667,"lat":12.55,"pop":0},{"id":380657,"name":"Abū Odham","lon":27.38333,"lat":13.55,"pop":0},{"id":380653,"name":"Abū Qa‘b","alt":["Abu Ga`ab","Abu Ga‘ab","Abu Qa`b"],"lon":25.81667,"lat":11.95,"pop":0},{"id":380647,"name":"Abū Qandūl","lon":33.75,"lat":13.15,"pop":0},{"id":7029420,"name":"Abu Qash","lon":35.2775,"lat":12.7913,"pop":0},{"id":380642,"name":"Abū Qawī","lon":34.2,"lat":17.46667,"pop":0},{"id":380638,"name":"Abū Qudāf","alt":["Abu Gedaf","Abu Qudaf"],"lon":34.83333,"lat":11.48333,"pop":0},{"id":380636,"name":"Abū Qulayḩah","alt":["Abu Gileiha","Abu Gleiha","Abu Qulayhah"],"lon":26.93333,"lat":12.15,"pop":0},{"id":380632,"name":"Abū Qulūt","lon":35.9,"lat":13.66667,"pop":0},{"id":7033549,"name":"Abu Qumi","lon":34.4677,"lat":11.504,"pop":0},{"id":380628,"name":"Abū Qurayn","alt":["Abu Ourein","Abu Qurayn","Abu Qurein"],"lon":31.2,"lat":13.16667,"pop":0},{"id":380625,"name":"Abu Qurein","lon":33.96667,"lat":15.78333,"pop":0},{"id":380620,"name":"Abu Qurun","lon":33.8,"lat":18.3,"pop":0},{"id":380621,"name":"Abū Qurūn","alt":["Abu Qurun"],"lon":32.4143,"lat":13.8771,"pop":0},{"id":380618,"name":"Abū Quşşah","alt":["Abu Qussa","Abu Qussah"],"lon":25.53333,"lat":10.83333,"pop":0},{"id":380616,"name":"Abū Qussī","alt":["Abu Gussi","Abu Kussi","Abu Qussi","Abû Kussi"],"lon":30.76667,"lat":18.13333,"pop":0},{"id":380615,"name":"Abū Qūţah","alt":["Abu Guta","Abu Quta","Abu Qutah"],"lon":32.7317,"lat":14.9288,"pop":0},{"id":380614,"name":"Abū Rabha","lon":32.61667,"lat":15.25,"pop":0},{"id":380612,"name":"Abū Raḩmah","lon":34.55,"lat":13.93333,"pop":0},{"id":380611,"name":"Abū Rakhia","lon":32.3,"lat":12.3,"pop":0},{"id":12493858,"name":"Abu Ramad","lon":32.82363,"lat":12.46674,"pop":0},{"id":380606,"name":"Abū Rameinak","lon":25.01667,"lat":11.91667,"pop":0},{"id":7029330,"name":"Abu Rawāgh","alt":["Abu Rawagh"],"lon":33.5652,"lat":12.7291,"pop":0},{"id":380594,"name":"Abū Raydah","alt":["Abu Raydah","Abu Reida"],"lon":35.88333,"lat":14.26667,"pop":0},{"id":8047336,"name":"Abu Riyala","lon":25.40811,"lat":10.38236,"pop":0},{"id":12422475,"name":"Abu Rōf","alt":["AbuRof","AbuRuf","Abū Rūf","abwrwf","ابو روف"],"lon":32.5026,"lat":15.65812,"pop":0},{"id":380587,"name":"Abū Ruf","lon":34.66667,"lat":17.21667,"pop":0},{"id":380583,"name":"Abu Rukba","alt":["Abu Rukbah","Abu Rukha","Abū Rukbah"],"lon":31.9855,"lat":12.9187,"pop":0},{"id":380581,"name":"Abū Rukhayy","alt":["Abu Rakhei","Abu Rukhayy"],"lon":28.65,"lat":13.58333,"pop":0},{"id":380577,"name":"Abū Rumaylah","alt":["Abu Rumaylah","Abu Rumeila"],"lon":32.65,"lat":19.2,"pop":0},{"id":380578,"name":"Abū Rumaylah","alt":["Abu Rumaylah","Abu Rumeila"],"lon":25.9,"lat":14.4,"pop":0},{"id":380579,"name":"Abū Rumaylah","alt":["Abu Rumaylah","Abu Rumeila"],"lon":35.4,"lat":13.51667,"pop":0},{"id":380580,"name":"Abu Rumeil","alt":["Abu Rumayl","Abū Rumayl"],"lon":22.91763,"lat":14.38251,"pop":0},{"id":380575,"name":"Abū Ruqaybah","alt":["Abu Regeiba","Abu Ruqaybah","Abu Ruqeiba"],"lon":34.73333,"lat":11.96667,"pop":0},{"id":380574,"name":"Abu Rus","lon":33.12056,"lat":15.06806,"pop":0},{"id":7026542,"name":"Abu Ruweshid","lon":32.8671,"lat":14.2422,"pop":0},{"id":380570,"name":"Abū Sa‘d","lon":30.81667,"lat":12.91667,"pop":0},{"id":380567,"name":"Abū Sa‘īd","lon":33.01667,"lat":14.5,"pop":0},{"id":380568,"name":"Abū Sa‘īd","lon":34.43333,"lat":12.61667,"pop":0},{"id":12493863,"name":"Abu Sabaya","lon":32.44116,"lat":13.26647,"pop":0},{"id":380572,"name":"Abū Sabīb","lon":31.53333,"lat":15.48333,"pop":0},{"id":380569,"name":"Abu Saffar","lon":33.95861,"lat":17.87861,"pop":0},{"id":380560,"name":"Abu Salalah","alt":["Abu Selala","Abū Salālah"],"lon":24.71667,"lat":11.18333,"pop":0},{"id":380537,"name":"Abu Sari","lon":30.58389,"lat":20.27722,"pop":0},{"id":380523,"name":"Abū Se‘id","lon":32.48333,"lat":15.6,"pop":0},{"id":434475,"name":"Abu Seba","alt":["Abu Seiba","Abū Seiba"],"lon":29.6188,"lat":11.9822,"pop":0},{"id":380516,"name":"Abū Shajar","alt":["Abu Shagar","Abu Shajar","Abu Shidar"],"lon":32.73333,"lat":12.51667,"pop":0},{"id":380510,"name":"Abū Shām","lon":33.49889,"lat":15.06917,"pop":0},{"id":7028852,"name":"Abu Shāma","alt":["Abu Shama"],"lon":32.2154,"lat":13.353,"pop":0},{"id":380509,"name":"Abū Shāmah","alt":["Abu Shama","Abu Shamah"],"lon":27.96667,"lat":10.93333,"pop":0},{"id":380502,"name":"Abū Shanab","lon":27.78333,"lat":13.95,"pop":0},{"id":380503,"name":"Abū Shanab","lon":29.55244,"lat":10.78833,"pop":0},{"id":380499,"name":"Abū Shandī","alt":["Abu Shandi","Abu Shendi"],"lon":34.7,"lat":11.35,"pop":0},{"id":380495,"name":"Abū Sharī‘ah","alt":["Abu Shari`ah","Abu Sheri`a","Abu Sheri‘a"],"lon":30.18333,"lat":14.21667,"pop":0},{"id":380494,"name":"Abū Shatat","lon":27.25,"lat":11.96667,"pop":0},{"id":380493,"name":"Abū Shaţţah","alt":["Abu Shattah","Abu Shotta"],"lon":26.03333,"lat":11.43333,"pop":0},{"id":380492,"name":"Abū Shawag","lon":27.95,"lat":13.45,"pop":0},{"id":380489,"name":"Abū Shawk","alt":["Abu Shawk","Abu Shok"],"lon":31.08333,"lat":13.95,"pop":0},{"id":7018714,"name":"Abu Shibeka","lon":32.291,"lat":13.8452,"pop":0},{"id":7018722,"name":"Abu Shibeka","lon":32.2926,"lat":13.7979,"pop":0},{"id":380484,"name":"Abu Shineb","alt":["Abu Shunayb","Abu Shuneib","Abū Shunayb"],"lon":32.9993,"lat":14.9006,"pop":0},{"id":7029361,"name":"Abu Shotāl","alt":["Abu Shotal"],"lon":34.0537,"lat":12.8463,"pop":0},{"id":380486,"name":"Abu Shugeira","alt":["Abū Shugeira"],"lon":22.25626,"lat":13.77183,"pop":0},{"id":7018734,"name":"Abū Shūk","alt":["Abu Shuk"],"lon":32.3899,"lat":13.7321,"pop":0},{"id":380483,"name":"Abū Shunaynah","alt":["Abu Sheneina","Abu Shinena","Abu Shinēna","Abu Shunaynah"],"lon":34.66667,"lat":11.38333,"pop":0},{"id":380479,"name":"Abū Shuţayr","alt":["Abu Shateir","Abu Shutayr","Abu Shuteir"],"lon":31.51667,"lat":13.03333,"pop":0},{"id":7028980,"name":"Abu Sifefa","lon":31.1394,"lat":12.7323,"pop":0},{"id":7001956,"name":"Abū Sifēfa","alt":["Abu Sifefa"],"lon":29.9215,"lat":11.1797,"pop":0},{"id":380469,"name":"Abū Sikkīn","lon":24.55,"lat":14.06667,"pop":0},{"id":7026001,"name":"Abu Sineqda","lon":32.3418,"lat":14.9664,"pop":0},{"id":380466,"name":"Abū Sinun","lon":29.35,"lat":11.1,"pop":0},{"id":380453,"name":"Abū Sufyān","lon":26.38333,"lat":11.91667,"pop":0},{"id":380447,"name":"Abū Sunayţāt","alt":["Abu Sunaytat","Abu Suneitat"],"lon":34.05,"lat":16.35,"pop":0},{"id":380444,"name":"Abū Suneina","lon":33.4,"lat":14.41667,"pop":0},{"id":8046928,"name":"Abu Suq","lon":25.04697,"lat":10.11649,"pop":0},{"id":380443,"name":"Abu Suqra","alt":["Abu Suqrah","Abū Suqrah"],"lon":33.61667,"lat":13.96667,"pop":0},{"id":380439,"name":"Abu Surug","lon":22.38874,"lat":13.82816,"pop":0},{"id":8389636,"name":"Abu Sury","lon":22.3787,"lat":13.84618,"pop":0},{"id":7029584,"name":"Abu Sūwayliq","alt":["Abu Suwayliq"],"lon":33.7952,"lat":12.0736,"pop":0},{"id":380435,"name":"Abū Tabanu","lon":26.3,"lat":11.33333,"pop":0},{"id":380428,"name":"Abū Tagara","lon":32.06667,"lat":14.08333,"pop":0},{"id":7031605,"name":"Abu Ţaliḩ","alt":["Abu Talih"],"lon":31.5987,"lat":11.1474,"pop":0},{"id":380421,"name":"Abū Tawala","alt":["Abu Tawala"],"lon":31.6701,"lat":11.01614,"pop":0},{"id":7026176,"name":"Abu Ţileḩ","alt":["Abu Tileh"],"lon":33.1016,"lat":14.5333,"pop":0},{"id":380413,"name":"Abu Tin","lon":33.2,"lat":19.53333,"pop":0},{"id":380418,"name":"Abu Tīqa","alt":["Abu Tiga","Abu Tiqa","Abū Tiga"],"lon":34.1525,"lat":12.75455,"pop":0},{"id":380402,"name":"Abū Ţunayţin","alt":["Abu Tineitin","Abu Tunaytin"],"lon":31.01667,"lat":14.4,"pop":0},{"id":380400,"name":"Abū Turay‘ah","alt":["Abu Turay`ah","Abu Turei`a","Abu Turei‘a"],"lon":28.9,"lat":13.53333,"pop":0},{"id":380388,"name":"Abū Umm Bashīr","lon":24.11036,"lat":10.98894,"pop":0},{"id":8250066,"name":"Abu Umm Gagga","lon":29.23491,"lat":10.90731,"pop":0},{"id":7028940,"name":"Abu Witid","lon":32.4153,"lat":13.444,"pop":0},{"id":380348,"name":"Abū Zabad","alt":["Abu Zabad"],"lon":29.25,"lat":12.35,"pop":15304},{"id":380346,"name":"Abu Zaghūli","alt":["Abu Zagholi","Abu Zaghuli","Abū Zagholi"],"lon":34.3556,"lat":11.7433,"pop":0},{"id":380342,"name":"Abū Zarad","lon":35.85,"lat":12.96667,"pop":0},{"id":380340,"name":"Abū Zarawi","lon":32.38333,"lat":14.28333,"pop":0},{"id":380336,"name":"Abū Zayd","alt":["Abu Zayd","Abu Zeid","Abu Zeid Wad Umm Balli"],"lon":33.39167,"lat":15.07167,"pop":0},{"id":380330,"name":"Abū Zullayq","alt":["Abu Zullayq","Abu Zulleiq"],"lon":33.16889,"lat":15.47667,"pop":0},{"id":380906,"name":"Abugga","lon":34.51667,"lat":11.15,"pop":0},{"id":8047364,"name":"Abun Gawia","lon":25.64286,"lat":10.40144,"pop":0},{"id":380664,"name":"Abungoro","lon":34.1,"lat":9.96667,"pop":0},{"id":380573,"name":"Abus","lon":34.7,"lat":11,"pop":0},{"id":380534,"name":"Abuser","alt":["Abu Sayr","Abu Seir","Abū Sayr"],"lon":33.1564,"lat":14.7599,"pop":0},{"id":380321,"name":"Abyaḑ","lon":26.46667,"lat":13.76667,"pop":0},{"id":380322,"name":"Abyaḑ","lon":25.18333,"lat":11.15,"pop":0},{"id":364311,"name":"Abyaḑāni","alt":["Abyadani","Wad al Abyadani","Wad al Abyaḑānī","Wad el Abyadani"],"lon":33.3854,"lat":14.2502,"pop":0},{"id":380308,"name":"Abyei","alt":["Ab'ej","Ab'ey","Abej","Abiye","Abiyé","Abjej","Abyey","Abyēy","Ab’ey","Chief Kwai Arab","Oblast Abyei","a bo ye yi","abiei","abyy","abyyy","Абьей","Абєй","Абјеј","أبيي","ابیئی","アビエイ","阿卜耶伊","아비에이"],"lon":28.43493,"lat":9.59525,"pop":0},{"id":8249977,"name":"Achrun","lon":30.1984,"lat":10.89917,"pop":0},{"id":7031459,"name":"Ad Daba","lon":30.3117,"lat":11.0767,"pop":0},{"id":7029468,"name":"Ad Dabādib","alt":["Ad Dabadib"],"lon":31.4188,"lat":12.3569,"pop":0},{"id":7029260,"name":"Ad Dabba","lon":32.2801,"lat":12.8744,"pop":0},{"id":380186,"name":"Ad Dabbah","alt":["Ad Dabba","Al Dabbah","Dabbah","Debba","Debbat el Muaskar","Debbeh","EDB","Ed Debba"],"lon":30.95,"lat":18.05,"pop":11626},{"id":380187,"name":"Ad Dabbah","alt":["Ed Debba"],"lon":33.31667,"lat":14.76667,"pop":0},{"id":380185,"name":"Ad Dabbūrah","alt":["Ad Dabbura","Ad Dabburah","Ed Dabbura"],"lon":34.23333,"lat":17.53333,"pop":0},{"id":7029022,"name":"Ad Dabkar","lon":31.0149,"lat":12.5788,"pop":0},{"id":7029023,"name":"Ad Dabkar","lon":31.0114,"lat":12.557,"pop":0},{"id":380182,"name":"Ad Dabkir","alt":["Debkar","Debker"],"lon":29.43333,"lat":12.35,"pop":0},{"id":380183,"name":"Ad Dabkir","alt":["Ed Dabker"],"lon":31.51667,"lat":12.01667,"pop":0},{"id":7029444,"name":"Ad Dādōri","alt":["Ad Dadori"],"lon":31.1141,"lat":12.303,"pop":0},{"id":380178,"name":"Ad Dahhab","alt":["Ed Dahhab"],"lon":36.1,"lat":13.9,"pop":0},{"id":380175,"name":"Ad Dai","alt":["Ed Dai"],"lon":31.5,"lat":13.25,"pop":0},{"id":7033545,"name":"Ad Dākhla","alt":["Ad Dakhla"],"lon":34.4151,"lat":11.6039,"pop":0},{"id":7031558,"name":"Ad Dakka","lon":31.006,"lat":11.2674,"pop":0},{"id":7029184,"name":"Ad Dāli","alt":["Ad Dali"],"lon":33.4128,"lat":12.8655,"pop":0},{"id":7026025,"name":"Ad Dam","lon":32.1327,"lat":14.7082,"pop":0},{"id":7029462,"name":"Ad Damra","lon":31.2781,"lat":12.1734,"pop":0},{"id":12422486,"name":"Ad Danāqlah Janūb","alt":["AdDanaqlahJanub","aldnaqltjnwb","الدناقلة جنوب"],"lon":32.52895,"lat":15.62485,"pop":0},{"id":12422485,"name":"Ad Danāqlah Shamāl","alt":["AdDanaqlahShamal","aldnaqltshmal","الدناقلة شمال"],"lon":32.52728,"lat":15.63502,"pop":0},{"id":7031446,"name":"Ad Dandour","lon":30.0919,"lat":11.2404,"pop":0},{"id":380171,"name":"Ad Danget","alt":["Ed Danget"],"lon":34.66667,"lat":11.28333,"pop":0},{"id":7029152,"name":"Ad Danqu","lon":31.8549,"lat":12.6554,"pop":0},{"id":380170,"name":"Ad Daqqāqah","alt":["Ad Daqqaqah","Ed Daqqaqa"],"lon":34.2,"lat":13.15,"pop":0},{"id":380169,"name":"Ad Darabi","alt":["Ed Darabi"],"lon":36.06667,"lat":13.96667,"pop":0},{"id":7026026,"name":"Ad Darādir","alt":["Ad Daradir"],"lon":32.214,"lat":14.6718,"pop":0},{"id":7029191,"name":"Ad Darādir","alt":["Ad Daradir"],"lon":32.1731,"lat":12.9717,"pop":0},{"id":7018777,"name":"Ad Ḑarawāb","alt":["Ad Darawab"],"lon":32.2316,"lat":13.5019,"pop":0},{"id":7029279,"name":"Aḑ Ḑaw","alt":["Ad Daw"],"lon":33.048,"lat":12.8815,"pop":0},{"id":7029280,"name":"Aḑ Ḑaw","alt":["Ad Daw"],"lon":33.0614,"lat":12.8558,"pop":0},{"id":380166,"name":"Ad Dawḩah","alt":["Ad Dawhah","Ed Doha"],"lon":33.43333,"lat":13.98333,"pop":0},{"id":380164,"name":"Ad Dawmah","alt":["Ed Doma"],"lon":34.38333,"lat":11.91667,"pop":0},{"id":380162,"name":"Ad Dawwab","alt":["Ed Dawwab"],"lon":32.54167,"lat":16.02389,"pop":0},{"id":7029016,"name":"Ad Dāya","alt":["Ad Daya"],"lon":31.0014,"lat":12.6862,"pop":0},{"id":380159,"name":"Ad Daym","alt":["Ed Deim"],"lon":34.93333,"lat":11.23333,"pop":0},{"id":7029396,"name":"Ad Dāyra","alt":["Ad Dayra"],"lon":34.0029,"lat":12.9244,"pop":0},{"id":380158,"name":"Ad Debeilu","alt":["Ed Debeilu"],"lon":30.53333,"lat":12.35,"pop":0},{"id":380157,"name":"Ad Delatia","alt":["Ed Delatia"],"lon":32.88333,"lat":15.36667,"pop":0},{"id":7026252,"name":"Ad Dem","lon":33.3964,"lat":14.6419,"pop":0},{"id":7028859,"name":"Ad Dem","lon":32.0385,"lat":13.2758,"pop":0},{"id":7029360,"name":"Ad Dem","lon":34.0271,"lat":12.9123,"pop":0},{"id":7029445,"name":"Ad Dem","lon":31.1446,"lat":12.3172,"pop":0},{"id":380155,"name":"Ad Dereis","alt":["Ed Dereis"],"lon":27.45,"lat":11.73333,"pop":0},{"id":7026462,"name":"Ad Dibab","lon":33.0699,"lat":14.307,"pop":0},{"id":376242,"name":"Ad Dibeba","alt":["Dubaybat ad Dubasiyin","Dubeiba","Dubeiba ed Dubasiyin"],"lon":33.0176,"lat":14.955,"pop":0},{"id":6976926,"name":"Ad Dibeba","lon":31.7234,"lat":11.9317,"pop":0},{"id":6983242,"name":"Ad Dibeba","lon":32.9278,"lat":14.5015,"pop":0},{"id":7025999,"name":"Ad Dibeba","lon":32.359,"lat":14.9457,"pop":0},{"id":7026063,"name":"Ad Dibeba","lon":32.3436,"lat":14.1058,"pop":0},{"id":7028916,"name":"Ad Dibeba","lon":32.3244,"lat":13.1942,"pop":0},{"id":7029100,"name":"Ad Dibeba","lon":31.7387,"lat":12.8466,"pop":0},{"id":7029358,"name":"Ad Dibeba","lon":34.0143,"lat":12.8713,"pop":0},{"id":7033663,"name":"Ad Dibeba","lon":34.1291,"lat":12.4887,"pop":0},{"id":7026123,"name":"Ad Dibeba ‘Abd Allah","alt":["Ad Dibeba `Abd Allah"],"lon":33.1051,"lat":14.9991,"pop":0},{"id":376244,"name":"Ad Dibeba al Hiwe","alt":["Dubaybah","Dubeiba"],"lon":32.8623,"lat":15.3998,"pop":0},{"id":6854121,"name":"Ad Dibeda","lon":32.7362,"lat":12.7505,"pop":0},{"id":7504259,"name":"Ad Dibkarāya","alt":["Ad Dibkaraya"],"lon":32.6998,"lat":12.2601,"pop":0},{"id":7029065,"name":"Ad Difena","lon":31.602,"lat":12.9543,"pop":0},{"id":7029544,"name":"Ad Dighena","lon":31.7241,"lat":12.0526,"pop":0},{"id":7026358,"name":"Aḑ Ḑiher","alt":["Ad Diher"],"lon":32.2509,"lat":14.0693,"pop":0},{"id":7029241,"name":"Ad Diḩeshāt","alt":["Ad Diheshat"],"lon":32.0053,"lat":12.7174,"pop":0},{"id":7031639,"name":"Ad Dilebāt","alt":["Ad Dilebat"],"lon":31.3621,"lat":11.4066,"pop":0},{"id":380151,"name":"Ad Dindar","lon":34.16667,"lat":13.2,"pop":15144},{"id":6983267,"name":"Ad Dineqīla","alt":["Ad Dineqila"],"lon":32.8472,"lat":14.641,"pop":0},{"id":376127,"name":"Aḑ Ḑineqīla","alt":["Ad Dineqila","Dineigila","Dunayqilah"],"lon":32.3745,"lat":13.8821,"pop":0},{"id":7026403,"name":"Ad Diqayyāb","alt":["Ad Diqayyab"],"lon":33.1638,"lat":14.0438,"pop":0},{"id":6854139,"name":"Ad Direra","lon":32.7857,"lat":12.6521,"pop":0},{"id":7029402,"name":"Aḑ Ḑiresa","alt":["Ad Diresa"],"lon":35.0175,"lat":12.9677,"pop":0},{"id":7026046,"name":"Aḑ Ḑiresāb","alt":["Ad Diresab"],"lon":32.2524,"lat":14.9691,"pop":0},{"id":7028957,"name":"Ad Diresāt","alt":["Ad Diresat"],"lon":31.1938,"lat":12.9414,"pop":0},{"id":376376,"name":"Ad Dīsa","alt":["Ad Disa","Disa","Disah","Dīsah"],"lon":34.308,"lat":12.0438,"pop":0},{"id":380149,"name":"Ad Diseis","alt":["Ed Diseis"],"lon":33,"lat":14.25,"pop":0},{"id":7026605,"name":"Ad Dishenāt","alt":["Ad Dishenat"],"lon":32.8587,"lat":14.0293,"pop":0},{"id":7033704,"name":"Ad Doḩa Fallāta","alt":["Ad Doha Fallata"],"lon":34.3273,"lat":12.0427,"pop":0},{"id":7033703,"name":"Ad Doḩa Qimaz","alt":["Ad Doha Qimaz"],"lon":34.3339,"lat":12.0282,"pop":0},{"id":380163,"name":"Ad Doma","alt":["Ad Dawmah","Ed Doma"],"lon":32.8981,"lat":15.3716,"pop":0},{"id":380129,"name":"Ad Douiem","alt":["Ad Diwem","Ad Duwaym","Ad Duwem","Ad Duwēm","Al Dewaym","Dewaim","Dueim","Ed Dueim","Ehd-Duehjm","El Dweim","aldwym","aldwym (mdynt)","Эд-Дуэйм","الدويم (مدينة)","الدویم"],"lon":32.3116,"lat":14.0012,"pop":87068},{"id":7031447,"name":"Ad Drout","lon":30.0473,"lat":11.1749,"pop":0},{"id":380146,"name":"Ad Dubasi","alt":["Dubasi","Ed Dubasi"],"lon":32.23333,"lat":14.21667,"pop":0},{"id":380142,"name":"Ad Dubaybah","alt":["Ed Debeiba"],"lon":31.8,"lat":18.45,"pop":0},{"id":380143,"name":"Ad Dubaybah","alt":["Debeiba","Ed Debeiba","Ed Dubeiba"],"lon":32.46667,"lat":13.71667,"pop":0},{"id":380144,"name":"Ad Dubaybah","alt":["Debeibat","Ed Dubeiba","Ed Dubeibat"],"lon":32.63333,"lat":13.36667,"pop":0},{"id":380141,"name":"Ad Dubaybāt","alt":["Ad Dubaybat","Ed Debeibat","Ed Dubeibat","aldbybat","الدبيبات"],"lon":32.53333,"lat":12.81667,"pop":0},{"id":380137,"name":"Ad Dubaykir","alt":["Dibeikir","Ed Dibeikir"],"lon":32.46667,"lat":12.7,"pop":0},{"id":380134,"name":"Ad Dulayb","alt":["Ed Doleib"],"lon":31.63333,"lat":11.9,"pop":0},{"id":380133,"name":"Ad Dulaybah","alt":["Ed Doleiba"],"lon":33.65,"lat":14.16667,"pop":0},{"id":7029239,"name":"Ad Duqja","lon":32.0506,"lat":12.5294,"pop":0},{"id":7031466,"name":"Ad Duql","lon":30.0575,"lat":11.0604,"pop":0},{"id":380131,"name":"Ad Dushaynāb","alt":["Ad Dushaynab","Ed Disheinab"],"lon":32.55,"lat":15.98333,"pop":0},{"id":380128,"name":"Ad Duwaym","alt":["Ed Duweim","El Dueim"],"lon":31.83333,"lat":18.5,"pop":0},{"id":380127,"name":"Ad Duwaymah","alt":["Dueima","Ed Dueima","Ed Duweima"],"lon":31.08333,"lat":14.11667,"pop":0},{"id":7026251,"name":"Ad Duwenīb","alt":["Ad Duwenib"],"lon":33.3686,"lat":14.6556,"pop":0},{"id":380174,"name":"Ad-Damazin","alt":["Ad Damazin","Ad Damāzīn","Damazin","Ed Damazin","RSS","aldmazyn","Ед Дамазин","الدمازين"],"lon":34.3592,"lat":11.7891,"pop":186051},{"id":380283,"name":"Adaluta","alt":["Adalata"],"lon":22.48014,"lat":13.22524,"pop":0},{"id":380268,"name":"Ādam Bawsh","alt":["Adam Bawsh","Adam Bosh"],"lon":23.63333,"lat":14.9,"pop":0},{"id":380269,"name":"Adama Umm Qurein","alt":["Adama Umm Qurayn","War Yurt"],"lon":27.9137,"lat":9.82483,"pop":0},{"id":380263,"name":"Adara","lon":30.8,"lat":13.56667,"pop":0},{"id":380248,"name":"Adarama","lon":34.88889,"lat":17.08167,"pop":0},{"id":8384881,"name":"Adariam","lon":22.54485,"lat":14.37243,"pop":0},{"id":380197,"name":"Adassi","lon":34.8,"lat":11.28333,"pop":0},{"id":7026587,"name":"Addabba","lon":32.6813,"lat":14.0969,"pop":0},{"id":7001941,"name":"Addibēbāt","alt":["Addibebat"],"lon":29.8989,"lat":11.2596,"pop":0},{"id":380114,"name":"Adi","lon":34.86667,"lat":11.1,"pop":0},{"id":380109,"name":"Adigi","lon":22.01243,"lat":13.09885,"pop":0},{"id":8389614,"name":"Adira","lon":22.14973,"lat":13.62788,"pop":0},{"id":380089,"name":"Adobana","lon":38.265,"lat":18.1817,"pop":0},{"id":380083,"name":"Adoma","alt":["Ad Doma"],"lon":28.36667,"lat":11.73333,"pop":0},{"id":380074,"name":"Adrur","lon":26.40854,"lat":15.10367,"pop":0},{"id":8384924,"name":"Adum","lon":22.60008,"lat":14.33573,"pop":0},{"id":380067,"name":"Adusa","lon":30.85,"lat":13.88333,"pop":0},{"id":380060,"name":"Aegir","lon":36.33917,"lat":16.05444,"pop":0},{"id":8385677,"name":"Aegra","lon":22.15684,"lat":12.68907,"pop":0},{"id":380057,"name":"Affat","alt":["Affad"],"lon":31.18333,"lat":18.01667,"pop":0},{"id":380056,"name":"Affia","lon":23.88333,"lat":13.93333,"pop":0},{"id":380055,"name":"Afflanda","alt":["Aflanda"],"lon":38.41667,"lat":18.05,"pop":0},{"id":380040,"name":"Agada","lon":30.46667,"lat":19.28333,"pop":0},{"id":7041504,"name":"Agandili","lon":24.31957,"lat":12.7162,"pop":0},{"id":380027,"name":"Agani","alt":["Againi","Agangi"],"lon":34.18333,"lat":10.2,"pop":0},{"id":380022,"name":"Agari","lon":30.6,"lat":13,"pop":0},{"id":380023,"name":"Agari","lon":30.58333,"lat":12.98333,"pop":0},{"id":380021,"name":"Agaru","lon":34.73333,"lat":10.98333,"pop":0},{"id":380017,"name":"Agdoub","lon":36.38333,"lat":15.55,"pop":0},{"id":380016,"name":"Ageida","lon":33.71667,"lat":17.28333,"pop":0},{"id":380015,"name":"Ageig","lon":30.01667,"lat":13.23333,"pop":0},{"id":380011,"name":"Aggar","lon":34.9,"lat":10.98333,"pop":0},{"id":380002,"name":"Agharalu","lon":34.9,"lat":10.9,"pop":0},{"id":379999,"name":"Aghbash","lon":35.9,"lat":12.98333,"pop":0},{"id":7779128,"name":"Agok","lon":28.61666,"lat":9.31677,"pop":0},{"id":379978,"name":"Agoramundi","lon":34.2,"lat":10.25,"pop":0},{"id":379974,"name":"Agori","lon":30.16667,"lat":18.76667,"pop":0},{"id":379970,"name":"Agra","lon":23.2,"lat":12.06667,"pop":0},{"id":379959,"name":"Aguma","lon":22.29607,"lat":13.38475,"pop":0},{"id":379957,"name":"Agumei","lon":22.36989,"lat":13.26956,"pop":0},{"id":379954,"name":"Agurra","alt":["Agoura"],"lon":22.6,"lat":13.58333,"pop":0},{"id":379936,"name":"Aḩmad ‘Abd Allāhī","alt":["Ahmad `Abd Allahi","Ahmed `Abdullahi","Ahmed ‘Abdullahi"],"lon":26.96667,"lat":11.61667,"pop":0},{"id":379935,"name":"Aḩmad Abū Jayrah","alt":["Ahmad Abu Jayrah","Ahmed Abu Geira"],"lon":32.58333,"lat":15.36667,"pop":0},{"id":379933,"name":"Aḩmad al Fakī Muḩammad","alt":["Ahmad al Faki Muhammad","Ahmed el Faki Muhammad"],"lon":32.45,"lat":15.03333,"pop":0},{"id":7026564,"name":"Aḩmad al Muşţafa","alt":["Ahmad al Mustafa"],"lon":32.7403,"lat":14.1998,"pop":0},{"id":379931,"name":"Aḩmad ash Shayn","alt":["Ahmad ash Shayn","Ahmed esh Shein"],"lon":28.05,"lat":11.91667,"pop":0},{"id":379930,"name":"Aḩmad Badw","alt":["Ahmad Badw","Ahmed Badu"],"lon":28.03333,"lat":11.83333,"pop":0},{"id":379928,"name":"Aḩmad Jabr","alt":["Ahmad Jabr","Ahmed Gabr"],"lon":27.41667,"lat":11.66667,"pop":0},{"id":379926,"name":"Aḩmad Wad al Wāḩidū","alt":["Ahmad Wad al Wahidu","Ahmed Wad el Wahedu"],"lon":33.58333,"lat":14.73333,"pop":0},{"id":379925,"name":"Aḩmar","lon":24.38333,"lat":14.33333,"pop":0},{"id":7029297,"name":"Ahmar ‘En","alt":["Ahmar `En"],"lon":33.0919,"lat":12.6666,"pop":0},{"id":379917,"name":"Aḩmar Mūqi","alt":["Ahmar Mawji","Ahmar Mogi","Ahmar Muqi","Aḩmar Mawjī"],"lon":34.2692,"lat":12.4168,"pop":0},{"id":379907,"name":"Aiet","lon":38.28333,"lat":17.76667,"pop":0},{"id":379902,"name":"Ailliet","lon":27.06667,"lat":11.95,"pop":0},{"id":7026569,"name":"Aj ‘Jimayyil","alt":["Aj `Jimayyil"],"lon":32.5643,"lat":14.1653,"pop":0},{"id":7024228,"name":"Aj Gireif","lon":34.4542,"lat":16.4168,"pop":0},{"id":7029071,"name":"Aj Ja‘fariyya","alt":["Aj Ja`fariyya"],"lon":31.5104,"lat":12.9114,"pop":0},{"id":7029027,"name":"Aj Ja’far","alt":["Aj Ja'far"],"lon":31.3621,"lat":12.6872,"pop":0},{"id":7029082,"name":"Aj Jab Bārin","alt":["Aj Jab Barin"],"lon":31.502,"lat":12.7452,"pop":0},{"id":7029463,"name":"Aj Jabal al ’Ahmar","alt":["Aj Jabal al 'Ahmar"],"lon":31.4195,"lat":12.1391,"pop":0},{"id":379343,"name":"Aj Jabalen","alt":["Al Jabalayn","Aljabalein","El Jabalein","El Jebelein","Jebelein","aljblyn","الجبلين"],"lon":32.8008,"lat":12.5904,"pop":0},{"id":379314,"name":"Aj Jabaliyya","alt":["Al Jubayliyah","Al Jubaylīyah","El Jubeiliya"],"lon":33.215,"lat":14.3322,"pop":0},{"id":7026197,"name":"Aj Jabrāb","alt":["Aj Jabrab"],"lon":33.1072,"lat":14.9318,"pop":0},{"id":7029020,"name":"Aj Jada‘","alt":["Aj Jada`"],"lon":31.0939,"lat":12.6496,"pop":0},{"id":7026490,"name":"Aj Jadīda","alt":["Aj Jadida"],"lon":32.7291,"lat":14.4388,"pop":0},{"id":7029175,"name":"Aj Jafra Abu Hūla","alt":["Aj Jafra Abu Hula"],"lon":33.3143,"lat":12.9354,"pop":0},{"id":7028843,"name":"Aj Jafra al Fuwārīn","alt":["Aj Jafra al Fuwarin"],"lon":33.2841,"lat":12.9164,"pop":0},{"id":7028842,"name":"Aj Jafra al Ḩusunnāt","alt":["Aj Jafra al Husunnat"],"lon":33.2328,"lat":12.9371,"pop":0},{"id":7026169,"name":"Aj Jaghoghab","lon":33.3423,"lat":14.9226,"pop":0},{"id":7018741,"name":"Aj Jāk","alt":["Aj Jak"],"lon":32.3679,"lat":13.7107,"pop":0},{"id":7029256,"name":"Aj Jalād","alt":["Aj Jalad"],"lon":32.246,"lat":12.8786,"pop":0},{"id":7031457,"name":"Aj Jalaleib","lon":30.1432,"lat":11.0992,"pop":0},{"id":7028989,"name":"Aj Jallāba","alt":["Aj Jallaba"],"lon":31.2839,"lat":12.9068,"pop":0},{"id":7026121,"name":"Aj Jamalōn","alt":["Aj Jamalon"],"lon":33.0269,"lat":14.9942,"pop":0},{"id":7029407,"name":"Aj Jammām","alt":["Aj Jammam"],"lon":35.1081,"lat":12.9129,"pop":0},{"id":379307,"name":"Aj Jammu‘iyya","alt":["Aj Jammu`iyya","Al Jummu`iyah","Al Jummū‘īyah","Gummu`iya","Gummu‘iya"],"lon":33.4424,"lat":14.086,"pop":0},{"id":7026016,"name":"Aj Jāmrāb","alt":["Aj Jamrab"],"lon":32.3699,"lat":14.791,"pop":0},{"id":7026109,"name":"Aj Jāmūsiyya","alt":["Aj Jamusiyya"],"lon":33.3222,"lat":14.4966,"pop":0},{"id":379516,"name":"Aj Jarif","alt":["Al Garef","El Garef","El Garet"],"lon":34.3197,"lat":12.0598,"pop":0},{"id":7028987,"name":"Aj Jenqāwi","alt":["Aj Jenqawi"],"lon":31.2623,"lat":12.9076,"pop":0},{"id":7025994,"name":"Aj Ji‘eba","alt":["Aj Ji`eba"],"lon":32.4481,"lat":14.9502,"pop":0},{"id":7029201,"name":"Aj Jibelāt","alt":["Aj Jibelat"],"lon":32.4775,"lat":12.9618,"pop":0},{"id":6854110,"name":"Aj Jide‘at","alt":["Aj Jide`at"],"lon":32.7402,"lat":12.9027,"pop":0},{"id":7018709,"name":"Aj Jikheşāt","alt":["Aj Jikhesat"],"lon":32.0769,"lat":13.8357,"pop":0},{"id":7018740,"name":"Aj Jimeliyya","lon":32.3828,"lat":13.7173,"pop":0},{"id":6957938,"name":"Aj Jined","alt":["Al Junayd","Guneid","Junayd"],"lon":33.3073,"lat":14.7918,"pop":0},{"id":379304,"name":"Aj Jined Al Bayyāra","alt":["Aj Jined Al Bayyara","Al Junayd"],"lon":33.3024,"lat":14.793,"pop":0},{"id":373236,"name":"Aj Jiroif Sharg","alt":["Gereif","Gereif East","Gereif Sharq","Jurayf Sharq"],"lon":32.60333,"lat":15.58194,"pop":0},{"id":7028988,"name":"Aj Joqān","alt":["Aj Joqan"],"lon":31.2718,"lat":12.8714,"pop":0},{"id":7026302,"name":"Aj Juzūli","alt":["Aj Juzuli"],"lon":33.1348,"lat":14.5869,"pop":0},{"id":7026585,"name":"Ājba","alt":["Ajba"],"lon":32.8073,"lat":14.0758,"pop":0},{"id":7029719,"name":"Ajjallaba","lon":30.1427,"lat":11.5183,"pop":0},{"id":7029381,"name":"Ajjiḩera","alt":["Ajjihera"],"lon":34.1749,"lat":12.6124,"pop":0},{"id":8613035,"name":"Ajuwok","lon":26.99197,"lat":9.78856,"pop":0},{"id":379859,"name":"Akafi","lon":32.33333,"lat":12.4,"pop":0},{"id":379850,"name":"Akara","lon":32.61667,"lat":14.81667,"pop":0},{"id":379832,"name":"Akheirleina","lon":31.38333,"lat":13.61667,"pop":0},{"id":379830,"name":"Akhoshali","lon":34.46667,"lat":11.53333,"pop":0},{"id":379827,"name":"Akilili","lon":34.36667,"lat":10.95,"pop":0},{"id":379823,"name":"Akkad","lon":30.36667,"lat":19.66667,"pop":0},{"id":379757,"name":"Al ‘Abbāsīyah","alt":["Al `Abbasiyah","El Abasiya"],"lon":33.51667,"lat":14.45,"pop":0},{"id":379758,"name":"Al ‘Abbāsiyya","alt":["Abbasiya","Al Abassiya","Al `Abbasiyah","Al `Abbasiyya","Al ‘Abbāsīyah","El Abassiya","El `Abbasiya","El ‘Abbasiya"],"lon":31.303,"lat":12.1648,"pop":0},{"id":379755,"name":"Al ‘Abdīyah","alt":["Al `Abdiyah","El `Abdiya","El ‘Abdiya"],"lon":28.8,"lat":12.13333,"pop":0},{"id":381137,"name":"Al ‘Abdunnāb","alt":["Abdanab","Al `Abdunnab","`Abd an Nab","`Abd en Nab","‘Abd an Nāb","‘Abd en Nab"],"lon":32.8905,"lat":14.473,"pop":0},{"id":380987,"name":"Al ‘Abūdāb","alt":["Abu Dab","Abū Dāb","Al `Abudab"],"lon":33.445,"lat":14.9101,"pop":0},{"id":7026134,"name":"Al ‘Afaşa","alt":["Al `Afasa"],"lon":33.377,"lat":14.9794,"pop":0},{"id":7026146,"name":"Al ‘Afaşa","alt":["Al `Afasa"],"lon":33.4849,"lat":14.8558,"pop":0},{"id":7026147,"name":"Al ‘Afaşa","alt":["Al `Afasa"],"lon":33.4956,"lat":14.8589,"pop":0},{"id":379748,"name":"Al ‘Affaḍ","lon":31.15,"lat":18,"pop":0},{"id":7001983,"name":"Al ‘Aifēn","alt":["Al `Aifen"],"lon":29.8203,"lat":11.0408,"pop":0},{"id":7026590,"name":"Al ‘Akara","alt":["Al `Akara"],"lon":32.5048,"lat":14.0923,"pop":0},{"id":379728,"name":"Al ‘Alaga","alt":["Al `Alaga","Al `Alaqah","Al ‘Alaqah","El `Alaqa","El ‘Alaqa","`Alaqa","‘Alaqa"],"lon":32.1528,"lat":14.7644,"pop":0},{"id":7029195,"name":"Al ‘Alaqa","alt":["Al `Alaqa"],"lon":32.2416,"lat":12.9864,"pop":0},{"id":379727,"name":"Al ‘Alaqah","alt":["Al `Alaqah","El `Alaqa","El ‘Alaqa","`Alaqa","‘Alaqa"],"lon":32.76667,"lat":14.11667,"pop":0},{"id":379725,"name":"Al ‘Ālim","alt":["Al `Alim","El `Alim","El ‘Alim"],"lon":27.08333,"lat":11.86667,"pop":0},{"id":379721,"name":"Al ‘Amara","alt":["Al `Amara","Al `Amarah","Al ‘Amārah","El `Amara","El ‘Amara"],"lon":33.3974,"lat":14.845,"pop":0},{"id":7026154,"name":"Al ‘Amara","alt":["Al `Amara"],"lon":33.3965,"lat":14.7401,"pop":0},{"id":7018700,"name":"Al ‘Amāra","alt":["Al `Amara"],"lon":32.28,"lat":13.9013,"pop":0},{"id":7029222,"name":"Al ‘Amāra","alt":["Al `Amara"],"lon":34.5766,"lat":12.9063,"pop":0},{"id":7033695,"name":"Al ‘Amāra","alt":["Al `Amara"],"lon":34.3075,"lat":12.0992,"pop":0},{"id":7033706,"name":"Al ‘Amāra","alt":["Al `Amara"],"lon":34.3276,"lat":12.1009,"pop":0},{"id":7026523,"name":"Al ‘Amāra ‘Ali","alt":["Al `Amara `Ali"],"lon":32.5632,"lat":14.3448,"pop":0},{"id":6983241,"name":"Al ‘Amāra ‘Ali ‘Abdallah","alt":["Al `Amara `Ali `Abdallah"],"lon":32.9977,"lat":14.5277,"pop":0},{"id":7026501,"name":"Al ‘Amāra ‘Awaḑ al Karīm","alt":["Al `Amara `Awad al Karim"],"lon":32.612,"lat":14.424,"pop":0},{"id":378927,"name":"Al ‘Amara Abyad","alt":["Al `Amara Abyad","`Amara","`Amarah","‘Amara","‘Amārah"],"lon":33.3564,"lat":14.7148,"pop":0},{"id":7026703,"name":"Al ‘Amāra ad Dabāsin","alt":["Al `Amara ad Dabasin"],"lon":33.2725,"lat":14.1372,"pop":0},{"id":7029367,"name":"Al ‘Amāra al Ḩāj","alt":["Al `Amara al Haj"],"lon":34.1123,"lat":12.7778,"pop":0},{"id":7026617,"name":"Al ‘Amāra Karamalla","alt":["Al `Amara Karamalla"],"lon":32.8503,"lat":14.3348,"pop":0},{"id":7026313,"name":"Al ‘Amāra Kāsīr","alt":["Al `Amara Kasir"],"lon":33.1127,"lat":14.629,"pop":0},{"id":7026268,"name":"Al ‘Amāra Ţaha","alt":["Al `Amara Taha"],"lon":33.355,"lat":14.6223,"pop":0},{"id":7026448,"name":"Al ‘Amāra Wad Yūsif","alt":["Al `Amara Wad Yusif"],"lon":33.2417,"lat":14.3972,"pop":0},{"id":7504244,"name":"Al ‘Amarad","alt":["Al `Amarad"],"lon":32.5243,"lat":12.3402,"pop":0},{"id":379722,"name":"Al ‘Amārah","alt":["Al `Amarah","El `Amara","El ‘Amara"],"lon":32.66667,"lat":14.3,"pop":0},{"id":379723,"name":"Al ‘Amārah","alt":["Al `Amarah","El `Amara","El ‘Amara","`Amara","‘Amara"],"lon":32.96667,"lat":14.05,"pop":0},{"id":379718,"name":"Al ‘Amārīn","alt":["Al `Amarin","El Amarin"],"lon":32.56667,"lat":19.15,"pop":0},{"id":7504209,"name":"Al ‘Āqir","alt":["Al `Aqir"],"lon":32.5567,"lat":12.4727,"pop":0},{"id":379694,"name":"Al ‘Arā’ish","alt":["Al `Ara'ish","El `Araisa","El ‘Araisa"],"lon":30.93333,"lat":13.56667,"pop":0},{"id":379697,"name":"Al ‘Aradeiba Jazīrah","alt":["Al `Aradeiba Jazirah","El `Aradeiba Gezira","El ‘Aradeiba Gezira"],"lon":34.03333,"lat":13.41667,"pop":0},{"id":7029372,"name":"Al ‘Arakiyyin","alt":["Al `Arakiyyin"],"lon":34.14209,"lat":12.71783,"pop":0},{"id":7026445,"name":"Al ‘Arakiyyīn","alt":["Al `Arakiyyin"],"lon":33.3182,"lat":14.3814,"pop":0},{"id":7026369,"name":"Al ‘Arashkol","alt":["Al `Arashkol"],"lon":32.0938,"lat":14.1463,"pop":0},{"id":12424229,"name":"Al ‘Arḏah","alt":["Al ‘Arḑah","Al`Ardah","العرضة"],"lon":32.4724,"lat":15.63851,"pop":0},{"id":379688,"name":"Al ‘Arid","alt":["Al `Arid","El `Arid","El ‘Arid"],"lon":34.81667,"lat":13.56667,"pop":0},{"id":379687,"name":"Al ‘Arīs","alt":["Al `Aris","El `Aris","El ‘Aris"],"lon":25.76667,"lat":10.8,"pop":0},{"id":379685,"name":"Al ‘Arqān","alt":["Al `Arqan","El `Arqan","El ‘Arqan"],"lon":29.26667,"lat":13.51667,"pop":0},{"id":379684,"name":"Al ‘Arshah","alt":["Al `Arshah","El `Arsha","El ‘Arsha"],"lon":31.31667,"lat":13.86667,"pop":0},{"id":364305,"name":"Al ‘Asha","alt":["Al `Asha","Wad al `Asha","Wad al ‘Asha","Wad el `Asha","Wad el ‘Asha"],"lon":33.407,"lat":14.3595,"pop":0},{"id":6983230,"name":"Al ‘Atāmna","alt":["Al `Atamna"],"lon":32.9494,"lat":14.7285,"pop":0},{"id":7018735,"name":"Al ‘Aţash","alt":["Al `Atash"],"lon":32.4992,"lat":13.7597,"pop":0},{"id":7026566,"name":"Al ‘Atasha","alt":["Al `Atasha"],"lon":32.6388,"lat":14.1817,"pop":0},{"id":379679,"name":"Al ‘Aţāyā","alt":["Al `Ataya","Et `Ataya","Et ‘Ataya","`Ataya","‘Ataya"],"lon":33.5,"lat":14.16667,"pop":0},{"id":379677,"name":"Al ‘Aţrūn","alt":["Al `Atrun","El `Atrun","El ‘Atrun","Wahat al `Atrun","Wahat al ‘Atrun"],"lon":26.6,"lat":18.18333,"pop":0},{"id":7029151,"name":"Al ‘Atshān","alt":["Al `Atshan"],"lon":31.7942,"lat":12.643,"pop":0},{"id":7029211,"name":"Al ‘Aţshān","alt":["Al `Atshan"],"lon":32.4334,"lat":12.7823,"pop":0},{"id":379673,"name":"Al ‘Awadi","alt":["Al `Awadi","El `Awadi","El ‘Awadi"],"lon":34.75,"lat":17.1,"pop":0},{"id":7026112,"name":"Al ‘Awāmra","alt":["Al `Awamra"],"lon":33.4063,"lat":14.4559,"pop":0},{"id":7026415,"name":"Al ‘Awāmra","alt":["Al `Awamra"],"lon":33.0385,"lat":14.3882,"pop":0},{"id":7026690,"name":"Al ‘Awāmra","alt":["Al `Awamra"],"lon":33.3364,"lat":14.2041,"pop":0},{"id":7029003,"name":"Al ‘Awāţfa","alt":["Al `Awatfa"],"lon":31.4733,"lat":12.7734,"pop":0},{"id":7029066,"name":"Al ‘Awāţfa","alt":["Al `Awatfa"],"lon":31.6229,"lat":12.9444,"pop":0},{"id":378101,"name":"Al ‘Awayda","alt":["Al `Awayda","`Awaida","‘Awaida"],"lon":33.4202,"lat":14.7099,"pop":0},{"id":375425,"name":"Al ‘Awayda ‘Iweḑa","alt":["Al `Awayda `Iweda","Fawaida Uweida"],"lon":33.4723,"lat":14.1387,"pop":0},{"id":7026675,"name":"Al ‘Awayda ‘Izezat","alt":["Al `Awayda `Izezat"],"lon":33.4806,"lat":14.1495,"pop":0},{"id":379665,"name":"Al ‘Ayn","alt":["Al `Ayn","El `Ein","El ‘Ein"],"lon":30.61667,"lat":12.38333,"pop":0},{"id":7026509,"name":"Al ‘Ayyāţa","alt":["Al `Ayyata"],"lon":32.7559,"lat":14.3588,"pop":0},{"id":7029368,"name":"Al ‘Az Āza","alt":["Al `Az Aza"],"lon":34.1209,"lat":12.7869,"pop":0},{"id":7026264,"name":"Al ‘Azaza","alt":["Al `Azaza"],"lon":33.4017,"lat":14.554,"pop":0},{"id":7029226,"name":"Al ‘Azāza","alt":["Al `Azaza"],"lon":34.6456,"lat":12.96,"pop":0},{"id":7033523,"name":"Al ‘Azāza","alt":["Al `Azaza"],"lon":34.4783,"lat":11.8167,"pop":0},{"id":7029328,"name":"Al ‘Azāza Al Ḩamra","alt":["Al `Azaza Al Hamra"],"lon":33.7068,"lat":12.595,"pop":0},{"id":378022,"name":"Al ‘Azāzāb","alt":["Al `Azazab","`Azazab","‘Azazab"],"lon":32.7362,"lat":14.013,"pop":0},{"id":7026607,"name":"Al ‘Azāzāb an Nīl","alt":["Al `Azazab an Nil"],"lon":32.7249,"lat":14.023,"pop":0},{"id":379662,"name":"Al ‘Azāzah","alt":["Al `Azazah","El `Azaza","El ‘Azaza"],"lon":32.81667,"lat":14.98333,"pop":0},{"id":379661,"name":"Al ‘Azzāzi","alt":["Al `Azazi","Al `Azzazi","Al ‘Azāzī","El `Azazi","El ‘Azazi"],"lon":32.7508,"lat":14.4702,"pop":0},{"id":7026254,"name":"Al ‘Ekūra","alt":["Al `Ekura"],"lon":33.3891,"lat":14.6236,"pop":0},{"id":379666,"name":"Al ‘Elafon","alt":["Al `Aylafun","Al `Elafon","Al ‘Aylafūn","El `Eilafun","El ‘Eilafūn","`Eilafun","‘Eilafun"],"lon":32.7186,"lat":15.4336,"pop":0},{"id":6854180,"name":"Al ‘Ibed Musa Wad Ḩāj","alt":["Al `Ibed Musa Wad Haj"],"lon":32.996,"lat":12.8798,"pop":0},{"id":379364,"name":"Al ‘Iddah","alt":["Al `Iddah","El `Idda","El ‘Idda","`Idda","‘Idda"],"lon":32.66667,"lat":14.76667,"pop":0},{"id":6983269,"name":"Al ‘Ided","alt":["Al `Ided"],"lon":32.8386,"lat":14.6843,"pop":0},{"id":7026196,"name":"Al ‘Ided","alt":["Al `Ided"],"lon":33.1379,"lat":14.9156,"pop":0},{"id":7028948,"name":"Al ‘Ileqa","alt":["Al `Ileqa"],"lon":32.4992,"lat":13.3235,"pop":0},{"id":7018780,"name":"Al ‘Ileqa al ‘Aṣalāb","alt":["Al `Ileqa al `Asalab"],"lon":32.3343,"lat":13.5264,"pop":0},{"id":7018693,"name":"Al ‘Imeriyya","alt":["Al `Imeriyya"],"lon":32.4569,"lat":13.9549,"pop":0},{"id":7026355,"name":"Al ‘Imeriyya","alt":["Al `Imeriyya"],"lon":32.252,"lat":14.1042,"pop":0},{"id":7026479,"name":"Al ‘Iqeda","alt":["Al `Iqeda"],"lon":33.4381,"lat":14.0885,"pop":0},{"id":380014,"name":"Al ‘Iqela","alt":["Ageila","Al `Iqela"],"lon":31.5695,"lat":12.8925,"pop":0},{"id":7026156,"name":"Al ‘Irebab","alt":["Al `Irebab"],"lon":33.4023,"lat":14.6951,"pop":0},{"id":7029004,"name":"Al ‘Irefiyya","alt":["Al `Irefiyya"],"lon":31.4697,"lat":12.7519,"pop":0},{"id":6991621,"name":"Al ‘Iselat","alt":["Al `Iselat"],"lon":32.8704,"lat":15.376,"pop":0},{"id":7026341,"name":"Al ‘Isher","alt":["Al `Isher"],"lon":32.1143,"lat":14.2889,"pop":0},{"id":7018688,"name":"Al ‘Iwesiyya","alt":["Al `Iwesiyya"],"lon":32.2858,"lat":13.9688,"pop":0},{"id":7026159,"name":"Al ‘Izeba","alt":["Al `Izeba"],"lon":33.3227,"lat":14.7776,"pop":0},{"id":378978,"name":"Al ‘lleqa","alt":["Al `Ulayqah","Al `lleqa","Al ‘Ulayqah","El `Eleiqa","El ‘Eleiqa"],"lon":32.3267,"lat":13.5179,"pop":0},{"id":379628,"name":"Al ‘Omarab","alt":["Al Bayli","Al Baylī","Al `Omarab","El Beili"],"lon":34.1799,"lat":17.4643,"pop":0},{"id":379005,"name":"Al ‘Ubayd","alt":["Al `Ubayd","El `Ubeid","El ‘Ubeid"],"lon":33.76667,"lat":14.1,"pop":0},{"id":379001,"name":"Al ‘Ūd","alt":["Al `Ud","El `Ud","El ‘Ud"],"lon":30.3,"lat":13.48333,"pop":0},{"id":378998,"name":"Al ‘Udayd","alt":["Al `Udayd","El `Udeid","El ‘Udeid"],"lon":32.66667,"lat":13.9,"pop":0},{"id":378997,"name":"Al ‘Udaydāt","alt":["Al `Udaydat","El `Udeidat","El ‘Udeidat"],"lon":30.13333,"lat":12.66667,"pop":0},{"id":378994,"name":"Al ‘Uḑayyāt","alt":["Al `Udayyat","El Udaiyat"],"lon":32.58333,"lat":14.78333,"pop":0},{"id":378987,"name":"Al ‘Ufaynah","alt":["Al `Ufaynah","El `Ufeina","El ‘Ufeina"],"lon":31.33333,"lat":11.78333,"pop":0},{"id":378981,"name":"Al ‘Uk","alt":["Al `Uk","El `Uk","El ‘Uk"],"lon":33.28333,"lat":14.83333,"pop":0},{"id":378979,"name":"Al ‘Ulayqah","alt":["Al `Ulayqah","El `Eleiqa","El ‘Eleiqa"],"lon":32.5,"lat":13.33333,"pop":0},{"id":378976,"name":"Al ‘Umdah","alt":["Al `Umdah","El `Umda","El ‘Umda"],"lon":29.18333,"lat":12.91667,"pop":0},{"id":378977,"name":"Al ‘Umdah","alt":["Al `Umda","Al `Umdah","Al ‘Umda","El `Umda","El ‘Umda"],"lon":28.03333,"lat":11.78333,"pop":0},{"id":7026143,"name":"Al ‘Uqda","alt":["Al `Uqda"],"lon":33.4103,"lat":14.9255,"pop":0},{"id":378975,"name":"Al ‘Uqdah","alt":["Al `Uqdah","El `Uqda","El ‘Uqda","Ugda"],"lon":32.9,"lat":14.61667,"pop":0},{"id":378972,"name":"Al ‘Urayqāt","alt":["Al `Urayqat","El `Ureigat","El ‘Ureigat"],"lon":26.61667,"lat":11.05,"pop":0},{"id":378970,"name":"Al ‘Uryān","alt":["Al `Uryan","El `Arian","El ‘Arian"],"lon":31.76667,"lat":18.33333,"pop":0},{"id":364386,"name":"Al ‘Ushara","alt":["Al `Ushara","`Ushara","`Usharah","‘Ushara","‘Usharah"],"lon":32.4207,"lat":14.4651,"pop":0},{"id":378968,"name":"Al ‘Usharah","alt":["Al `Usharah","El `Ushara","El ‘Ushara"],"lon":32.58333,"lat":15.31667,"pop":0},{"id":378964,"name":"Al ‘Uwaysāb Ibrāhīm","alt":["Al `Uwaysab Ibrahim","El `Uweisab Ibrahim","El ‘Uweīsab Ibrahim"],"lon":33.45,"lat":13.73333,"pop":0},{"id":6854189,"name":"Al ’Anḑarāba","alt":["Al 'Andaraba"],"lon":32.824,"lat":12.7431,"pop":0},{"id":6854140,"name":"Al ’Anḑarāba al Ḩassāniyya","alt":["Al 'Andaraba al Hassaniyya"],"lon":32.8218,"lat":12.7495,"pop":0},{"id":7031433,"name":"Al ’Aradeiba","alt":["Al 'Aradeiba"],"lon":30.2817,"lat":11.3766,"pop":0},{"id":7029669,"name":"Al ’Ided","alt":["Al 'Ided"],"lon":30.2775,"lat":11.6568,"pop":0},{"id":7029533,"name":"Al ’Oda","alt":["Al 'Oda"],"lon":31.5884,"lat":12.1369,"pop":0},{"id":379752,"name":"Al Abyaḑ","alt":["Al Abyad","El Abyad"],"lon":27.5,"lat":13.5,"pop":0},{"id":7029206,"name":"Al Afna","lon":32.4267,"lat":12.8707,"pop":0},{"id":379744,"name":"Al Agharr","alt":["El Agharr"],"lon":34.95,"lat":13.48333,"pop":0},{"id":379741,"name":"Al Aḩāmidah","alt":["Al Ahamidah","El Ahamda"],"lon":33.55,"lat":14.83333,"pop":0},{"id":7029739,"name":"Al Aḩmar","alt":["Al Ahmar"],"lon":33.6352,"lat":11.9026,"pop":0},{"id":12493823,"name":"Al Aideen Joda","alt":["alʿaydyn jwdt","العائدين جودة"],"lon":32.77139,"lat":12.27694,"pop":0},{"id":379736,"name":"Al Ait","alt":["El Ait"],"lon":27.45,"lat":12.36667,"pop":0},{"id":379731,"name":"Al Akhḑar","alt":["Al Akhdar","El Akhdar"],"lon":25.16667,"lat":10.55,"pop":0},{"id":7024724,"name":"Al Alyab","lon":35.3406,"lat":15.4868,"pop":0},{"id":379715,"name":"Al Amīn","alt":["Al Amin","El Amin"],"lon":28.05,"lat":12.16667,"pop":0},{"id":12422491,"name":"Al Amlāk","alt":["AlAmlak","alamlak","الأملاك"],"lon":32.53328,"lat":15.62057,"pop":0},{"id":379691,"name":"Al Arāk","alt":["Al Arak","El Arak"],"lon":33.58333,"lat":18.71667,"pop":0},{"id":379692,"name":"Al Arāk","alt":["Al Arak","El Arag","El Arak"],"lon":31.61667,"lat":18.2,"pop":0},{"id":379693,"name":"Al Arāk","alt":["Al Arak","El Arak"],"lon":28.93333,"lat":11.45,"pop":0},{"id":379686,"name":"Al Arki","alt":["El Arki"],"lon":31.53333,"lat":18.11667,"pop":0},{"id":7029369,"name":"Al Awa","lon":34.1361,"lat":12.7771,"pop":0},{"id":11205108,"name":"Al Azhari","lon":32.58253,"lat":15.51815,"pop":0},{"id":7026398,"name":"Al Badri Dar Salim","lon":33.4036,"lat":14.0194,"pop":0},{"id":379656,"name":"Al Bāḩ","alt":["Al Bah","El Bah"],"lon":31.93333,"lat":13.01667,"pop":0},{"id":379653,"name":"Al Baḩrīyah","alt":["Al Bahriyah","Al Bahriyahl El ohaira","Albahriyah","Bahriya","El Bahriya","albhryh","البحريه"],"lon":30.65,"lat":13.83333,"pop":0},{"id":379652,"name":"Al Bakrī","alt":["Al Bakri","Bakri","El Bakri"],"lon":30.7,"lat":18.38333,"pop":0},{"id":7023542,"name":"Al Ban Gaded","lon":32.8795,"lat":16.19,"pop":0},{"id":6977092,"name":"Al Bān Jadīd","alt":["Al Ban Jadid"],"lon":31.183,"lat":11.5172,"pop":0},{"id":7018706,"name":"Al Bān Jadīd","alt":["Al Ban Jadid"],"lon":32.1388,"lat":13.9025,"pop":0},{"id":7028886,"name":"Al Bān Jadīd","alt":["Al Ban Jadid"],"lon":32.0823,"lat":13.0478,"pop":0},{"id":377809,"name":"Al Banbonab","alt":["Bambonab"],"lon":32.9169,"lat":15.3076,"pop":0},{"id":379650,"name":"Al Baniyya","alt":["Al Baniya","El Baniya"],"lon":33.2589,"lat":14.0167,"pop":0},{"id":7026343,"name":"Al Banūnāb","alt":["Al Banunab"],"lon":32.1584,"lat":14.2551,"pop":0},{"id":377735,"name":"Al Baqer","alt":["Baqeir Sharq"],"lon":32.7642,"lat":15.3931,"pop":0},{"id":6993099,"name":"Al Baqer","lon":32.754,"lat":15.3414,"pop":0},{"id":377743,"name":"Al Baqer al Qidami","alt":["Baqayr al Quddami","Baqeir el Quddami","Bāqayr al Quddāmī"],"lon":32.757,"lat":15.3779,"pop":0},{"id":377742,"name":"Al Baqer al Wrrani","alt":["Baqayr al Warrani","Baqeir el Warrani","Bāqayr al Warrānī"],"lon":32.7315,"lat":15.4035,"pop":0},{"id":379647,"name":"Al Bar","alt":["El Bar"],"lon":31.55,"lat":18.13333,"pop":0},{"id":377207,"name":"Al Barankū","alt":["Al Baranku","Brankaw","Branko"],"lon":33.2587,"lat":14.9774,"pop":0},{"id":379646,"name":"Al Barāqna","alt":["Al Baragna","Al Baraqna","Baragna","El Baragna"],"lon":33.1354,"lat":14.0978,"pop":0},{"id":379624,"name":"Al Bardāb","alt":["Al Bardab","Al Berdab","El Berdab"],"lon":29.63278,"lat":11.2,"pop":0},{"id":6979538,"name":"Al Barkali","lon":29.6742,"lat":11.8627,"pop":0},{"id":379644,"name":"Al Barşā’","alt":["Al Barsa'","El Barsa"],"lon":31.56667,"lat":18.13333,"pop":0},{"id":6854049,"name":"Al Barta","lon":32.5501,"lat":12.8788,"pop":0},{"id":379641,"name":"Al Basa","alt":["El Basa"],"lon":31.61667,"lat":18.16667,"pop":0},{"id":379640,"name":"Al Basabir","alt":["El Basabir"],"lon":32.94111,"lat":16.52111,"pop":0},{"id":443828,"name":"Al Basabir","lon":33.00639,"lat":16.53639,"pop":0},{"id":7026399,"name":"Al Basābir","alt":["Al Basabir"],"lon":33.3714,"lat":14.0147,"pop":0},{"id":368163,"name":"Al Basātna","alt":["Al Basatna","Rasatna"],"lon":33.4446,"lat":14.3815,"pop":0},{"id":6854174,"name":"Al Bashīr ’Ismā‘il","alt":["Al Bashir 'Isma`il"],"lon":32.9685,"lat":12.8538,"pop":0},{"id":379636,"name":"Al Bashīr Ibrāhīm","alt":["Al Bashir Ibrahim","El Bashir Ibrahim"],"lon":33.03333,"lat":14.08333,"pop":0},{"id":379637,"name":"Al Bashīrī","alt":["Al Bashiri","El Bashiri"],"lon":30.18333,"lat":13.8,"pop":0},{"id":7026180,"name":"Al Baţāḩīn","alt":["Al Batahin"],"lon":33.2731,"lat":14.8229,"pop":0},{"id":7026451,"name":"Al Baţāḩīn","alt":["Al Batahin"],"lon":33.2794,"lat":14.3758,"pop":0},{"id":379629,"name":"Al Bayḑā’","alt":["Al Bayda'","El Beida"],"lon":25.56667,"lat":10.68333,"pop":0},{"id":6977087,"name":"Al Bayyāḩa","alt":["Al Bayyaha"],"lon":31.1885,"lat":11.5697,"pop":0},{"id":379625,"name":"Al Beniya","alt":["El Beniya"],"lon":30.01667,"lat":13.21667,"pop":0},{"id":379622,"name":"Al Bi’r","alt":["Al Bi'r","El Bir"],"lon":34.95,"lat":11.18333,"pop":0},{"id":7026335,"name":"Al Bideriyya","lon":32.3659,"lat":14.3425,"pop":0},{"id":377541,"name":"Al Billiyāb","alt":["Al Billiyab","Bayliyab","Bayliyāb","Beiliab"],"lon":33.4438,"lat":14.8413,"pop":0},{"id":7026404,"name":"Al Birekab","lon":33.0553,"lat":14.0787,"pop":0},{"id":379620,"name":"Al Biri","alt":["Al Birri"],"lon":26.75,"lat":15,"pop":0},{"id":379621,"name":"Al Biri","alt":["El Biri"],"lon":30.3,"lat":11.11667,"pop":0},{"id":379619,"name":"Al Birkah","alt":["El Birka"],"lon":32.28333,"lat":12.3,"pop":0},{"id":7026291,"name":"Al Bişelāb","alt":["Al Biselab"],"lon":33.255,"lat":14.6484,"pop":0},{"id":6977056,"name":"Al Bitera","lon":31.356,"lat":11.7211,"pop":0},{"id":7029075,"name":"Al Biwenis","lon":31.6099,"lat":12.8706,"pop":0},{"id":379607,"name":"Al Budayrīyah","alt":["Al Budayriyah","El Bedeiriya"],"lon":28.7,"lat":12.55,"pop":0},{"id":379608,"name":"Al Budayrīyah","alt":["Al Budayriyah","El Bedeina","El Bedeiriya","El Bederiria"],"lon":31.26667,"lat":12.13333,"pop":0},{"id":379604,"name":"Al Buḩayr","alt":["Al Buhayr","El Buheir"],"lon":30.76667,"lat":14.1,"pop":0},{"id":7001900,"name":"Al Bukhas","lon":29.9469,"lat":11.3478,"pop":0},{"id":379599,"name":"Al Buqayr","alt":["Al Baqer","El Baqeir"],"lon":33.63333,"lat":18.7,"pop":0},{"id":379600,"name":"Al Buqayr","alt":["El Baqeir"],"lon":33.85,"lat":17.35,"pop":0},{"id":8199079,"name":"Al Buram","alt":["Buram","El Buram"],"lon":29.96675,"lat":10.62033,"pop":0},{"id":379591,"name":"Al Buwayḑah","alt":["Al Buwaydah","El Buweida"],"lon":33.78333,"lat":14.26667,"pop":0},{"id":379592,"name":"Al Buwayḑah","alt":["Al Buwaydah","El Buweida"],"lon":35,"lat":13.45,"pop":0},{"id":379590,"name":"Al Buweḑā","alt":["Al Buwaydah","Al Buwayḑah","Al Buweda","El Buweida"],"lon":33.2821,"lat":14.8626,"pop":0},{"id":379587,"name":"Al Byeara","alt":["El Byeara"],"lon":30.13333,"lat":11.05,"pop":0},{"id":368311,"name":"Al Cardud","alt":["Qardud"],"lon":30.4602,"lat":11.9527,"pop":0},{"id":12431491,"name":"Al Ḏanāgla","lon":32.52818,"lat":15.62933,"pop":0},{"id":379583,"name":"Al Eiwad","alt":["El Eiwad"],"lon":35.05,"lat":12.43333,"pop":0},{"id":379577,"name":"Al Elain","alt":["Al Lain","Alhaj-Allaien","El Elain","El Flain","El harj Al ain","alhaj allyn","الحاج اللين"],"lon":26.91667,"lat":12.3,"pop":0},{"id":379574,"name":"Al Eseilat","alt":["El Eseilat"],"lon":30.08333,"lat":13.1,"pop":0},{"id":6976995,"name":"Al Faḑīla","alt":["Al Fadila"],"lon":31.1955,"lat":11.9877,"pop":0},{"id":7026284,"name":"Al Faḑliyyin","alt":["Al Fadliyyin"],"lon":33.2673,"lat":14.5262,"pop":0},{"id":7028966,"name":"Al Faḑwa","alt":["Al Fadwa"],"lon":31.4232,"lat":12.9841,"pop":0},{"id":379569,"name":"Al Faei","alt":["El Faei","El Faet"],"lon":26.43333,"lat":11.03333,"pop":0},{"id":444139,"name":"Al Fahada","lon":34.3409,"lat":17.3778,"pop":0},{"id":7018690,"name":"Al Fāiza","alt":["Al Faiza"],"lon":32.2329,"lat":13.9451,"pop":0},{"id":7026177,"name":"Al Fak","lon":33.2859,"lat":14.8353,"pop":0},{"id":381141,"name":"Al Faki ‘Abd al Mawla","alt":["Al Faki `Abd al Mawla","`Abd al Mawla","`Abd el Mula","‘Abd al Mawlá","‘Abd el Mula"],"lon":32.3003,"lat":14.7501,"pop":0},{"id":7026368,"name":"Al Fakī al Khātim","alt":["Al Faki al Khatim"],"lon":32.2734,"lat":14.2323,"pop":0},{"id":7029291,"name":"Al Faki al Manşūr","alt":["Al Faki al Mansur"],"lon":33.0665,"lat":12.7387,"pop":0},{"id":6854182,"name":"Al Faki Ḩāmid","alt":["Al Faki Hamid"],"lon":32.8886,"lat":12.7848,"pop":0},{"id":6854178,"name":"Al Faki Hammād","alt":["Al Faki Hammad"],"lon":32.9883,"lat":12.8316,"pop":0},{"id":379561,"name":"Al Fanadik","alt":["El Fanadik"],"lon":31.96667,"lat":12.7,"pop":0},{"id":7001898,"name":"Al Fangalu","lon":29.9977,"lat":11.4152,"pop":0},{"id":8181667,"name":"Al Fao","lon":34.08358,"lat":14.11246,"pop":0},{"id":379530,"name":"Al Faqar","alt":["Al Fuqara'","Al Fuqarā’","Fuqara"],"lon":33.34,"lat":14.6451,"pop":0},{"id":379560,"name":"Al Faqqūşah","alt":["Al Faqqusah","El Faqqusa"],"lon":32.8,"lat":14.41667,"pop":0},{"id":379558,"name":"Al Farajāb","alt":["Al Farajab","El Faragab"],"lon":32.63333,"lat":15.2,"pop":0},{"id":7504271,"name":"Al Farrāw","alt":["Al Farraw"],"lon":32.7081,"lat":12.1653,"pop":0},{"id":379556,"name":"Al Fashāshawyah","alt":["Al Fashashawyah","El Fashashoya","El Fashāshoya"],"lon":32.58333,"lat":13.4,"pop":0},{"id":7026224,"name":"Al Fāshir","alt":["Al Fashir"],"lon":33.04,"lat":14.7377,"pop":0},{"id":379553,"name":"Al Fāw","alt":["Al Faw","El Fau"],"lon":34.3333,"lat":14.15,"pop":0},{"id":7029118,"name":"Al Fāwa Al ‘Ireqāt","alt":["Al Fawa Al `Ireqat"],"lon":31.6489,"lat":12.7156,"pop":0},{"id":6983227,"name":"Al Fawāra","alt":["Al Fawara"],"lon":32.9874,"lat":14.7839,"pop":0},{"id":6983201,"name":"Al Fawwāra","alt":["Al Fawwara"],"lon":32.9257,"lat":14.9275,"pop":0},{"id":379548,"name":"Al Fayḑ","alt":["Al Fayd","El Feid"],"lon":30.83333,"lat":11.71667,"pop":0},{"id":379549,"name":"Al Fayḑ","alt":["Al Fayd","El Feid"],"lon":31.13333,"lat":11.51667,"pop":0},{"id":379547,"name":"Al Fayj Ḩamadnā Allāh","alt":["Al Fayj Hamadna Allah","El Feig Hamadnullah"],"lon":33.58333,"lat":14.5,"pop":0},{"id":379545,"name":"Al Fazaru","alt":["El Fazaru"],"lon":33.36667,"lat":14.95,"pop":0},{"id":7002054,"name":"Al Fazra","lon":35.59356,"lat":12.71946,"pop":0},{"id":375294,"name":"Al Ferejab Rajab","alt":["Fureigab","Fureigib"],"lon":33.0068,"lat":14.5666,"pop":0},{"id":7026599,"name":"Al Fiḑel","alt":["Al Fidel"],"lon":32.8369,"lat":14.0666,"pop":0},{"id":7026204,"name":"Al Fiqeda","lon":33.0132,"lat":14.9316,"pop":0},{"id":7029213,"name":"Al Fire‘","alt":["Al Fire`"],"lon":32.4939,"lat":12.7691,"pop":0},{"id":7026320,"name":"Al Firejab Al Bilela","lon":33.0388,"lat":14.5763,"pop":0},{"id":7026321,"name":"Al Firejab Al Khawalda","lon":33.0322,"lat":14.5715,"pop":0},{"id":7018744,"name":"Al Fitūḩ","alt":["Al Fituh"],"lon":32.3067,"lat":13.7194,"pop":0},{"id":6991761,"name":"Al Fodab","lon":32.9505,"lat":15.106,"pop":0},{"id":379532,"name":"Al Fonj","alt":["Al Funj","Fundj","Fung"],"lon":34.1492,"lat":12.6939,"pop":0},{"id":379534,"name":"Al Fūla","alt":["Al Fula","Al Fulah","Al Fūlah","El Fula"],"lon":31.9365,"lat":12.9442,"pop":0},{"id":379533,"name":"Al Fūlah","alt":["Al Fulah","El Fula"],"lon":33.63333,"lat":14.76667,"pop":0},{"id":379535,"name":"Al Fūlah","alt":["Al Fulah","Al-Fula","El Fula","Rigl el Fula","Rijl Al Fula"],"lon":28.35786,"lat":11.73292,"pop":11238},{"id":7002021,"name":"Al Fungus","lon":29.9187,"lat":11.0199,"pop":0},{"id":379529,"name":"Al Fuqarā’","alt":["Al Fuqara'","El Fuqara"],"lon":33.58333,"lat":19.05,"pop":0},{"id":379525,"name":"Al Furay‘","alt":["Al Furay`","El Furei`","El Furei‘"],"lon":30.61667,"lat":14.41667,"pop":0},{"id":379526,"name":"Al Furay‘","alt":["Al Furay`","El Furei`","El Furei‘"],"lon":30.63333,"lat":14.38333,"pop":0},{"id":379524,"name":"Al Furay‘ah","alt":["Al Furay`ah","El Fure`ia","El Fure‘ia","Furei`a","Furei‘a"],"lon":30.76667,"lat":13.48333,"pop":0},{"id":379521,"name":"Al Gagad","alt":["El Gagad"],"lon":34.85,"lat":17.08333,"pop":0},{"id":379520,"name":"Al Galgala","alt":["El Galaga","El Galgala"],"lon":33.0975,"lat":15.13917,"pop":0},{"id":379519,"name":"Al Gana","alt":["El Gana"],"lon":34.93333,"lat":11.4,"pop":0},{"id":379518,"name":"Al Ganaet","alt":["Aj Janayef","El Ganaet"],"lon":32.71667,"lat":19.25,"pop":0},{"id":7001935,"name":"Al Ganāyā","alt":["Al Ganaya"],"lon":29.7169,"lat":11.2794,"pop":0},{"id":379517,"name":"Al Gara","alt":["El Gara"],"lon":33.55,"lat":14.55,"pop":0},{"id":7031658,"name":"Al Garāwid","alt":["Al Garawid"],"lon":31.3319,"lat":11.3082,"pop":0},{"id":12493836,"name":"Al Gardood","alt":["alqrdwd","القردود"],"lon":32.73056,"lat":12.69861,"pop":0},{"id":7031456,"name":"Al Gardoud","lon":30.1284,"lat":11.0872,"pop":0},{"id":7029695,"name":"Al Gardud","lon":30.3153,"lat":11.5798,"pop":0},{"id":379515,"name":"Al Gebir","alt":["El Gebir"],"lon":29.81667,"lat":13.71667,"pop":0},{"id":444148,"name":"Al Geda","lon":34.4814,"lat":17.2886,"pop":0},{"id":379513,"name":"Al Geddara","alt":["El Geddara","Geddara"],"lon":32.28333,"lat":12.86667,"pop":0},{"id":379510,"name":"Al Gedul","alt":["El Gedul"],"lon":32.35,"lat":12.31667,"pop":0},{"id":6983207,"name":"Al Ghāba","alt":["Al Ghaba"],"lon":32.7898,"lat":14.8883,"pop":0},{"id":379508,"name":"Al Ghābah","alt":["Al Ghabah","El Ghaba"],"lon":30.75,"lat":18.16667,"pop":0},{"id":379507,"name":"Al Ghabsha","alt":["Al Ghabshah","El Ghabsha","Ghabsha"],"lon":31.4456,"lat":12.9055,"pop":0},{"id":7028968,"name":"Al Ghabsha Badīn","alt":["Al Ghabsha Badin"],"lon":31.4786,"lat":12.9307,"pop":0},{"id":379496,"name":"Al Ghabshān","alt":["Al Ghabshan","El Ghubshan"],"lon":33.3255,"lat":14.229,"pop":0},{"id":374906,"name":"Al Ghannāma","alt":["Al Ghannama","Ghanama","Ghanamah"],"lon":32.2952,"lat":14.599,"pop":0},{"id":379505,"name":"Al Ghannāma","alt":["Al Ghanamah","Al Ghannama","El Ghanama"],"lon":34.4972,"lat":12.3748,"pop":0},{"id":7026168,"name":"Al Ghannomab","lon":33.3386,"lat":14.9382,"pop":0},{"id":7029216,"name":"Al Gharaq","lon":32.3472,"lat":12.6018,"pop":0},{"id":379502,"name":"Al Ghassiba","alt":["El Ghassiba"],"lon":30.18333,"lat":12.76667,"pop":0},{"id":6983214,"name":"Al Ghāwi Al ‘Aris","alt":["Al Ghawi Al `Aris"],"lon":32.5868,"lat":14.8679,"pop":0},{"id":375054,"name":"Al Ghāya","alt":["Al Ghaya","Gaia","Gaya"],"lon":31.2472,"lat":12.7538,"pop":0},{"id":6854103,"name":"Al Ghazāla","alt":["Al Ghazala"],"lon":32.7534,"lat":12.9641,"pop":0},{"id":379499,"name":"Al Ghīlah","alt":["Al Ghilah","El Ghila"],"lon":32.28333,"lat":12.23333,"pop":0},{"id":7018762,"name":"Al Ghinemāt","alt":["Al Ghinemat"],"lon":32.4016,"lat":13.6034,"pop":0},{"id":379498,"name":"Al Ghubayshāb","alt":["Al Ghubayshab","El Ghubeishab"],"lon":30.78333,"lat":13.63333,"pop":0},{"id":379495,"name":"Al Ghurayb","alt":["El Ghireib"],"lon":33.33333,"lat":19.41667,"pop":0},{"id":379494,"name":"Al Ghuraybah","alt":["El Ghoraiba","Ghoreiba"],"lon":31.58333,"lat":18.13333,"pop":0},{"id":379493,"name":"Al Ghurayd","alt":["El Ghareid"],"lon":30.61667,"lat":14.06667,"pop":0},{"id":7029285,"name":"Al Ghuwaytāb","alt":["Al Ghuwaytab"],"lon":33.0696,"lat":12.8235,"pop":0},{"id":7029295,"name":"Al Ghuwetāb","alt":["Al Ghuwetab"],"lon":33.1333,"lat":12.7064,"pop":0},{"id":444140,"name":"Al Gilei Awlad Nafi","lon":34.3635,"lat":17.3614,"pop":0},{"id":364679,"name":"Al Gilein","alt":["Umm Santah","Umm Sanţah","Umm Sunta"],"lon":34.2371,"lat":17.4257,"pop":0},{"id":6992535,"name":"Al Giref Gharb","lon":32.5832,"lat":15.5672,"pop":0},{"id":7002023,"name":"Al Giţēb","alt":["Al Giteb"],"lon":29.944,"lat":11.0069,"pop":0},{"id":444143,"name":"Al Gowez","lon":34.4351,"lat":17.3222,"pop":0},{"id":379488,"name":"Al Gulishan","alt":["El Ghulishan"],"lon":33.31667,"lat":14.23333,"pop":0},{"id":379482,"name":"Al Gurra‘a ‘Abd al Ghanī","alt":["Al Gurra`a `Abd al Ghani","El Gurra`a `Abd el Ghani","El Gurra‘a ‘Abd el Ghani"],"lon":33.53278,"lat":15.14056,"pop":0},{"id":379481,"name":"Al Guruna","alt":["El Guruna"],"lon":32.13333,"lat":13.86667,"pop":0},{"id":379478,"name":"Al Gyuddul","alt":["El Gyuddul","Qamari"],"lon":25.21667,"lat":11.03333,"pop":0},{"id":6854198,"name":"Al Habbāniyya","alt":["Al Habbaniyya"],"lon":32.8277,"lat":12.6831,"pop":0},{"id":7029142,"name":"Al Habīl","alt":["Al Habil"],"lon":31.9883,"lat":12.756,"pop":0},{"id":379473,"name":"Al Hadabah","alt":["El Hadaba"],"lon":33.51667,"lat":14.71667,"pop":0},{"id":7031480,"name":"Al Hadra","lon":30.1368,"lat":11.4496,"pop":0},{"id":7026373,"name":"Al Ḩafāyir","alt":["Al Hafayir"],"lon":32.3408,"lat":14.1923,"pop":0},{"id":7026558,"name":"Al Ḩafāyir","alt":["Al Hafayir"],"lon":32.692,"lat":14.2211,"pop":0},{"id":6983289,"name":"Al Ḩafāyir Ḩamad","alt":["Al Hafayir Hamad"],"lon":32.637,"lat":14.8301,"pop":0},{"id":7029469,"name":"Al Ḩafira","alt":["Al Hafira"],"lon":31.4854,"lat":12.456,"pop":0},{"id":7029028,"name":"Al Ḩafīra","alt":["Al Hafira"],"lon":31.3423,"lat":12.5706,"pop":0},{"id":7029523,"name":"Al Hafīra Shariq","alt":["Al Hafira Shariq"],"lon":31.5111,"lat":12.4544,"pop":0},{"id":379470,"name":"Al Ḩafīrah","alt":["Al Hafirah","El Hafira"],"lon":33.6,"lat":19.08333,"pop":0},{"id":379468,"name":"Al Hagagia","alt":["El Hagagia"],"lon":31.05,"lat":14.1,"pop":0},{"id":379467,"name":"Al Hageina","alt":["El Hageina"],"lon":31.15,"lat":14.31667,"pop":0},{"id":379466,"name":"Al Hageina as Suq","alt":["El Hageina","El Hageina es Suq"],"lon":31.61667,"lat":13.05,"pop":0},{"id":379469,"name":"Al Ḩajāb","alt":["Al Hagab","Al Hajab","El Hagab"],"lon":33.0286,"lat":14.4533,"pop":0},{"id":7026423,"name":"Al Ḩajājāb","alt":["Al Hajajab"],"lon":33.1893,"lat":14.3142,"pop":0},{"id":379464,"name":"Al Ḩajālīj","alt":["Al Hajalij","El Hegalig","Hegalig"],"lon":31.9,"lat":14.6,"pop":0},