[{"id":2411313,"name":"A. Andrade","lon":6.7,"lat":0.23333,"pop":0},{"id":2411311,"name":"Abade","lon":7.45712,"lat":1.6248,"pop":0},{"id":11203970,"name":"Agua Bobo","lon":6.72951,"lat":0.32373,"pop":0},{"id":2411305,"name":"Água Izé","alt":["Agua Ize"],"lon":6.73333,"lat":0.21667,"pop":0},{"id":11204142,"name":"Agua Porca","lon":6.71058,"lat":0.33086,"pop":0},{"id":2411306,"name":"Água-Côco","alt":["Agua-Coco"],"lon":6.53333,"lat":0.05,"pop":0},{"id":11204020,"name":"Almeirim","lon":6.71666,"lat":0.31666,"pop":0},{"id":2411297,"name":"Alto Douro","lon":6.71667,"lat":0.2,"pop":0},{"id":2411298,"name":"Alto Douro","lon":6.53333,"lat":0.05,"pop":0},{"id":2411295,"name":"Amparo","lon":6.66667,"lat":0.18333,"pop":0},{"id":2411294,"name":"Amparo II","lon":6.71667,"lat":0.31667,"pop":0},{"id":2411285,"name":"Anselmo de Andrade","alt":["Lapa"],"lon":7.36579,"lat":1.60432,"pop":0},{"id":2411284,"name":"António Dias","lon":6.66667,"lat":0.2,"pop":0},{"id":2411279,"name":"Atalaia","lon":7.44686,"lat":1.61763,"pop":0},{"id":2411257,"name":"B. Faro","lon":6.66667,"lat":0.23333,"pop":0},{"id":2411275,"name":"Babudo","lon":7.40251,"lat":1.64112,"pop":0},{"id":11203986,"name":"Bairro Verde","lon":6.73222,"lat":0.32446,"pop":0},{"id":2411262,"name":"Bela Vista","lon":7.4135,"lat":1.61779,"pop":0},{"id":2411263,"name":"Bela Vista","lon":6.7,"lat":0.36667,"pop":0},{"id":2411261,"name":"Belmonte","lon":6.65,"lat":0.33333,"pop":0},{"id":2411260,"name":"Belo Monte","lon":7.44133,"lat":1.67909,"pop":0},{"id":2411259,"name":"Bemfica","lon":6.65,"lat":0.31667,"pop":0},{"id":2411258,"name":"Bemposta","lon":6.63333,"lat":0.31667,"pop":0},{"id":2411254,"name":"Bindá","lon":6.46667,"lat":0.21667,"pop":0},{"id":2411251,"name":"Blublu","lon":6.71667,"lat":0.31667,"pop":0},{"id":2411250,"name":"Boa Entrada","lon":6.66667,"lat":0.35,"pop":0},{"id":2411249,"name":"Boa Esperança","lon":6.63333,"lat":0.33333,"pop":0},{"id":11204205,"name":"Boa Morte","lon":6.7199,"lat":0.33991,"pop":0},{"id":2411245,"name":"Bombaim","lon":6.63333,"lat":0.25,"pop":0},{"id":2411244,"name":"Bombom","lon":6.72816,"lat":0.31075,"pop":0},{"id":2411241,"name":"Bombon","lon":6.73333,"lat":0.31667,"pop":0},{"id":2411237,"name":"Buenos Aires","alt":["Buenos Ayres"],"lon":6.71667,"lat":0.26667,"pop":0},{"id":2411229,"name":"Cadão","lon":6.53333,"lat":0.33333,"pop":0},{"id":2411223,"name":"Caixão Grande","alt":["Caixao Grande"],"lon":6.71667,"lat":0.3,"pop":0},{"id":2411221,"name":"Caldeiras","lon":6.63333,"lat":0.35,"pop":0},{"id":2411216,"name":"Campainha","lon":7.42908,"lat":1.68075,"pop":0},{"id":2411212,"name":"Canavial","lon":6.66667,"lat":0.38333,"pop":0},{"id":2411207,"name":"Cantagalo","lon":6.68333,"lat":0.21667,"pop":0},{"id":2411200,"name":"Caridade","lon":6.7,"lat":0.2,"pop":0},{"id":2411196,"name":"Cascalheira","lon":7.41498,"lat":1.68232,"pop":0},{"id":2411190,"name":"Catumbela","lon":6.66667,"lat":0.25,"pop":0},{"id":2411185,"name":"Chamiço","lon":6.6,"lat":0.31667,"pop":0},{"id":2411180,"name":"Colónia Açoreana","lon":6.68333,"lat":0.18333,"pop":0},{"id":11204564,"name":"Conde","lon":6.66422,"lat":0.37625,"pop":0},{"id":2411172,"name":"Costa e Silva","lon":7.34789,"lat":1.55955,"pop":0},{"id":11203976,"name":"Cruzeiro","lon":6.6781,"lat":0.29035,"pop":0},{"id":2411166,"name":"Diana","lon":6.68333,"lat":0.33333,"pop":0},{"id":2411160,"name":"Diogo Vaz","lon":6.5,"lat":0.31667,"pop":0},{"id":2411156,"name":"Dona Augusta","lon":6.63333,"lat":0.11667,"pop":0},{"id":2411155,"name":"Dona Eugénia","alt":["Dona Eugenia"],"lon":6.61667,"lat":0.13333,"pop":0},{"id":2411153,"name":"Enjale","lon":6.51667,"lat":0.03333,"pop":0},{"id":2411152,"name":"Ermelinda","lon":6.58333,"lat":0.13333,"pop":0},{"id":2411149,"name":"Esperança","lon":7.405,"lat":1.62363,"pop":0},{"id":2411148,"name":"Esprainha","lon":6.51667,"lat":0.33333,"pop":0},{"id":2411139,"name":"F. Mantero","lon":6.71667,"lat":0.25,"pop":0},{"id":2411142,"name":"Fernão Dias","lon":6.68333,"lat":0.41667,"pop":0},{"id":11204006,"name":"Folha Fede","lon":6.684,"lat":0.284,"pop":0},{"id":2411137,"name":"Formiga","lon":6.48333,"lat":0.25,"pop":0},{"id":11238807,"name":"Fundação Popular","lon":6.7197,"lat":0.3315,"pop":0},{"id":2411124,"name":"Futuro","lon":7.4271,"lat":1.67355,"pop":0},{"id":2411118,"name":"General Fonseca","lon":7.42568,"lat":1.57106,"pop":0},{"id":11204403,"name":"Generosa","lon":6.54816,"lat":0.34737,"pop":0},{"id":2411115,"name":"Germinia Antónia","lon":7.37795,"lat":1.63661,"pop":0},{"id":2411111,"name":"Graça","alt":["Graca"],"lon":6.65,"lat":0.3,"pop":0},{"id":2411112,"name":"Graça","lon":6.48333,"lat":0.25,"pop":0},{"id":2411105,"name":"Granja","lon":6.63333,"lat":0.15,"pop":0},{"id":2411104,"name":"Gratidão","lon":6.68333,"lat":0.33333,"pop":0},{"id":2411102,"name":"Guadalupe","lon":6.6375,"lat":0.37917,"pop":0},{"id":2411101,"name":"Guarda","lon":6.6,"lat":0.35,"pop":0},{"id":2411100,"name":"Guayaquil","lon":6.61667,"lat":0.2,"pop":0},{"id":2411097,"name":"Guegue Novo","alt":["Ghegue Novo"],"lon":6.71667,"lat":0.26667,"pop":0},{"id":2411095,"name":"Gumbela","lon":6.55,"lat":0.08333,"pop":0},{"id":2411093,"name":"Henrique","lon":6.55,"lat":0.05,"pop":0},{"id":2411090,"name":"Infante Dom Henrique","lon":7.41219,"lat":1.5675,"pop":0},{"id":2411081,"name":"Ió Grande","lon":6.61667,"lat":0.21667,"pop":0},{"id":2411079,"name":"Iola","lon":7.37303,"lat":1.64094,"pop":0},{"id":2411073,"name":"Java","lon":6.65,"lat":0.26667,"pop":0},{"id":2411056,"name":"Laura","lon":6.7,"lat":0.28333,"pop":0},{"id":2411054,"name":"Lembá","alt":["Lemba"],"lon":6.46667,"lat":0.25,"pop":0},{"id":2411049,"name":"Lemos","lon":6.7,"lat":0.3,"pop":0},{"id":2411038,"name":"M. Alice","lon":6.53333,"lat":0.06667,"pop":0},{"id":2410983,"name":"M. Peixe","lon":6.65,"lat":0.4,"pop":0},{"id":2410976,"name":"M. Vilela","lon":6.56667,"lat":0.28333,"pop":0},{"id":2411043,"name":"Macambrará","alt":["Macambrara","Makambrara","Makambrará"],"lon":6.63333,"lat":0.26667,"pop":0},{"id":2411041,"name":"Madalena","alt":["Magdalena"],"lon":6.66667,"lat":0.33333,"pop":0},{"id":2411036,"name":"Mantero","alt":["Correio"],"lon":7.3532,"lat":1.59881,"pop":0},{"id":2411034,"name":"Manuel Gomes","lon":7.38303,"lat":1.63266,"pop":0},{"id":2411032,"name":"Máquina","lon":7.38127,"lat":1.63541,"pop":0},{"id":2411019,"name":"Matocana","lon":6.7,"lat":0.23333,"pop":0},{"id":11204288,"name":"Micolo","lon":6.68857,"lat":0.40314,"pop":0},{"id":2411011,"name":"Milagrosa","lon":6.66029,"lat":0.27959,"pop":0},{"id":2411007,"name":"Mirante","lon":6.6,"lat":0.33333,"pop":0},{"id":2411008,"name":"Mirante","lon":6.51667,"lat":0.25,"pop":0},{"id":2411002,"name":"Montalegre","lon":7.38861,"lat":1.63318,"pop":0},{"id":2411001,"name":"Montalvão","lon":7.41358,"lat":1.66557,"pop":0},{"id":2410998,"name":"Monte Café","lon":6.65,"lat":0.3,"pop":0},{"id":2410995,"name":"Monte Carmo","lon":6.6,"lat":0.33333,"pop":0},{"id":2410996,"name":"Monte Carmo","lon":6.5,"lat":0.3,"pop":0},{"id":2410997,"name":"Monte Carmo","lon":6.58333,"lat":0.15,"pop":0},{"id":2410993,"name":"Monte Pedra","lon":7.4282,"lat":1.61503,"pop":0},{"id":2410992,"name":"Monte Raul","lon":6.68333,"lat":0.21667,"pop":0},{"id":2410991,"name":"Monte Rosa","alt":["Monte Roza"],"lon":6.51667,"lat":0.13333,"pop":0},{"id":2410999,"name":"Montebelo","lon":6.71667,"lat":0.21667,"pop":0},{"id":2410994,"name":"Monteforte","lon":6.53333,"lat":0.33333,"pop":0},{"id":2410990,"name":"Montes Hermínios","lon":6.7,"lat":0.25,"pop":0},{"id":2410986,"name":"Morro Vigia","lon":6.6,"lat":0.33333,"pop":0},{"id":2410982,"name":"Mulondo","lon":6.51667,"lat":0.3,"pop":0},{"id":2410974,"name":"N. Ceilão","alt":["N. Ceilao","N. Ceylao","N. Ceylão"],"lon":6.6,"lat":0.28333,"pop":0},{"id":2410960,"name":"N’zumbi","alt":["N'zumbi"],"lon":6.55,"lat":0.06667,"pop":0},{"id":2410975,"name":"Nazaré","lon":6.71667,"lat":0.36667,"pop":0},{"id":2410972,"name":"Neves","lon":6.54897,"lat":0.35671,"pop":0},{"id":2410971,"name":"Neves Ferreira","lon":7.39719,"lat":1.54944,"pop":0},{"id":2410970,"name":"Nitreira","lon":7.41723,"lat":1.60748,"pop":0},{"id":2410969,"name":"Nova Cuba","lon":7.40813,"lat":1.63904,"pop":0},{"id":2410968,"name":"Nova Estrela","lon":7.43144,"lat":1.61864,"pop":0},{"id":2410967,"name":"Nova Moca","alt":["Nova Moka"],"lon":6.63333,"lat":0.28333,"pop":0},{"id":2410965,"name":"Nova Olinda","lon":6.73333,"lat":0.25,"pop":0},{"id":2410964,"name":"Novo Brasil","alt":["Novo Brazil"],"lon":6.56667,"lat":0.08333,"pop":0},{"id":2410963,"name":"Novo Destino","lon":6.63333,"lat":0.31667,"pop":0},{"id":2410952,"name":"Oquê Gaspar","lon":7.41247,"lat":1.64691,"pop":0},{"id":2410948,"name":"Oquê Rosário","lon":7.41603,"lat":1.64532,"pop":0},{"id":2410947,"name":"Oquê Três","lon":7.40067,"lat":1.64335,"pop":0},{"id":2410944,"name":"Paciencia","lon":7.43205,"lat":1.67156,"pop":0},{"id":2410936,"name":"Paris","lon":6.68333,"lat":0.33333,"pop":0},{"id":2410935,"name":"Pau Cavalo","lon":7.37981,"lat":1.64167,"pop":0},{"id":2410934,"name":"Paufita","lon":7.41255,"lat":1.67846,"pop":0},{"id":2410923,"name":"Periquito","lon":7.42128,"lat":1.60634,"pop":0},{"id":2410921,"name":"Perseverança","lon":6.61667,"lat":0.08333,"pop":0},{"id":2410914,"name":"Piedade","lon":7.43736,"lat":1.63485,"pop":0},{"id":2410912,"name":"Pinheira","lon":6.71667,"lat":0.28333,"pop":0},{"id":2410909,"name":"Planca Primeira","lon":6.6,"lat":0.4,"pop":0},{"id":2410907,"name":"Planca Segunda","lon":6.61667,"lat":0.4,"pop":0},{"id":2410908,"name":"Plancas","lon":6.6,"lat":0.36667,"pop":0},{"id":2410906,"name":"Platô Café","lon":6.66667,"lat":0.26667,"pop":0},{"id":2410905,"name":"Poiso Alto","lon":6.61667,"lat":0.33333,"pop":0},{"id":2410902,"name":"Ponta do Sol","lon":7.38075,"lat":1.64961,"pop":0},{"id":2410900,"name":"Ponta Figo","lon":6.55,"lat":0.35,"pop":0},{"id":2410899,"name":"Ponta Forte","lon":7.42189,"lat":1.6593,"pop":0},{"id":2410898,"name":"Ponta Furada","alt":["Roca Furada","Roça Furada"],"lon":6.48333,"lat":0.23333,"pop":0},{"id":11204079,"name":"Ponte Graça","lon":6.7234,"lat":0.33787,"pop":0},{"id":2410895,"name":"Portinho","lon":6.53333,"lat":0.08333,"pop":0},{"id":2410892,"name":"Porto Alegre","alt":["PGP"],"lon":6.53333,"lat":0.03333,"pop":0},{"id":8693269,"name":"Porto Algere","lon":6.53352,"lat":0.03455,"pop":0},{"id":11239070,"name":"Porto Real","lon":7.40146,"lat":1.62473,"pop":0},{"id":2410891,"name":"Praia da Rosema","lon":6.55911,"lat":0.35696,"pop":0},{"id":2410889,"name":"Praia das Conchas","lon":6.61667,"lat":0.38333,"pop":0},{"id":2410888,"name":"Praia Grande","lon":6.58333,"lat":0.08333,"pop":0},{"id":2410885,"name":"Praia Inhame","lon":7.42787,"lat":1.66289,"pop":0},{"id":2410872,"name":"Queluz","lon":6.65,"lat":0.33333,"pop":0},{"id":11239067,"name":"Quilombo","lon":6.73126,"lat":0.33361,"pop":0},{"id":2410869,"name":"Quimpo","alt":["Kimpo"],"lon":6.71667,"lat":0.25,"pop":0},{"id":2410868,"name":"Quinas","lon":6.6,"lat":0.26667,"pop":0},{"id":2410866,"name":"Quingué","lon":6.66667,"lat":0.28333,"pop":0},{"id":2410860,"name":"Ribeira Afonso","lon":6.71667,"lat":0.2,"pop":0},{"id":2410859,"name":"Ribeira Fria","lon":7.4241,"lat":1.58899,"pop":0},{"id":2410858,"name":"Ribeira Funda","lon":6.58333,"lat":0.36667,"pop":0},{"id":2410857,"name":"Ribeira Izé","lon":7.40052,"lat":1.68296,"pop":0},{"id":2410855,"name":"Ribeira Palma","lon":6.58333,"lat":0.35,"pop":0},{"id":11204197,"name":"Riboque","lon":6.72318,"lat":0.33525,"pop":0},{"id":11204596,"name":"Riboque Santana","lon":6.7369,"lat":0.24745,"pop":0},{"id":2410854,"name":"Rio Ave","lon":6.5,"lat":0.26667,"pop":0},{"id":2410853,"name":"Rio do Ouro","lon":6.65,"lat":0.36667,"pop":0},{"id":2410852,"name":"Rio Leça","lon":6.55,"lat":0.35,"pop":0},{"id":2410851,"name":"Rio Vouga","lon":6.7,"lat":0.33333,"pop":0},{"id":11962033,"name":"Roça Agostinho Neto","lon":6.64398,"lat":0.3674,"pop":0},{"id":2410849,"name":"Rosema","alt":["Rozema"],"lon":6.56667,"lat":0.35,"pop":0},{"id":2410845,"name":"Salomão","lon":7.38843,"lat":1.63996,"pop":0},{"id":2410810,"name":"Sant’Elmo","lon":6.61667,"lat":0.21667,"pop":0},{"id":2410841,"name":"Santa Adelaide","lon":6.65,"lat":0.26667,"pop":0},{"id":2410840,"name":"Santa Catarina","alt":["Santa Catanna"],"lon":6.47241,"lat":0.27157,"pop":0},{"id":2410838,"name":"Santa Cecília","lon":6.7,"lat":0.18333,"pop":0},{"id":2410837,"name":"Santa Clara","lon":6.61667,"lat":0.35,"pop":0},{"id":2410834,"name":"Santa Clotilde","lon":6.5,"lat":0.3,"pop":0},{"id":2410835,"name":"Santa Clotilde","lon":6.7,"lat":0.25,"pop":0},{"id":2410836,"name":"Santa Clotilde","lon":6.6,"lat":0.11667,"pop":0},{"id":2410832,"name":"Santa Cruz","lon":6.66667,"lat":0.33333,"pop":0},{"id":2410833,"name":"Santa Cruz","lon":6.65,"lat":0.13333,"pop":0},{"id":2410831,"name":"Santa Elvira","alt":["Sant'Elvira","Sant’Elvira"],"lon":6.65,"lat":0.26667,"pop":0},{"id":2410829,"name":"Santa Irene","lon":6.51667,"lat":0.21667,"pop":0},{"id":2410830,"name":"Santa Irene","lon":6.6,"lat":0.1,"pop":0},{"id":2410828,"name":"Santa Isabel","lon":7.41534,"lat":1.64815,"pop":0},{"id":2410826,"name":"Santa Joaquina","lon":7.40388,"lat":1.61122,"pop":0},{"id":2410825,"name":"Santa Josefina","lon":6.53333,"lat":0.06667,"pop":0},{"id":2410824,"name":"Santa Luzia","lon":6.63333,"lat":0.36667,"pop":0},{"id":2410823,"name":"Santa Margarida","lon":6.66667,"lat":0.33333,"pop":0},{"id":2410822,"name":"Santa Maria","lon":6.6,"lat":0.35,"pop":0},{"id":2410813,"name":"Santa Rita","lon":7.4112,"lat":1.67357,"pop":0},{"id":2410811,"name":"Santa Trindade","alt":["Pico"],"lon":7.39129,"lat":1.61965,"pop":0},{"id":2410820,"name":"Santana","lon":7.4371,"lat":1.66428,"pop":0},{"id":2410821,"name":"Santana","alt":["Sant'Ana","Sant’Ana"],"lon":6.7414,"lat":0.25423,"pop":0},{"id":2410814,"name":"Santarém","lon":6.68333,"lat":0.35,"pop":0},{"id":2410809,"name":"Santo Amaro","lon":6.7,"lat":0.36667,"pop":0},{"id":2410808,"name":"Santo André","lon":6.7,"lat":0.33333,"pop":0},{"id":2410805,"name":"Santo António","alt":["Cidade de Santo Antonio","Cidade de Santo António","San Antonio","Santo Antonijus","Santo Antonio","Santu-Anton'ju","Sao Antonio","São Antõnio","sang tu xang tx ni xu","santuantoniu","santw antwnyw","sheng an dong ni ao","Санто Антонио","Санту-Антонью","سانتو آنتونیو","سانتو انتونیو","ซังตูอังตอนีอู","サント・アントニオ","聖安東尼奧","산투안토니우"],"lon":7.41951,"lat":1.63943,"pop":1156},{"id":2410806,"name":"Santo António","lon":7.4232,"lat":1.64751,"pop":0},{"id":2410807,"name":"Santo António","lon":6.73333,"lat":0.23333,"pop":0},{"id":2410802,"name":"Santo Cristo","lon":7.43171,"lat":1.62493,"pop":0},{"id":2410801,"name":"São Carlos do Fundão","lon":7.38552,"lat":1.6083,"pop":0},{"id":2410797,"name":"São Francisco","lon":6.65,"lat":0.31667,"pop":0},{"id":2410798,"name":"São Francisco","lon":6.65,"lat":0.2,"pop":0},{"id":11204600,"name":"São Gabriel","lon":6.73429,"lat":0.32521,"pop":0},{"id":2410796,"name":"São Januário","lon":6.66667,"lat":0.25,"pop":0},{"id":2410794,"name":"São Jerónimo","alt":["Cincoenta","Sao Jeronimo"],"lon":7.37685,"lat":1.67316,"pop":0},{"id":2410795,"name":"São Jerónimo","alt":["Sao Jeronimo","Sao Jeronymo","São Jerónymo"],"lon":6.68333,"lat":0.2,"pop":0},{"id":2410786,"name":"São João","lon":7.43118,"lat":1.64403,"pop":0},{"id":2410787,"name":"São João","lon":6.48333,"lat":0.25,"pop":0},{"id":2410789,"name":"São João","lon":6.55,"lat":0.08333,"pop":0},{"id":2410788,"name":"São João dos Angolares","alt":["Sao Jao","Sao Joao","Sao Joao dos Angolares","São João","São Jão"],"lon":6.64944,"lat":0.13417,"pop":0},{"id":2410783,"name":"São Joaquim","lon":7.37704,"lat":1.62059,"pop":0},{"id":2410782,"name":"São Jorge","alt":["Azeitona","Sao Jorge"],"lon":7.40234,"lat":1.66467,"pop":0},{"id":2410779,"name":"São José","lon":6.5,"lat":0.21667,"pop":0},{"id":2410780,"name":"São José","lon":6.6,"lat":0.11667,"pop":0},{"id":2410778,"name":"São José Picaté","alt":["Pincate","Pincaté","Sao Jose","Sao Jose Picate","São José"],"lon":7.39805,"lat":1.6349,"pop":0},{"id":2410777,"name":"São Luís","alt":["Sao Luis","Sao Luiz","São Luiz"],"lon":6.61667,"lat":0.3,"pop":0},{"id":2410775,"name":"São Manuel","alt":["Sao Manoel","Sao Manuel","São Manoel"],"lon":6.48333,"lat":0.26667,"pop":0},{"id":11204105,"name":"São Marçal","lon":6.72608,"lat":0.31917,"pop":0},{"id":2410774,"name":"São Mateus","lon":7.40259,"lat":1.63262,"pop":0},{"id":2410773,"name":"São Miguel","lon":6.5,"lat":0.13333,"pop":0},{"id":2410769,"name":"São Nicolau","lon":6.63333,"lat":0.28333,"pop":0},{"id":2410768,"name":"São Paulo","lon":6.65,"lat":0.2,"pop":0},{"id":2410766,"name":"São Pedro","lon":6.7,"lat":0.28333,"pop":0},{"id":2410763,"name":"São Tomé","alt":["Salazar","San Tomas","San Tome","San Tomé","San Tomė","San-Tameh","San-Tome","Santo Tome","Santo Tomé","Santome","Sao Thome","Sao Tome","Sao Tomee","Sao Tomé","Sao-Tomeo","Soeo Tome","Svaety Tomas","Svätý Tomáš","Sào Thomé","Söo Tomé","TMS","Urbs Sancti Thomae","cavo tome","sa'o tome","sangtume","santome","savea team","saw twmy","saywtwmh","sea tu me","sheng duo mei","Σάο Τομέ","Сан-Тамэ","Сан-Томе","Сао Томе","Սան Տոմե","סאו טומה","ساؤ ٹومے","سائوتومه","ساو تومي","ساو تۆمێ","ساو ٹومے","साओ टोमे","সাও টোমে","ਸਾਓ ਤੋਮੇ","சாவோ தொமே","സാവോ ടോം","เซาตูเม","སའོ་ཊོ་མེ།","სან-ტომე","ሳን ቶሜ","サントメ","圣多美","聖多美","상투메"],"lon":6.72732,"lat":0.33654,"pop":53300},{"id":2410757,"name":"Saudade","lon":6.63333,"lat":0.28333,"pop":0},{"id":2410754,"name":"Sequeira","lon":7.3801,"lat":1.63777,"pop":0},{"id":2410749,"name":"Soledade","lon":6.65,"lat":0.13333,"pop":0},{"id":2410748,"name":"Sundi","lon":7.3835,"lat":1.66829,"pop":0},{"id":2410744,"name":"Terra Firme","lon":7.46036,"lat":1.67762,"pop":0},{"id":2410738,"name":"Trás os Montes","alt":["Tras os Montes","Traz os Montes"],"lon":6.61667,"lat":0.26667,"pop":0},{"id":2410737,"name":"Trindade","lon":6.68139,"lat":0.29667,"pop":0},{"id":2410735,"name":"Triunfo","lon":6.68333,"lat":0.4,"pop":0},{"id":2410734,"name":"Uba","lon":7.37908,"lat":1.63022,"pop":0},{"id":11204554,"name":"Uba Flor","lon":6.67889,"lat":0.29463,"pop":0},{"id":2410732,"name":"Ubabudo","lon":6.75,"lat":0.26667,"pop":0},{"id":2410730,"name":"Urzelina","lon":6.68333,"lat":0.18333,"pop":0},{"id":2410728,"name":"Val Carmo","lon":6.63333,"lat":0.16667,"pop":0},{"id":2410726,"name":"Vila Conceição","lon":6.56667,"lat":0.05,"pop":0},{"id":11204449,"name":"Vila Fernanda","lon":6.72212,"lat":0.33489,"pop":0},{"id":11203985,"name":"Vila Maria","lon":6.73886,"lat":0.33111,"pop":0},{"id":2410725,"name":"Vila Moura","lon":6.68333,"lat":0.3,"pop":0},{"id":2410724,"name":"Vila Rosa","lon":7.42182,"lat":1.67462,"pop":0},{"id":2410723,"name":"Vila Sara","lon":6.58333,"lat":0.33333,"pop":0},{"id":2410721,"name":"Vila Verde","lon":6.55,"lat":0.13333,"pop":0},{"id":2410720,"name":"Vista Alegre","lon":6.68333,"lat":0.31667,"pop":0}]