[{"id":935120,"name":"Abercorn","alt":["Abercorn Point","Abercorn Pont"],"lon":32.13333,"lat":-26.83333,"pop":0},{"id":935118,"name":"Balegane","alt":["Balegana","Balegane Store"],"lon":31.56667,"lat":-26.1,"pop":0},{"id":935116,"name":"Bennets","lon":31.51667,"lat":-25.95,"pop":0},{"id":935114,"name":"Bhunya","alt":["Bunya"],"lon":31.01667,"lat":-26.55,"pop":3046},{"id":935113,"name":"Big Bend","lon":31.93333,"lat":-26.81667,"pop":10342},{"id":11523365,"name":"Buhleni","lon":31.50967,"lat":-25.92138,"pop":0},{"id":935111,"name":"Bulembu","alt":["Compound","Emhlembi","Emlembe"],"lon":31.13333,"lat":-25.96667,"pop":2260},{"id":935108,"name":"Commissie Nek","lon":31.23333,"lat":-26.33333,"pop":0},{"id":935107,"name":"Croydon","lon":31.56667,"lat":-26.2,"pop":0},{"id":935106,"name":"Darkton","alt":["Darktown"],"lon":31.03333,"lat":-26.23333,"pop":1281},{"id":11205450,"name":"Dvokolwako","lon":31.58878,"lat":-26.16037,"pop":0},{"id":935103,"name":"Dwaleni","lon":31.26667,"lat":-27.16667,"pop":0},{"id":11127726,"name":"Ekukhanyeni","lon":31.52806,"lat":-26.3875,"pop":0},{"id":935097,"name":"Etjanine","lon":30.9,"lat":-26.38333,"pop":0},{"id":935096,"name":"Ezulwini","alt":["Esulweni","Ezulweni"],"lon":31.16667,"lat":-26.4,"pop":0},{"id":11126273,"name":"Fairview North","lon":31.36121,"lat":-26.48661,"pop":0},{"id":935093,"name":"Forbes Reef","lon":31.1,"lat":-26.16667,"pop":0},{"id":935091,"name":"Gege","lon":31.01667,"lat":-26.95,"pop":0},{"id":935090,"name":"Granvalley","alt":["Grand Valley Estate"],"lon":31.28333,"lat":-26.91667,"pop":0},{"id":935089,"name":"Havelock","alt":["Havelock Mine"],"lon":31.13333,"lat":-25.95,"pop":0},{"id":935086,"name":"Herefords","lon":31.5,"lat":-25.83333,"pop":0},{"id":11237894,"name":"Hhelehhele","lon":31.456,"lat":-26.488,"pop":0},{"id":935081,"name":"Hlatikulu","lon":31.32444,"lat":-26.97917,"pop":2748},{"id":11257278,"name":"Hlatsi","lon":31.3252,"lat":-26.97479,"pop":0},{"id":11127813,"name":"Hluthi","lon":31.57,"lat":-27.21,"pop":0},{"id":935076,"name":"Hluti","lon":31.61667,"lat":-27.21667,"pop":6763},{"id":935075,"name":"Holobela","lon":31.83333,"lat":-26.7,"pop":0},{"id":935074,"name":"Horo","lon":31.41667,"lat":-25.75,"pop":0},{"id":935067,"name":"Inyetane","lon":31.93333,"lat":-26.55,"pop":0},{"id":935068,"name":"Inyetane","alt":["Palata"],"lon":32.01667,"lat":-26.53333,"pop":0},{"id":935060,"name":"Kobolondo Heights","lon":31.21667,"lat":-25.9,"pop":0},{"id":935055,"name":"Kubuta","lon":31.48333,"lat":-26.88333,"pop":2038},{"id":935054,"name":"Kwaluseni","lon":31.33333,"lat":-26.48333,"pop":3395},{"id":935051,"name":"Lavumisa","alt":["Gollel"],"lon":31.89198,"lat":-27.31005,"pop":2000},{"id":935049,"name":"Lismore","lon":31.93333,"lat":-27.11667,"pop":0},{"id":935048,"name":"Lobamba","alt":["Labamba","Lobambo","Lobomba","lobamba","luo ban ba","lwbama","lwbamba","lwbmbh","robanba","Лабамба","Лобамба","לובמבה","لوباما","لوبامبا","لۆبامبا","ლობამბა","ロバンバ","洛班巴","로밤바"],"lon":31.2,"lat":-26.46667,"pop":4557},{"id":935045,"name":"Lomahasha","alt":["Nomahasha"],"lon":32,"lat":-25.98333,"pop":0},{"id":935044,"name":"Lomati","alt":["Lomati Store"],"lon":31.35,"lat":-25.81667,"pop":0},{"id":935040,"name":"Lubuli","lon":31.9,"lat":-27.01667,"pop":0},{"id":11257943,"name":"Lundzi","lon":30.85798,"lat":-26.4548,"pop":0},{"id":935031,"name":"Luyengo","lon":31.23333,"lat":-26.53333,"pop":0},{"id":935023,"name":"Macnab","alt":["Mac Nabs","Macnab Store"],"lon":31.58333,"lat":-26.41667,"pop":0},{"id":935021,"name":"Madlangampisi","lon":31.55,"lat":-26.08333,"pop":0},{"id":11127816,"name":"Mafutseni","lon":31.52,"lat":-26.44,"pop":0},{"id":935018,"name":"Magomba","lon":31.83333,"lat":-26.56667,"pop":0},{"id":935017,"name":"Mahamba","lon":31.08333,"lat":-27.1,"pop":0},{"id":11523348,"name":"Mahlalini","lon":31.31136,"lat":-27.07567,"pop":0},{"id":11128092,"name":"Mahlangatja","lon":31.24806,"lat":-26.78139,"pop":0},{"id":935014,"name":"Mahlanya","lon":31.28333,"lat":-26.5,"pop":0},{"id":11204813,"name":"Malindza","lon":31.75317,"lat":-26.40294,"pop":0},{"id":935005,"name":"Malkerns","lon":31.18333,"lat":-26.56667,"pop":9724},{"id":935002,"name":"Maloma","lon":31.65,"lat":-27.01667,"pop":0},{"id":11256967,"name":"Mambane","lon":32.034,"lat":-26.768,"pop":0},{"id":11247706,"name":"Mangwaneni","lon":31.14403,"lat":-26.33858,"pop":0},{"id":934998,"name":"Mankayane","alt":["Mankaiana"],"lon":31.06487,"lat":-26.6684,"pop":0},{"id":934995,"name":"Manzini","alt":["Bremersdorp","MTS","Maneini","Manzinis","Manêini","man qi ni","manjini","mnzyny","Μανζίνι","Манзини","Манзіні","מנזיני","マンジニ","曼齐尼","만지니"],"lon":31.38004,"lat":-26.49884,"pop":110537},{"id":9193136,"name":"Maphiveni","lon":31.98841,"lat":-26.14126,"pop":0},{"id":11523346,"name":"Mathendele","lon":31.19652,"lat":-27.09539,"pop":0},{"id":934989,"name":"Matsapha","alt":["MTS","Matapa","Matsapa"],"lon":31.30795,"lat":-26.50253,"pop":0},{"id":934985,"name":"Mbabane","alt":["Embabane","Mabane","Mbaban","Mbabaneh","Mbabano","Mbabanė","Mbabàn","Mpampane","QMN","ababane","ambabane","ambabany","eumbabane","impapan","mbaban","mbabane","mbabanh","mbabyn","mbbnh","mo ba ben","mubabane","xam ba bane","Μπαμπάνε","Мбабане","Мбабанэ","Մբաբանե","מבאבאנע","מבבנה","امبابانی","مبابان","مبابانه","مبابانێ","مبابین","अंबाबाने","ਅੰਬਾਬਾਨੇ","இம்பபான்","อัมบาบาเน","མ་པ་པན།","მბაბანე","ምባባኔ","ムババーネ","墨巴本","음바바네"],"lon":31.13333,"lat":-26.31667,"pop":76218},{"id":11127737,"name":"Mbangweni","lon":31.11164,"lat":-26.29321,"pop":0},{"id":11239145,"name":"Mbasheni","lon":31.39092,"lat":-25.8284,"pop":0},{"id":934980,"name":"Mbuluzana","lon":31.51667,"lat":-26.35,"pop":0},{"id":934975,"name":"Mgamane","lon":31.1,"lat":-26.81667,"pop":0},{"id":11127815,"name":"Mgazini","lon":30.949,"lat":-26.796,"pop":0},{"id":934971,"name":"Mhlambanyatsi","alt":["Mhlambanyati"],"lon":31.01667,"lat":-26.45,"pop":2886},{"id":11126275,"name":"Mhlangatane","lon":31.63333,"lat":-25.93333,"pop":0},{"id":11128093,"name":"Mhlangatane","lon":31.11472,"lat":-26.305,"pop":0},{"id":934967,"name":"Mhlosheni","alt":["Mhlotsheni"],"lon":31.38333,"lat":-27.18333,"pop":0},{"id":934966,"name":"Mhlume","lon":31.85,"lat":-26.03333,"pop":8652},{"id":934965,"name":"Mhlumeni","lon":32.1,"lat":-26.25,"pop":0},{"id":11205510,"name":"Mkhulamini","lon":31.38627,"lat":-26.42765,"pop":0},{"id":934960,"name":"Mlawula","lon":31.98333,"lat":-26.18333,"pop":0},{"id":934959,"name":"Mliba","lon":31.58333,"lat":-26.25,"pop":0},{"id":934953,"name":"Mooihoek","lon":31.46667,"lat":-26.96667,"pop":0},{"id":11205291,"name":"Mpaka","lon":31.78,"lat":-26.412,"pop":0},{"id":11127718,"name":"Mpolonjeni","lon":31.86901,"lat":-26.55497,"pop":0},{"id":11523366,"name":"Msunduza","lon":31.15066,"lat":-26.33113,"pop":0},{"id":11258149,"name":"Mthongwaneni","lon":31.47173,"lat":-26.49785,"pop":0},{"id":934931,"name":"Mvangatini","alt":["Mvangalini"],"lon":31.6,"lat":-26.75,"pop":0},{"id":11256884,"name":"Ndzevane","lon":31.95394,"lat":-26.94646,"pop":0},{"id":11128087,"name":"Ndzingeni","lon":31.29344,"lat":-25.97518,"pop":0},{"id":11257314,"name":"Ngculwini","lon":31.48251,"lat":-26.54698,"pop":0},{"id":934921,"name":"Ngonini","lon":31.38333,"lat":-25.76667,"pop":0},{"id":7932093,"name":"Ngwenya","lon":31.03926,"lat":-26.2279,"pop":0},{"id":934913,"name":"Nhlangano","alt":["Goedgegun"],"lon":31.19833,"lat":-27.11222,"pop":9016},{"id":11127817,"name":"Nkambeni","lon":31.66667,"lat":-26.05,"pop":0},{"id":934909,"name":"Nkanni","lon":31.21667,"lat":-26.45,"pop":0},{"id":934906,"name":"Nkonjane","lon":32.08333,"lat":-26.76667,"pop":0},{"id":934904,"name":"Nokwane","lon":31.91667,"lat":-26.13333,"pop":0},{"id":934900,"name":"Nsoko","alt":["Nsoka"],"lon":31.95,"lat":-27.03333,"pop":1175},{"id":11257303,"name":"Nsongweni","lon":31.19324,"lat":-27.08748,"pop":0},{"id":9180486,"name":"Ntfonjeni","lon":31.3273,"lat":-25.82659,"pop":0},{"id":934888,"name":"Nyabe","lon":31.08333,"lat":-26.75,"pop":0},{"id":11205004,"name":"Nyonyane","lon":31.44916,"lat":-26.11405,"pop":0},{"id":934881,"name":"Piggs Peak","lon":31.24666,"lat":-25.96082,"pop":5750},{"id":934878,"name":"Rocklands","lon":31.28333,"lat":-25.95,"pop":0},{"id":934877,"name":"Rondspring","lon":31.7,"lat":-26.88333,"pop":0},{"id":934870,"name":"Sandlane","lon":30.78333,"lat":-26.56667,"pop":0},{"id":934864,"name":"Sicunusa","alt":["Sigunusa"],"lon":30.95,"lat":-26.86667,"pop":0},{"id":934862,"name":"Sidvokodvo","lon":31.42021,"lat":-26.6282,"pop":1746},{"id":11127738,"name":"Simunye","lon":31.91889,"lat":-26.20889,"pop":0},{"id":934855,"name":"Singceni","alt":["Sinceni"],"lon":31.58333,"lat":-26.76667,"pop":0},{"id":934852,"name":"Siphofaneni","alt":["Sipofaneni","Sipofaneni Bridge","Sipofanenibrug","Spofanene"],"lon":31.68333,"lat":-26.68333,"pop":0},{"id":934851,"name":"Siteki","alt":["Stegi"],"lon":31.94722,"lat":-26.4525,"pop":6152},{"id":934850,"name":"Sitobela","alt":["Sibobela"],"lon":31.6,"lat":-26.88333,"pop":0},{"id":934848,"name":"Skombeni","lon":31.35,"lat":-26.4,"pop":0},{"id":934842,"name":"Stylkloof","lon":31.13333,"lat":-26.78333,"pop":0},{"id":934840,"name":"Tshaneni","alt":["Tahaneni"],"lon":31.71667,"lat":-25.98333,"pop":1899},{"id":934827,"name":"Usutu","alt":["Usutu Mission"],"lon":31.18333,"lat":-26.58333,"pop":0},{"id":934826,"name":"Verdun","lon":31.4,"lat":-26.85,"pop":0},{"id":934822,"name":"Von Wissel","lon":31.93333,"lat":-26.86667,"pop":0},{"id":11205222,"name":"Vusweni","lon":31.37564,"lat":-25.86711,"pop":0},{"id":7910862,"name":"Vuvulane","lon":31.87672,"lat":-26.07427,"pop":4155}]