[{"id":2368652,"name":"Abagatchi","lon":1.3,"lat":7.46667,"pop":0},{"id":2368651,"name":"Abagnivégoui","lon":1.28333,"lat":6.93333,"pop":0},{"id":2368650,"name":"Abakouandé","alt":["Abakouande"],"lon":1.25,"lat":9.4,"pop":0},{"id":2368649,"name":"Abalakopé","lon":1.13333,"lat":6.98333,"pop":0},{"id":2368648,"name":"Abali","lon":1.28333,"lat":6.81667,"pop":0},{"id":2368647,"name":"Abalo Kakaou","alt":["Abalou-Kakaou"],"lon":1.48333,"lat":8.03333,"pop":0},{"id":2368645,"name":"Abalo Kpélé","lon":1.58333,"lat":7.43333,"pop":0},{"id":2368646,"name":"Abalokopé","lon":1.4,"lat":7.51667,"pop":0},{"id":2368644,"name":"Aban","lon":1.31667,"lat":9.48333,"pop":0},{"id":2368643,"name":"Abanakopé","alt":["Abanakope","Agbokope","Agbokopé"],"lon":1.11667,"lat":7.6,"pop":0},{"id":2368642,"name":"Abassakopé","lon":1.21667,"lat":7.73333,"pop":0},{"id":2368641,"name":"Abatamé","lon":1.65,"lat":6.26667,"pop":0},{"id":2368640,"name":"Abati Kopé","alt":["Abati Kope","Batekope","Batékopé"],"lon":1.53333,"lat":6.21667,"pop":0},{"id":2368639,"name":"Abazikopé","lon":1.03333,"lat":6.51667,"pop":0},{"id":2368637,"name":"Abédinékopé","lon":1.01667,"lat":7.25,"pop":0},{"id":2368636,"name":"Abégba","alt":["Abegba","Abekba","Abékba"],"lon":1.58333,"lat":8.01667,"pop":0},{"id":2368635,"name":"Abékopé","lon":0.98333,"lat":6.71667,"pop":0},{"id":2368634,"name":"Abéssankopé","lon":1.15,"lat":7.36667,"pop":0},{"id":2368633,"name":"Abidikopé","lon":1.01667,"lat":6.55,"pop":0},{"id":2368631,"name":"Abissoukopé","lon":1.13333,"lat":6.98333,"pop":0},{"id":2368629,"name":"Ablamé","lon":0.8,"lat":6.48333,"pop":0},{"id":2368628,"name":"Ablochrhi Kopé","alt":["Ablochrhi Kope","Togble","Togblé"],"lon":1.10167,"lat":6.36694,"pop":0},{"id":2368627,"name":"Ablogamé","alt":["Ablogame"],"lon":1.26333,"lat":6.13444,"pop":0},{"id":2589623,"name":"Ablogbé","lon":1.08472,"lat":6.22111,"pop":0},{"id":2368626,"name":"Abobo","lon":1.37611,"lat":6.23583,"pop":0},{"id":2368625,"name":"Abodji","lon":1.3,"lat":7.38333,"pop":0},{"id":2368624,"name":"Abodjopo","lon":1.16667,"lat":6.85,"pop":0},{"id":2368623,"name":"Abofla Kopé","alt":["Abofla Kope","Kebekope","Kébékopé"],"lon":0.88333,"lat":6.45,"pop":0},{"id":2368622,"name":"Abokoukopé","lon":1.08333,"lat":7.55,"pop":0},{"id":2368621,"name":"Abolégbé","lon":0.93333,"lat":6.5,"pop":0},{"id":2368620,"name":"Abolokopé","lon":1.15,"lat":6.7,"pop":0},{"id":2368619,"name":"Abonakopé","lon":1.13333,"lat":7.05,"pop":0},{"id":2589785,"name":"Aboni Kopé","lon":1.19194,"lat":6.17583,"pop":0},{"id":2368618,"name":"Abonkopé","lon":1.03333,"lat":7.43333,"pop":0},{"id":2368616,"name":"Abossoumkofé","lon":0.63333,"lat":8.11667,"pop":0},{"id":2368615,"name":"Abotéssé","lon":1.2,"lat":7.53333,"pop":0},{"id":2368613,"name":"Aboudiokopé","alt":["Aboudiokope","Aboudyo Kope","Aboudyo Kopé"],"lon":0.71667,"lat":6.65,"pop":0},{"id":2368610,"name":"Abouloukopé","lon":1.21667,"lat":7.33333,"pop":0},{"id":2368609,"name":"Aboundji","lon":1.63333,"lat":7.1,"pop":0},{"id":2368608,"name":"Abréouanko","alt":["Abreouanko","Abrewanko"],"lon":0.6,"lat":7.61667,"pop":0},{"id":2368607,"name":"Abvélébé","alt":["Abvelebe","Avelebe","Avélébé"],"lon":1.01667,"lat":6.61667,"pop":0},{"id":2368605,"name":"Achikopoui","lon":1.61667,"lat":7.08333,"pop":0},{"id":2589796,"name":"Adablai","lon":1.21917,"lat":6.20611,"pop":0},{"id":2368604,"name":"Adabou Kopé","alt":["Adabou Kope","Dabou Kope","Dabou Kopé"],"lon":1.53333,"lat":6.3,"pop":0},{"id":2368603,"name":"Adabyaou","alt":["Adabiam"],"lon":1.6,"lat":6.65,"pop":0},{"id":2368602,"name":"Adafokopé","alt":["Adafokope","Adavo Kope","Adavo Kopé","Dafokope","Dafokopé"],"lon":0.66667,"lat":6.68333,"pop":0},{"id":2368601,"name":"Adagali","lon":0.7,"lat":7.06667,"pop":0},{"id":2368600,"name":"Adakakpé","lon":1.18333,"lat":6.81667,"pop":0},{"id":2368599,"name":"Adakopé","lon":0.8,"lat":6.55,"pop":0},{"id":2368598,"name":"Adakoui","lon":1.3,"lat":6.85,"pop":0},{"id":2589802,"name":"Adakousé","lon":1.21361,"lat":6.17389,"pop":0},{"id":2368597,"name":"Adakpamé","lon":1.28772,"lat":6.17302,"pop":0},{"id":2368596,"name":"Adakpo Kondji","lon":1.48972,"lat":6.36194,"pop":0},{"id":2368591,"name":"Adamé","lon":0.71667,"lat":7.05,"pop":0},{"id":2368592,"name":"Adamé","lon":0.6,"lat":6.98333,"pop":0},{"id":2368593,"name":"Adamé","lon":0.66667,"lat":6.76667,"pop":0},{"id":2368594,"name":"Adamé","lon":1.78333,"lat":6.33333,"pop":0},{"id":2368590,"name":"Adanauara","lon":1.08333,"lat":9.21667,"pop":0},{"id":2368588,"name":"Adangbé","lon":1.3,"lat":6.53333,"pop":0},{"id":2368587,"name":"Adaniabo","alt":["Adamiabo"],"lon":0.98333,"lat":8.2,"pop":0},{"id":2368586,"name":"Adanka","lon":1.16667,"lat":7.25,"pop":0},{"id":2368585,"name":"Adanou","lon":1.26667,"lat":7.4,"pop":0},{"id":2368584,"name":"Adanouvé","lon":1.15,"lat":6.88333,"pop":0},{"id":2368582,"name":"Adaté Kopé","alt":["Adate Kope","Yoto Kope","Yoto Kopé"],"lon":1.33333,"lat":6.73333,"pop":0},{"id":2368581,"name":"Adato","lon":1.18611,"lat":6.435,"pop":0},{"id":2368580,"name":"Adédakopé","lon":1.33333,"lat":7.33333,"pop":0},{"id":2368578,"name":"Adékoé","lon":1.13333,"lat":7.01667,"pop":0},{"id":2589732,"name":"Adékplovi","lon":1.16306,"lat":6.20917,"pop":0},{"id":2368576,"name":"Adéli","lon":1.21667,"lat":7.76667,"pop":0},{"id":2368574,"name":"Adéta","alt":["Adeta"],"lon":0.73333,"lat":7.13333,"pop":0},{"id":2368573,"name":"Adéti-Kopé","lon":1.21583,"lat":6.32306,"pop":0},{"id":2366816,"name":"Adgénou","alt":["Adgenou","Edjanaoue","Edjanaoué"],"lon":1.24556,"lat":6.18472,"pop":0},{"id":2368572,"name":"Adiaboulkoukopé","lon":1.2,"lat":7.33333,"pop":0},{"id":2368570,"name":"Adiakiti","lon":1.56667,"lat":8.05,"pop":0},{"id":2589710,"name":"Adido Gomé","lon":1.16528,"lat":6.17944,"pop":0},{"id":2368568,"name":"Adidogomé","alt":["Adidogome","Togome","Togomé"],"lon":1.6,"lat":6.36667,"pop":0},{"id":2305883,"name":"Adidomé","lon":1.15722,"lat":6.23417,"pop":0},{"id":2589503,"name":"Adidomé","lon":1.30861,"lat":6.23139,"pop":0},{"id":2368567,"name":"Adidovikopé","alt":["Adidovi","Adidovikope","Didovi Kope","Didovi Kopé"],"lon":1.26806,"lat":6.33389,"pop":0},{"id":2368566,"name":"Adiémassikopé","alt":["Adiemasi Kope","Adiemasi Kopé","Adiemassikope"],"lon":0.76667,"lat":6.53333,"pop":0},{"id":2368565,"name":"Adigbli","alt":["Adiblikope","Adiblikopé"],"lon":0.88333,"lat":6.58333,"pop":0},{"id":2368564,"name":"Adigo","lon":1.11667,"lat":7.36667,"pop":0},{"id":2368563,"name":"Adioba","lon":1.58333,"lat":8.25,"pop":0},{"id":2368562,"name":"Adiougbé","lon":0.98333,"lat":8.23333,"pop":0},{"id":2589607,"name":"Adiséou","lon":1.45194,"lat":6.19083,"pop":0},{"id":2368561,"name":"Adiva","lon":1.01667,"lat":7.51667,"pop":0},{"id":2368560,"name":"Adjablékopé","alt":["Adjablekope","Adjiable Kope","Adjiablé Kopé"],"lon":0.98333,"lat":6.65,"pop":0},{"id":2368559,"name":"Adjaboukopé","alt":["Adjaboukope","Azyabou Kope","Azyabou Kopé","Yaboukope","Yaboukopé"],"lon":0.8,"lat":6.6,"pop":0},{"id":2368558,"name":"Adjaché","lon":1.58333,"lat":7.15,"pop":0},{"id":2368557,"name":"Adjadébé","lon":1.06944,"lat":6.26778,"pop":0},{"id":2368556,"name":"Adjahoun","lon":0.91667,"lat":7.48333,"pop":0},{"id":2368555,"name":"Adjaïté","lon":1.01667,"lat":9.93333,"pop":0},{"id":2368554,"name":"Adjakakopé","alt":["Adjakakope","Adzyaka Kope","Adzyaka Kopé","Aziakakope","Aziakakopé"],"lon":0.95,"lat":6.63333,"pop":0},{"id":2368553,"name":"Adjakopé","lon":1.51667,"lat":6.78333,"pop":0},{"id":2589698,"name":"Adjakové","lon":1.1325,"lat":6.20861,"pop":0},{"id":2368551,"name":"Adjakpa","lon":0.81667,"lat":6.65,"pop":0},{"id":2368550,"name":"Adjakpékopé","alt":["Adjakpekope","Ajiakpekope","Ajiakpékopé"],"lon":0.81667,"lat":6.46667,"pop":0},{"id":2368549,"name":"Adjakpodji","alt":["Djabodji"],"lon":0.81667,"lat":7.76667,"pop":0},{"id":2368548,"name":"Adjakpohoué","lon":1.46667,"lat":7.01667,"pop":0},{"id":2368547,"name":"Adjan","lon":1.08333,"lat":7.55,"pop":0},{"id":2368546,"name":"Adjanohoué","lon":1.63333,"lat":7.38333,"pop":0},{"id":2368545,"name":"Adjanouhoué","lon":1.6,"lat":7.48333,"pop":0},{"id":2368544,"name":"Adjaradomé Adjarado","lon":1.55,"lat":7.11667,"pop":0},{"id":2589595,"name":"Adjatogo","lon":1.33861,"lat":6.15917,"pop":0},{"id":2589742,"name":"Adjavi","lon":1.18056,"lat":6.22556,"pop":0},{"id":2589670,"name":"Adjavon","lon":1.22,"lat":6.225,"pop":0},{"id":2368541,"name":"Adjégan Kopé","lon":1.61667,"lat":6.26667,"pop":0},{"id":2368540,"name":"Adjeïdé","alt":["Adjeide","Adjkrede","Adjkrédé","Kirikri","Kjirkjiri","Kri-Kri","Kyiridyiri"],"lon":1.41667,"lat":9.2,"pop":0},{"id":2368539,"name":"Adjényokopé","alt":["Adjegnio Kope","Adjenyokope","Adjégnio Kopé","Djenyo Kope","Djényo Kopé"],"lon":1.53333,"lat":6.55,"pop":0},{"id":2368538,"name":"Adjéouro","lon":1.41667,"lat":9.08333,"pop":0},{"id":2368537,"name":"Adjétakopé","alt":["Adjetakope","Ateta Kope","Atéta Kopé","Djeta Kope","Djeta Kopé"],"lon":1.2,"lat":6.73333,"pop":0},{"id":2368534,"name":"Adjido","lon":1.18333,"lat":7.5,"pop":0},{"id":2368535,"name":"Adjido","lon":1.03333,"lat":6.65,"pop":0},{"id":2368533,"name":"Adjido Déka","lon":1.42889,"lat":6.26444,"pop":0},{"id":2589508,"name":"Adjidomé","lon":1.33056,"lat":6.23194,"pop":0},{"id":2368531,"name":"Adjigémé","lon":1.4,"lat":7.01667,"pop":0},{"id":2368530,"name":"Adjigo","lon":1.31667,"lat":7.58333,"pop":0},{"id":2589584,"name":"Adjigo","lon":1.28194,"lat":6.15028,"pop":0},{"id":2368529,"name":"Adjikamé","lon":1.5,"lat":7.25,"pop":0},{"id":2368528,"name":"Adjira Kopé","lon":1.26222,"lat":6.40861,"pop":0},{"id":2368526,"name":"Adjiré Kouba Kondji","alt":["Adjire Kouba Kondji","Djirikouba"],"lon":1.45,"lat":6.55,"pop":0},{"id":2368527,"name":"Adjirékopé","alt":["Adire Kope","Adiré Kopé","Adjirekope"],"lon":1.43333,"lat":6.53333,"pop":0},{"id":2589702,"name":"Adjivon","lon":1.14806,"lat":6.18917,"pop":0},{"id":2368525,"name":"Adjivou","lon":1.41667,"lat":6.96667,"pop":0},{"id":2368523,"name":"Adjodakopé","lon":1.15,"lat":6.53333,"pop":0},{"id":2368522,"name":"Adjodo","lon":1.5,"lat":7.98333,"pop":0},{"id":2368521,"name":"Adjodogou","alt":["Devego","Dévégo"],"lon":1.58333,"lat":6.33333,"pop":0},{"id":2368520,"name":"Adjoékpa","lon":1.55,"lat":7.93333,"pop":0},{"id":2368519,"name":"Adjogbénouko","lon":1.03333,"lat":6.5,"pop":0},{"id":2589545,"name":"Adjogblé","lon":1.275,"lat":6.185,"pop":0},{"id":2368518,"name":"Adjoguidi","alt":["Adjobeti Kope","Adjobéti Kopé","Adjogidi"],"lon":1.28167,"lat":6.29806,"pop":0},{"id":2368517,"name":"Adjomi","lon":1.21667,"lat":7.55,"pop":0},{"id":2368516,"name":"Adjonikopé","lon":1.1,"lat":6.68333,"pop":0},{"id":2368514,"name":"Adjouga","lon":1.56667,"lat":8.66667,"pop":0},{"id":2589671,"name":"Adjougba","alt":["Adougba"],"lon":1.22611,"lat":6.22444,"pop":0},{"id":2368513,"name":"Adjrhala Kopé","alt":["Adialakope","Adialakopé","Adjrhala Kope"],"lon":1.15,"lat":6.68333,"pop":0},{"id":2368512,"name":"Adképaï Tchokoukon","lon":1.08333,"lat":7.31667,"pop":0},{"id":2368511,"name":"Adogli","lon":1.05,"lat":7.21667,"pop":0},{"id":2589625,"name":"Adokpo","lon":1.08278,"lat":6.21722,"pop":0},{"id":2368509,"name":"Adokpwé","alt":["Adokpoue","Adokpoué","Adokpwe"],"lon":1.18333,"lat":6.63333,"pop":0},{"id":2368508,"name":"Adolokopé","lon":1.25,"lat":7.53333,"pop":0},{"id":2368507,"name":"Adomé","lon":1.11667,"lat":8.05,"pop":0},{"id":2368506,"name":"Adomi Abra","lon":0.76667,"lat":7.41667,"pop":0},{"id":2368504,"name":"Adossa","lon":0.68333,"lat":7.56667,"pop":0},{"id":2368503,"name":"Adoubatou","lon":1.3,"lat":8.05,"pop":0},{"id":2368502,"name":"Adoukbé","lon":0.95,"lat":10.21667,"pop":0},{"id":2368501,"name":"Adoukoué","alt":["Adoukoe","Adoukoue","Adoukoé"],"lon":1.63333,"lat":6.31667,"pop":0},{"id":2368500,"name":"Adoukrom","lon":0.81667,"lat":7.86667,"pop":0},{"id":2368498,"name":"Adourho Kondji","alt":["Atouko Kondji"],"lon":1.51667,"lat":6.35,"pop":0},{"id":2368497,"name":"Adyéna Kondji","lon":1.56667,"lat":6.21667,"pop":0},{"id":2589630,"name":"Adyényénya","lon":1.08306,"lat":6.19306,"pop":0},{"id":2589691,"name":"Aéto","lon":1.11083,"lat":6.17528,"pop":0},{"id":2368496,"name":"Afadadé","lon":1.3,"lat":9.06667,"pop":0},{"id":2368495,"name":"Afadonou","alt":["Afadonou Kondji"],"lon":1.56667,"lat":6.63333,"pop":0},{"id":11395373,"name":"Afagnan","lon":1.44779,"lat":6.218,"pop":0},{"id":2368494,"name":"Afagomé","lon":1.55,"lat":7.93333,"pop":0},{"id":2368493,"name":"Afakodja","lon":1.16667,"lat":7.91667,"pop":0},{"id":2589782,"name":"Afanbo","lon":1.19694,"lat":6.18444,"pop":0},{"id":2589624,"name":"Afangbédji","lon":1.08667,"lat":6.21972,"pop":0},{"id":2589696,"name":"Afangbédji","lon":1.1175,"lat":6.21472,"pop":0},{"id":2368491,"name":"Afanyan Bléta","alt":["Afagnan-Bletta","Afanyan Bleta"],"lon":1.61667,"lat":6.5,"pop":0},{"id":2368490,"name":"Afanyangan","alt":["Afagnagnan","Afangnagan","Afanjaga","Afanya","Afanyá","Afranyanga"],"lon":1.65,"lat":6.48333,"pop":0},{"id":2368489,"name":"Afassani","lon":0.85,"lat":7.3,"pop":0},{"id":2368488,"name":"Afaté","lon":1.21667,"lat":6.51667,"pop":0},{"id":2368487,"name":"Afatodji Kopé","lon":1.46667,"lat":6.35,"pop":0},{"id":2368485,"name":"Afem","lon":1.53333,"lat":9.11667,"pop":0},{"id":2368484,"name":"Afévi","lon":1.36667,"lat":8.03333,"pop":0},{"id":2368483,"name":"Afiadégniba","alt":["Afiadegniba","Afidegnigba","Afidégnigba"],"lon":0.7,"lat":7.3,"pop":0},{"id":2368482,"name":"Afidégniba","lon":0.81667,"lat":7.9,"pop":0},{"id":2368480,"name":"Afidégnigban","alt":["Afidegnigba","Afidegnigban","Afidégnigba"],"lon":1.28333,"lat":7.38333,"pop":0},{"id":2368481,"name":"Afidégnigban","lon":1.25,"lat":7.15,"pop":0},{"id":2368479,"name":"Afidemgha","lon":1.03333,"lat":7.56667,"pop":0},{"id":2368478,"name":"Afidénigba","lon":1.15,"lat":7.58333,"pop":0},{"id":2368477,"name":"Afidénioumba","lon":1.35,"lat":8,"pop":0},{"id":2368476,"name":"Afidényigba","alt":["Afidenigba","Afidenyigba","Afidénigba"],"lon":1.39583,"lat":6.17778,"pop":0},{"id":2368475,"name":"Afidényigban","alt":["Afidegnigban","Afidenyigban","Afidégnigban"],"lon":1.58333,"lat":6.3,"pop":0},{"id":2368473,"name":"Afikopé","lon":1.21667,"lat":7.38333,"pop":0},{"id":2368474,"name":"Afikopé","lon":1.2,"lat":7.38333,"pop":0},{"id":2368472,"name":"Afilahou","lon":1.06667,"lat":7.45,"pop":0},{"id":2368471,"name":"Afitialakofé","lon":1.28333,"lat":8.45,"pop":0},{"id":7909855,"name":"Aflao Gakli","lon":1.1988,"lat":6.17972,"pop":0},{"id":2368467,"name":"Afodi","lon":1.55,"lat":8,"pop":0},{"id":2368466,"name":"Afokponoé","lon":1.05,"lat":6.58333,"pop":0},{"id":2368464,"name":"Afolé","lon":1.35,"lat":7.5,"pop":0},{"id":2368465,"name":"Afolé","lon":1.38333,"lat":7.46667,"pop":0},{"id":2368462,"name":"Afoou","lon":0.93333,"lat":9.45,"pop":0},{"id":2589821,"name":"Afotoudé","lon":1.21861,"lat":6.17667,"pop":0},{"id":2368461,"name":"Afoudenyiban","lon":1.36667,"lat":8.08333,"pop":0},{"id":2368460,"name":"Afoudi","lon":1.21667,"lat":9.38333,"pop":0},{"id":2368458,"name":"Afrotokpoui","alt":["Afrotrokpoui"],"lon":1.6,"lat":7.2,"pop":0},{"id":2368457,"name":"Afwimé","alt":["Afwime","Vo-Afouime"],"lon":1.51667,"lat":6.36667,"pop":0},{"id":2368452,"name":"Agadja","lon":1.16667,"lat":7.73333,"pop":0},{"id":2368453,"name":"Agadja","lon":0.78333,"lat":7.5,"pop":0},{"id":2368454,"name":"Agadja","lon":1.1,"lat":7.43333,"pop":0},{"id":2368455,"name":"Agadja","alt":["Agadia"],"lon":1.06667,"lat":6.63333,"pop":0},{"id":2368451,"name":"Agadjakpé","lon":1.06667,"lat":6.55,"pop":0},{"id":2368450,"name":"Agadjamé","lon":1.16667,"lat":7.23333,"pop":0},{"id":2368449,"name":"Agadji","lon":0.9,"lat":7.45,"pop":0},{"id":2368447,"name":"Agala","lon":1.48333,"lat":8.11667,"pop":0},{"id":2368446,"name":"Agamé","alt":["Agame","Agawe","Agawé"],"lon":0.71667,"lat":7.05,"pop":0},{"id":2368445,"name":"Agan","lon":1.4,"lat":8.11667,"pop":0},{"id":2368444,"name":"Aganho","lon":1.6,"lat":8.06667,"pop":0},{"id":2368443,"name":"Agaradé","alt":["Agarade"],"lon":1.21667,"lat":9.28333,"pop":0},{"id":2368442,"name":"Agave","lon":0.8,"lat":7.23333,"pop":0},{"id":2368438,"name":"Agbadomé","alt":["Agbadome","Agbadoume","Agbadoumé"],"lon":1.08056,"lat":6.42722,"pop":0},{"id":2368437,"name":"Agbafrou","lon":1.26667,"lat":7.65,"pop":0},{"id":2589768,"name":"Agbakou","lon":1.17417,"lat":6.17444,"pop":0},{"id":2368435,"name":"Agbalaho","alt":["Balanbo"],"lon":1.02278,"lat":6.3325,"pop":0},{"id":2368434,"name":"Agbalamé","lon":1.35,"lat":6.41667,"pop":0},{"id":2368433,"name":"Agbalé","lon":0.76667,"lat":8.71667,"pop":0},{"id":2368432,"name":"Agbalé Pédo","alt":["Agbale Pedo","Bale Pedogan","Balé Pédogan"],"lon":1.19611,"lat":6.18833,"pop":0},{"id":10399953,"name":"Agbalepedogan","alt":["Agbalépédogan"],"lon":1.19658,"lat":6.20126,"pop":0},{"id":2368431,"name":"Agbamassoumou","lon":0.61667,"lat":8.63333,"pop":0},{"id":2368428,"name":"Agbanaken","alt":["Agbanakin"],"lon":1.81667,"lat":6.28333,"pop":0},{"id":2589633,"name":"Agbanati","lon":1.10222,"lat":6.24028,"pop":0},{"id":2368427,"name":"Agbandaodé","alt":["Agbandaode"],"lon":1.35,"lat":9.31667,"pop":0},{"id":2368425,"name":"Agbandé","alt":["Agbande"],"lon":1.1,"lat":9.75,"pop":0},{"id":2368426,"name":"Agbandé","alt":["Agbande","Angbande","Angbandé"],"lon":0.95,"lat":9.66667,"pop":0},{"id":2368424,"name":"Agbandi","alt":["Agbadi"],"lon":1.13333,"lat":8.21667,"pop":0},{"id":2368423,"name":"Agbandji","alt":["Akbandi","Badji"],"lon":1.75,"lat":6.45,"pop":0},{"id":2368422,"name":"Agbanho","lon":1.61667,"lat":8.08333,"pop":0},{"id":2368421,"name":"Agbanjaladé","lon":1.35,"lat":9.1,"pop":0},{"id":2368420,"name":"Agbanon","alt":["Agbagho"],"lon":0.8,"lat":7.26667,"pop":0},{"id":2368418,"name":"Agbantokopé","lon":1.53333,"lat":6.23333,"pop":0},{"id":2368416,"name":"Agbaré","lon":1.4,"lat":7.48333,"pop":0},{"id":2368415,"name":"Agbata","lon":1.63333,"lat":7.2,"pop":0},{"id":2368414,"name":"Agbaté Kopé","lon":1.31667,"lat":6.4,"pop":0},{"id":2368413,"name":"Agbati Kopé","lon":1.31667,"lat":6.65,"pop":0},{"id":2368412,"name":"Agbatitoé","lon":1.13333,"lat":7.06667,"pop":0},{"id":2368410,"name":"Agbato","lon":1.35,"lat":7.56667,"pop":0},{"id":2368407,"name":"Agbatopé","lon":11.26667,"lat":6.43333,"pop":0},{"id":2589845,"name":"Agbatopé","lon":1.26306,"lat":6.44333,"pop":0},{"id":2368405,"name":"Agbavé","lon":0.95,"lat":6.91667,"pop":0},{"id":2368406,"name":"Agbavé","lon":0.76667,"lat":6.75,"pop":0},{"id":2589726,"name":"Agbavito","lon":1.14833,"lat":6.22,"pop":0},{"id":2368404,"name":"Agbéavé","lon":1.31667,"lat":7.6,"pop":0},{"id":11381573,"name":"Agbebrafo","lon":1.43088,"lat":6.20771,"pop":0},{"id":2368403,"name":"Agbédépémé","lon":1.56667,"lat":6.45,"pop":0},{"id":2368402,"name":"Agbédévi Kopé","alt":["Agbedevi Kope","Seva Tonou","Séva Tonou"],"lon":1.42222,"lat":6.28389,"pop":0},{"id":2589701,"name":"Agbédinou","lon":1.14833,"lat":6.19583,"pop":0},{"id":2368401,"name":"Agbédjikpo","alt":["Agbedjikpo","Agbetiko","Agbétiko"],"lon":0.73333,"lat":6.9,"pop":0},{"id":2368400,"name":"Agbédjipé","lon":0.81667,"lat":7.85,"pop":0},{"id":2368399,"name":"Agbédomodji","lon":1.1,"lat":7.43333,"pop":0},{"id":2368398,"name":"Agbéléou","lon":1.4,"lat":8.08333,"pop":0},{"id":2589653,"name":"Agbéli","lon":1.16306,"lat":6.24694,"pop":0},{"id":2368397,"name":"Agbélouvé","lon":1.16667,"lat":6.66667,"pop":0},{"id":2589715,"name":"Agbéménya","lon":1.12833,"lat":6.16806,"pop":0},{"id":2368394,"name":"Agbéninou","lon":1.06667,"lat":8.15,"pop":0},{"id":2589797,"name":"Agbénouvon","lon":1.22306,"lat":6.20889,"pop":0},{"id":2589820,"name":"Agbénya","lon":1.21667,"lat":6.18056,"pop":0},{"id":2589577,"name":"Agbésitonou","lon":1.49361,"lat":6.22139,"pop":0},{"id":2368393,"name":"Agbessia","alt":["Agbesia","Agbésia"],"lon":0.91667,"lat":6.56667,"pop":0},{"id":2368392,"name":"Agbéssia","lon":0.66667,"lat":6.88333,"pop":0},{"id":2589738,"name":"Agbétchafan","lon":1.16972,"lat":6.22028,"pop":0},{"id":2589800,"name":"Agbétchafan","lon":1.24778,"lat":6.20556,"pop":0},{"id":2368391,"name":"Agbétiko","lon":1.71667,"lat":6.5,"pop":0},{"id":2368390,"name":"Agbétime","alt":["Agbetim","Agbetime","Agbétim"],"lon":1.06667,"lat":6.6,"pop":0},{"id":2368389,"name":"Agbétyafan","lon":1.26444,"lat":6.14722,"pop":0},{"id":2589692,"name":"Agbévé","lon":1.09694,"lat":6.17,"pop":0},{"id":2589747,"name":"Agbézoudo","lon":1.16944,"lat":6.20861,"pop":0},{"id":2589789,"name":"Agbézourhlan","lon":1.225,"lat":6.21944,"pop":0},{"id":2368388,"name":"Agbladomé","lon":0.75,"lat":6.86667,"pop":0},{"id":2368386,"name":"Agblédo","alt":["Abledo","Ablédo","Agbledo"],"lon":0.96667,"lat":6.55,"pop":0},{"id":2589665,"name":"Agbo","lon":1.20139,"lat":6.24806,"pop":0},{"id":2589676,"name":"Agbo","lon":1.09611,"lat":6.21639,"pop":0},{"id":2589713,"name":"Agbo Akounou","lon":1.11972,"lat":6.1775,"pop":0},{"id":2589722,"name":"Agboba","lon":1.14167,"lat":6.22333,"pop":0},{"id":2368383,"name":"Agbobolo","lon":1,"lat":7.3,"pop":0},{"id":2589568,"name":"Agbodan","lon":1.41417,"lat":6.20667,"pop":0},{"id":2589688,"name":"Agbodinou","lon":1.10778,"lat":6.17861,"pop":0},{"id":2589654,"name":"Agbodjalo","lon":1.16333,"lat":6.24556,"pop":0},{"id":2368382,"name":"Agbodjekpo","lon":1.01667,"lat":6.83333,"pop":0},{"id":2368381,"name":"Agbodjékpwé","alt":["Agbodjekpoui","Agbodjekpwe"],"lon":1.15,"lat":6.65,"pop":0},{"id":2368380,"name":"Agbodjrovi","lon":1.16667,"lat":7.43333,"pop":0},{"id":2589543,"name":"Agbodo","lon":1.25667,"lat":6.20194,"pop":0},{"id":2368376,"name":"Agbodrafo","lon":1.41667,"lat":8.08333,"pop":0},{"id":2368377,"name":"Agbodrafo","lon":1.48333,"lat":6.68333,"pop":0},{"id":2368378,"name":"Agbodrafo","alt":["Agbedrafo","Agbodrafo (Porto-Seguro)","Agbodrafo (Porto-Séguro)","Porto-Segouro","Porto-Seguro","Porto-Séguro"],"lon":1.47889,"lat":6.20139,"pop":0},{"id":2368375,"name":"Agbofakopé","lon":0.78333,"lat":6.58333,"pop":0},{"id":2368374,"name":"Agbofon","lon":1.13333,"lat":7.5,"pop":0},{"id":2368372,"name":"Agbokopé","lon":0.66667,"lat":7.43333,"pop":0},{"id":2368371,"name":"Agbokoro","lon":1.2,"lat":7.43333,"pop":0},{"id":11395511,"name":"Agbokpa","lon":1.58461,"lat":7.09595,"pop":0},{"id":2368369,"name":"Agbolokopé","lon":1,"lat":6.8,"pop":0},{"id":2368368,"name":"Agbonagban","lon":1.53333,"lat":6.33333,"pop":0},{"id":2589680,"name":"Agbonaglé","lon":1.10861,"lat":6.20722,"pop":0},{"id":2368367,"name":"Agbondji","lon":1.61667,"lat":7.06667,"pop":0},{"id":2368366,"name":"Agbonou","lon":1.15,"lat":7.51667,"pop":0},{"id":2589597,"name":"Agbosè","lon":1.34556,"lat":6.16194,"pop":0},{"id":2368364,"name":"Agbota","lon":1.61667,"lat":7.86667,"pop":0},{"id":2589730,"name":"Agbotamé","lon":1.16583,"lat":6.21444,"pop":0},{"id":2368363,"name":"Agbouto Kopé","lon":1.25,"lat":6.68333,"pop":0},{"id":2368362,"name":"Agbozomé","lon":1.63333,"lat":6.36667,"pop":0},{"id":2368361,"name":"Agdgomé","lon":1.63333,"lat":7.35,"pop":0},{"id":2589754,"name":"Aglago","lon":1.1875,"lat":6.20583,"pop":0},{"id":2368360,"name":"Aglagokopé","lon":0.78333,"lat":6.63333,"pop":0},{"id":2589780,"name":"Aglali","lon":1.20472,"lat":6.19472,"pop":0},{"id":2368359,"name":"Aglamarhoé","lon":1.6,"lat":7.06667,"pop":0},{"id":2368358,"name":"Aglami","alt":["Glami Kope","Glami Kopé"],"lon":1.28056,"lat":6.17194,"pop":0},{"id":2368357,"name":"Aglénosihoué","lon":1.55,"lat":6.75,"pop":0},{"id":2368355,"name":"Agligbé","lon":1.11667,"lat":6.63333,"pop":0},{"id":2368354,"name":"Agligo","lon":1.07806,"lat":6.30667,"pop":0},{"id":2368353,"name":"Aglomé","lon":1.51667,"lat":6.2,"pop":0},{"id":2368352,"name":"Aglomedji","lon":1.63333,"lat":6.28333,"pop":0},{"id":2368351,"name":"Agnibé","lon":0.71667,"lat":6.76667,"pop":0},{"id":2368350,"name":"Agnikoé","lon":1.06667,"lat":6.98333,"pop":0},{"id":2368348,"name":"Agnougbaté","lon":1.15,"lat":7.93333,"pop":0},{"id":2368346,"name":"Agnrokopé","alt":["Agnrokope","Agnronkope","Agnronkopé","Anyro Kope","Anyro Kopé"],"lon":1.56667,"lat":6.26667,"pop":0},{"id":2368345,"name":"Agnron","alt":["Agnoron","Anyron"],"lon":0.98333,"lat":6.51667,"pop":0},{"id":2368343,"name":"Agobaba","lon":0.88333,"lat":6.61667,"pop":0},{"id":11395510,"name":"Agobokpa","lon":1.58461,"lat":7.09595,"pop":0},{"id":2368341,"name":"Agodéka","lon":0.96667,"lat":8.15,"pop":0},{"id":2368342,"name":"Agodéka","alt":["Agodeka","Agorika"],"lon":1.33333,"lat":8.06667,"pop":0},{"id":2368340,"name":"Agodéké","lon":1.36278,"lat":6.17694,"pop":0},{"id":2589534,"name":"Agodéké","lon":1.49694,"lat":6.24167,"pop":0},{"id":2368339,"name":"Agodjololo","lon":1.18333,"lat":7.86667,"pop":0},{"id":2368338,"name":"Agodomé","alt":["Agodome","Agorome","Agoromé"],"lon":0.83333,"lat":6.46667,"pop":0},{"id":2368337,"name":"Agodoukopé","lon":1.05,"lat":6.56667,"pop":0},{"id":11395393,"name":"Agoè","lon":1.21502,"lat":6.23193,"pop":0},{"id":2589573,"name":"Agogoudjou","lon":1.43056,"lat":6.21167,"pop":0},{"id":2368336,"name":"Agokopé","lon":0.98333,"lat":6.7,"pop":0},{"id":2368335,"name":"Agokpamé","alt":["Agogpame","Agogpamé","Agokpame"],"lon":1.65,"lat":6.25,"pop":0},{"id":2368334,"name":"Agokpé","lon":1.06667,"lat":6.68333,"pop":0},{"id":2368333,"name":"Agokplamé","lon":0.86667,"lat":6.83333,"pop":0},{"id":2368331,"name":"Agokpo","lon":1.41667,"lat":6.98333,"pop":0},{"id":2368332,"name":"Agokpo","lon":1.08333,"lat":6.9,"pop":0},{"id":2368330,"name":"Agokpwé","alt":["Agokpe","Agokpwe","Agokpé"],"lon":1.1,"lat":6.56667,"pop":0},{"id":2589669,"name":"Agokpwi","lon":1.2175,"lat":6.22694,"pop":0},{"id":2368328,"name":"Agomé","alt":["Agome","Azome"],"lon":1.34528,"lat":6.33667,"pop":0},{"id":2368327,"name":"Agomé Glozou","lon":1.66667,"lat":6.55,"pop":0},{"id":2368326,"name":"Agomé Kotoukpa","alt":["Agame-Koutoukapa","Agome Kotoukpa","Agome-Kotukpa","Agomé-Kotukpa","Koutoukpa"],"lon":0.98333,"lat":7.51667,"pop":0},{"id":2368324,"name":"Agomé Séva","lon":1.73333,"lat":6.46667,"pop":0},{"id":2368325,"name":"Agomékpota","lon":1.43028,"lat":6.23111,"pop":0},{"id":2368323,"name":"Agomonigbé","lon":0.75,"lat":6.55,"pop":0},{"id":2368322,"name":"Agoniokopé","alt":["Agoniokope","Agonyo Kope","Agonyo Kopé"],"lon":0.9,"lat":6.6,"pop":0},{"id":2368321,"name":"Agonpala","lon":0.93333,"lat":6.76667,"pop":0},{"id":2368320,"name":"Agoponou","lon":1.4875,"lat":6.4675,"pop":0},{"id":2368315,"name":"Agoréké","lon":0.86667,"lat":7.26667,"pop":0},{"id":2368316,"name":"Agoréké","lon":0.88333,"lat":7.25,"pop":0},{"id":2368317,"name":"Agoréké","lon":0.75,"lat":7.05,"pop":0},{"id":2368318,"name":"Agoréké","lon":1.03333,"lat":6.51667,"pop":0},{"id":2368319,"name":"Agoréké","lon":1.1,"lat":6.46667,"pop":0},{"id":2368314,"name":"Agorké","lon":0.98333,"lat":6.98333,"pop":0},{"id":2368312,"name":"Agoromé","alt":["Agohoume","Agohoumé","Agorome"],"lon":0.75,"lat":6.61667,"pop":0},{"id":2368311,"name":"Agossito","alt":["Agosito"],"lon":1.18694,"lat":6.29083,"pop":0},{"id":2368310,"name":"Agoté","lon":0.8,"lat":7.25,"pop":0},{"id":2368309,"name":"Agotévi","lon":0.8,"lat":7.25,"pop":0},{"id":2368307,"name":"Agotimé","lon":0.88333,"lat":6.65,"pop":0},{"id":2368308,"name":"Agotimé","lon":1,"lat":6.51667,"pop":0},{"id":2368306,"name":"Agotimé Kpodjaho","lon":0.68333,"lat":6.61667,"pop":0},{"id":2368304,"name":"Agoto","lon":1.21667,"lat":7.21667,"pop":0},{"id":2368305,"name":"Agoto","lon":1.35,"lat":6.83333,"pop":0},{"id":2368302,"name":"Agotové","lon":1.15,"lat":6.88333,"pop":0},{"id":2368301,"name":"Agou Gadzépé","alt":["Agou","Agou Gadzepe","Agou-Nyongbo"],"lon":0.73333,"lat":6.88333,"pop":0},{"id":2368284,"name":"Agou Iboé","alt":["Agou Iboe","Ibo"],"lon":0.78333,"lat":6.88333,"pop":0},{"id":2368268,"name":"Agou Tomegbé","alt":["Agou Tomegbe","Tomegbe","Tomegbé"],"lon":0.73333,"lat":6.85,"pop":0},{"id":2368286,"name":"Agou-Gare","lon":0.71667,"lat":6.85,"pop":0},{"id":2368297,"name":"Agouam Yo","alt":["Yo"],"lon":0.6,"lat":6.95,"pop":0},{"id":2368296,"name":"Agouanta","lon":1.35,"lat":7.38333,"pop":0},{"id":2368294,"name":"Agoudévé","lon":1.06667,"lat":7.76667,"pop":0},{"id":2368295,"name":"Agoudévé","lon":1.08333,"lat":7.56667,"pop":0},{"id":2368293,"name":"Agoudja Badja","alt":["Agoudiabadja","Agoudja"],"lon":1,"lat":6.4,"pop":0},{"id":2368292,"name":"Agoudoukpé","lon":1.03333,"lat":6.4,"pop":0},{"id":2368291,"name":"Agoudouvou","lon":0.76667,"lat":6.56667,"pop":0},{"id":2368290,"name":"Agoué","lon":1.21667,"lat":6.2,"pop":0},{"id":2368288,"name":"Agoué Kopé","alt":["Agoue","Agoue Kope","Agoué"],"lon":0.83333,"lat":6.75,"pop":0},{"id":2368289,"name":"Agouébou","alt":["Agouebou"],"lon":1.13333,"lat":9.33333,"pop":0},{"id":11205313,"name":"Agouenyive","lon":1.19991,"lat":6.23602,"pop":0},{"id":2368287,"name":"Agouévé","lon":1.21667,"lat":6.23333,"pop":0},{"id":2368283,"name":"Agoukpoéta","lon":0.63333,"lat":6.8,"pop":0},{"id":2368282,"name":"Agoulou","alt":["Agoutou","Bayakou","Beiaku","Béïaku"],"lon":1.31667,"lat":9.11667,"pop":0},{"id":2368279,"name":"Agoumana","lon":1.5,"lat":8.51667,"pop":0},{"id":2368275,"name":"Agoumé","alt":["Agoume","Kouma"],"lon":1.6,"lat":6.35,"pop":0},{"id":2368276,"name":"Agoumé","lon":1.6,"lat":6.26667,"pop":0},{"id":2368273,"name":"Agouna Dévé","lon":1.63333,"lat":7.51667,"pop":0},{"id":2368272,"name":"Agoundé","alt":["Agounde"],"lon":0.91667,"lat":9.81667,"pop":0},{"id":2368270,"name":"Agouné","lon":1.16667,"lat":7.66667,"pop":0},{"id":2368271,"name":"Agouné","lon":1.16667,"lat":7.63333,"pop":0},{"id":2368269,"name":"Agouté","lon":1.25278,"lat":6.31806,"pop":0},{"id":2368265,"name":"Agové","lon":0.98333,"lat":6.33333,"pop":0},{"id":2368262,"name":"Agpaïdo","lon":1.21667,"lat":7.08333,"pop":0},{"id":2368261,"name":"Agripakopé","lon":0.63333,"lat":6.8,"pop":0},{"id":2368260,"name":"Agrougbé","lon":1.6,"lat":7.15,"pop":0},{"id":2368259,"name":"Aguéloufé","lon":1.26667,"lat":6.96667,"pop":0},{"id":2368258,"name":"Aguidagbadé","lon":1.28333,"lat":9.01667,"pop":0},{"id":2368257,"name":"Agwégan","alt":["Agouegan","Agouégan","Agwegan"],"lon":1.68333,"lat":6.26667,"pop":0},{"id":2368256,"name":"Ahassomé","lon":1.5,"lat":7.23333,"pop":0},{"id":2368254,"name":"Ahépé","alt":["Ahepe","Ahepe Asiko","Ahépé Asiko"],"lon":1.4,"lat":6.6,"pop":0},{"id":2368253,"name":"Ahépé Agbléta","alt":["Ahepe Agbleta","Ahepe Agbletta","Ahépé Agbletta"],"lon":1.41667,"lat":6.6,"pop":0},{"id":2368252,"name":"Ahépé Akposso","alt":["Ahepe Akposo","Ahepe Akposso","Ahépé Akposo"],"lon":1.38333,"lat":6.6,"pop":0},{"id":2368251,"name":"Ahépé Assiko","lon":1.4,"lat":6.6,"pop":0},{"id":2368250,"name":"Ahépé Kpoula","alt":["Ahepe Kpoula","Ahepe-Kpooula","Ahépé-Kpooula"],"lon":1.4,"lat":6.58333,"pop":0},{"id":2368249,"name":"Ahépé Nouatché","alt":["Ahepe Nouatche","Ahepe Nuatche","Ahépé Nuatché"],"lon":1.38333,"lat":6.58333,"pop":0},{"id":2368248,"name":"Ahépé Pokli","lon":1.38333,"lat":6.6,"pop":0},{"id":2368247,"name":"Ahépé Rhekpoui","alt":["Ahepe Hekpoui","Ahepe Rhekpoui","Ahépé Hekpoui"],"lon":1.4,"lat":6.61667,"pop":0},{"id":2368246,"name":"Ahion","lon":1.48333,"lat":7,"pop":0},{"id":2368244,"name":"Aholoukopé","lon":1.08333,"lat":6.56667,"pop":0},{"id":2368243,"name":"Ahomma Gligohoué","lon":1.58333,"lat":7.46667,"pop":0},{"id":2368242,"name":"Ahomma Kpélé","lon":1.6,"lat":7.45,"pop":0},{"id":2368241,"name":"Ahonéssipé","lon":1.3,"lat":7.05,"pop":0},{"id":2368240,"name":"Ahotokopé","lon":0.85,"lat":6.41667,"pop":0},{"id":2368238,"name":"Ahoué Houé","lon":0.6,"lat":7.56667,"pop":0},{"id":2368237,"name":"Ahoundjo","lon":0.65,"lat":6.86667,"pop":0},{"id":2368236,"name":"Ahuizimé","lon":1.55,"lat":7.26667,"pop":0},{"id":2368235,"name":"Aiaokopé","lon":1.05,"lat":7.45,"pop":0},{"id":2589816,"name":"Aidé","lon":1.21528,"lat":6.185,"pop":0},{"id":2368233,"name":"Aïnakopé","lon":1.21667,"lat":7.68333,"pop":0},{"id":2589531,"name":"Aisou","lon":1.49278,"lat":6.24361,"pop":0},{"id":2368232,"name":"Aissaoui","lon":1.48333,"lat":7.31667,"pop":0},{"id":2368229,"name":"Aka","lon":0.66667,"lat":7.81667,"pop":0},{"id":2368226,"name":"Akaba","lon":1.05,"lat":7.95,"pop":0},{"id":2368225,"name":"Akaba Kabrè","alt":["Akaba Kabre","Akabacabrais","Akabakabrais"],"lon":1.05,"lat":7.93333,"pop":0},{"id":2368224,"name":"Akabasim","alt":["Akabazim"],"lon":1.11667,"lat":7.81667,"pop":0},{"id":2368223,"name":"Akabavi","lon":1.05,"lat":7.93333,"pop":0},{"id":2366282,"name":"Akadiamé","alt":["Akadiame","Kadiame","Kadiamé"],"lon":1.3375,"lat":6.32778,"pop":0},{"id":2368222,"name":"Akakahonhon","lon":1.6,"lat":8.03333,"pop":0},{"id":2368221,"name":"Akakaï","lon":1.33333,"lat":7.43333,"pop":0},{"id":2368219,"name":"Akaké","lon":1.11667,"lat":6.96667,"pop":0},{"id":2368218,"name":"Akaképo","lon":1.4,"lat":7.08333,"pop":0},{"id":2589512,"name":"Akakpo","lon":1.34889,"lat":6.21056,"pop":0},{"id":2589661,"name":"Akakpo","lon":1.17778,"lat":6.23667,"pop":0},{"id":2368215,"name":"Akakpo Kopé","lon":1.6,"lat":6.35,"pop":0},{"id":2368217,"name":"Akakpodjé","lon":1,"lat":6.81667,"pop":0},{"id":2368216,"name":"Akakpoé","alt":["Akakble","Akakblé","Akakpoe"],"lon":0.9,"lat":6.51667,"pop":0},{"id":2368214,"name":"Akalédé","alt":["Akalede"],"lon":0.93333,"lat":9.43333,"pop":0},{"id":2368213,"name":"Akalokopé","lon":1.1,"lat":7.08333,"pop":0},{"id":2368211,"name":"Akapokopé","lon":1.18333,"lat":7.91667,"pop":0},{"id":2368212,"name":"Akapokopé","lon":1.08333,"lat":7.83333,"pop":0},{"id":2368210,"name":"Akaré","alt":["Akare"],"lon":0.88333,"lat":9.71667,"pop":0},{"id":2368208,"name":"Akatchang","alt":["Akatchan"],"lon":1.45917,"lat":6.43083,"pop":0},{"id":2368205,"name":"Akato Avoémé","alt":["Akato","Akato Aveme","Akato Avemé","Akato Avoeme"],"lon":1.09194,"lat":6.19028,"pop":0},{"id":2368204,"name":"Akato Viépé","alt":["Akato","Akato Viepe","Akato Vyepe","Akato Vyépé"],"lon":1.1,"lat":6.1725,"pop":0},{"id":2589863,"name":"Akbodia Kondj","lon":1.49167,"lat":6.36722,"pop":0},{"id":2368201,"name":"Akboéssoukopé","lon":1.23333,"lat":7.36667,"pop":0},{"id":2368200,"name":"Aké","lon":0.96667,"lat":6.75,"pop":0},{"id":2368199,"name":"Aképé","lon":1.05611,"lat":6.2375,"pop":0},{"id":2368198,"name":"Aképé Dzogbépimé","lon":1.04972,"lat":6.24389,"pop":0},{"id":2368197,"name":"Akéta","alt":["Aketa"],"lon":0.98333,"lat":9.25,"pop":0},{"id":2368196,"name":"Akétohoin","alt":["Aketchom","Aketohoin","Akétchom"],"lon":1.43333,"lat":6.95,"pop":0},{"id":2368195,"name":"Aki","alt":["Atti"],"lon":0.86667,"lat":6.55,"pop":0},{"id":2368194,"name":"Akiafé","lon":0.83333,"lat":7.73333,"pop":0},{"id":2368193,"name":"Akiafé Hohoué","lon":0.83333,"lat":7.73333,"pop":0},{"id":2368192,"name":"Akinda","lon":0.96667,"lat":9.61667,"pop":0},{"id":2368191,"name":"Akladjénou","lon":1.61667,"lat":6.6,"pop":0},{"id":2368190,"name":"Aklakou","alt":["Aklakougan","Aklaku"],"lon":1.71667,"lat":6.33333,"pop":0},{"id":2368189,"name":"Aklakou Etchavi","alt":["Hedschawi"],"lon":1.71667,"lat":6.35,"pop":0},{"id":2368188,"name":"Aklakou Molokou","lon":1.71667,"lat":6.35,"pop":0},{"id":2589837,"name":"Ako","lon":1.22278,"lat":6.15667,"pop":0},{"id":2368187,"name":"Akoda","lon":1.55,"lat":6.25,"pop":0},{"id":2589582,"name":"Akodéséwa","lon":1.26778,"lat":6.15,"pop":0},{"id":11382760,"name":"Akodessewa","lon":1.26592,"lat":6.16453,"pop":0},{"id":2368186,"name":"Akodésséwa","alt":["Akode Seva","Akodesea","Akodessea","Akodessewa","Akodé Séva","Akodésséa","Akodéséa"],"lon":1.39639,"lat":6.33944,"pop":0},{"id":2589792,"name":"Akoé","lon":1.21444,"lat":6.21556,"pop":0},{"id":2368183,"name":"Akoli Kopé","alt":["Akoli Kope","Alikope","Alikopé"],"lon":1.05,"lat":6.68333,"pop":0},{"id":2368182,"name":"Akolochi","lon":1.61667,"lat":7.16667,"pop":0},{"id":2368179,"name":"Akominékopé","lon":0.85,"lat":7.68333,"pop":0},{"id":2368178,"name":"Akomomboua","alt":["Akomommboua"],"lon":0.86667,"lat":9.63333,"pop":0},{"id":2368176,"name":"Akonda Kondji","lon":1.55,"lat":6.65,"pop":0},{"id":2368174,"name":"Akopé","lon":1.11667,"lat":7.01667,"pop":0},{"id":2368173,"name":"Akossikopé","lon":1.05,"lat":7.48333,"pop":0},{"id":2368172,"name":"Akotéa","lon":1.26667,"lat":7.45,"pop":0},{"id":2368169,"name":"Akoua","lon":1.43333,"lat":9.05,"pop":0},{"id":2368166,"name":"Akoublé","lon":1.23333,"lat":8.11667,"pop":0},{"id":2368165,"name":"Akouékpé","lon":1.15,"lat":7.41667,"pop":0},{"id":2368164,"name":"Akoumahou","lon":0.73333,"lat":6.85,"pop":0},{"id":2368163,"name":"Akoumapé","lon":1.44972,"lat":6.38722,"pop":0},{"id":2368161,"name":"Akoura","lon":0.66667,"lat":10.53333,"pop":0},{"id":2368162,"name":"Akoura","lon":0.9,"lat":8.26667,"pop":0},{"id":2589520,"name":"Akousé","lon":1.37111,"lat":6.22778,"pop":0},{"id":2368159,"name":"Akoutchobli","lon":1.16667,"lat":7.46667,"pop":0},{"id":2368158,"name":"Akoutia","lon":1.31667,"lat":9.38333,"pop":0},{"id":2368156,"name":"Akoutsavé","alt":["Akoutsave","Koutsave","Koutsavé"],"lon":0.91667,"lat":6.55,"pop":0},{"id":2589612,"name":"Akpa","lon":1.06111,"lat":6.24389,"pop":0},{"id":2368154,"name":"Akpafia","lon":1.13333,"lat":6.53333,"pop":0},{"id":2368153,"name":"Akpahonou","lon":1.51667,"lat":6.4,"pop":0},{"id":2368151,"name":"Akpaka","lon":1.2,"lat":7.58333,"pop":0},{"id":2368152,"name":"Akpaka","lon":1.2,"lat":7.51667,"pop":0},{"id":2368150,"name":"Akpaka Sagada","lon":1.46667,"lat":7.06667,"pop":0},{"id":2368149,"name":"Akpakikopé","lon":1.06667,"lat":7.26667,"pop":0},{"id":2368147,"name":"Akpakopé","lon":1.21667,"lat":7.61667,"pop":0},{"id":2368148,"name":"Akpakopé","lon":1.25,"lat":7.43333,"pop":0},{"id":2368146,"name":"Akpaloukopé","lon":0.78333,"lat":6.61667,"pop":0},{"id":2368144,"name":"Akpanté","alt":["Akpante"],"lon":0.98333,"lat":9.71667,"pop":0},{"id":2368143,"name":"Akparé","lon":1.33333,"lat":7.46667,"pop":0},{"id":2368140,"name":"Akpavou","alt":["Kpavou"],"lon":0.7,"lat":6.6,"pop":0},{"id":2589662,"name":"Akpla Albo","lon":1.19083,"lat":6.24111,"pop":0},{"id":2368138,"name":"Akplagassoukopé","alt":["Akplagasou Kope","Akplagasou Kopé","Akplagassoukope","Kplagassou Kope","Kplagassou Kopé"],"lon":1.5,"lat":6.63333,"pop":0},{"id":2368137,"name":"Akplolowogboé","lon":0.76667,"lat":6.88333,"pop":0},{"id":2368136,"name":"Akpodé","lon":1.36667,"lat":9.11667,"pop":0},{"id":2368135,"name":"Akpoissou","lon":0.41667,"lat":10.4,"pop":0},{"id":2368134,"name":"Akpokli","lon":0.71667,"lat":7.06667,"pop":0},{"id":2368133,"name":"Akpontè","lon":0.95,"lat":9.93333,"pop":0},{"id":2368131,"name":"Akpouta Kopé","lon":1.71667,"lat":6.25,"pop":0},{"id":2368130,"name":"Akroa","lon":0.6,"lat":7.51667,"pop":0},{"id":2368129,"name":"Akuikamé","lon":1.26667,"lat":6.16667,"pop":0},{"id":2368128,"name":"Akwadoudjé","lon":1.61667,"lat":6.46667,"pop":0},{"id":2368127,"name":"Akwen","alt":["Akoin"],"lon":1.19556,"lat":6.26917,"pop":0},{"id":2368126,"name":"Akwéta Kpégan","lon":1.6,"lat":6.3,"pop":0},{"id":2589791,"name":"Ala","lon":1.21194,"lat":6.21,"pop":0},{"id":2368125,"name":"Aladjové","lon":1.41667,"lat":7,"pop":0},{"id":2368124,"name":"Alagbamé","lon":1.61667,"lat":7.13333,"pop":0},{"id":2589580,"name":"Alagbo","lon":1.25861,"lat":6.14083,"pop":0},{"id":2368123,"name":"Alaglo Kopé","alt":["Alaglo","Alaglo Kope"],"lon":1.29333,"lat":6.24722,"pop":0},{"id":2368121,"name":"Alakopé","lon":1.48333,"lat":8.08333,"pop":0},{"id":2589695,"name":"Alakopé","lon":1.12,"lat":6.21667,"pop":0},{"id":2368120,"name":"Alakoyo","lon":1.2,"lat":7.48333,"pop":0},{"id":2368119,"name":"Alakpa Kopé","alt":["Alakpa","Alakpa Kope"],"lon":0.95,"lat":6.63333,"pop":0},{"id":2368118,"name":"Alalé","lon":1.4,"lat":7.6,"pop":0},{"id":2368116,"name":"Alamassou","lon":1.25,"lat":7.68333,"pop":0},{"id":2368115,"name":"Alaogbé","alt":["Alagbe","Alagbé","Alaogbe","Avalagbe","Avalagbé"],"lon":0.86667,"lat":6.36667,"pop":0},{"id":2368114,"name":"Alaousso","lon":0.91667,"lat":7.73333,"pop":0},{"id":2368112,"name":"Alati","lon":1.05,"lat":7.03333,"pop":0},{"id":2368113,"name":"Alati","alt":["Latime"],"lon":1.08333,"lat":7,"pop":0},{"id":2368110,"name":"Alavanio","lon":0.7,"lat":7.7,"pop":0},{"id":2368109,"name":"Alédjamé","alt":["Aledjame"],"lon":1.35,"lat":9.38333,"pop":0},{"id":2368108,"name":"Alédji","lon":1.3,"lat":6.96667,"pop":0},{"id":2368106,"name":"Alédjo Kadara","alt":["Aledjo Kadara"],"lon":1.2,"lat":9.25,"pop":0},{"id":2368105,"name":"Aléhéridé","alt":["Aleheride"],"lon":1.2,"lat":9.21667,"pop":0},{"id":2368104,"name":"Alemandé","alt":["Alemande"],"lon":1.35,"lat":9.71667,"pop":0},{"id":2368103,"name":"Alembonda","lon":1.21667,"lat":9.53333,"pop":0},{"id":2368102,"name":"Alémodji","lon":1.21667,"lat":7.95,"pop":0},{"id":2368098,"name":"Ali Kodji","lon":0.81667,"lat":6.75,"pop":0},{"id":2368101,"name":"Aliandé","alt":["Aliande"],"lon":0.98333,"lat":9.81667,"pop":0},{"id":2368100,"name":"Alibi","lon":1.41667,"lat":8.95,"pop":0},{"id":2368099,"name":"Alidounpo","lon":0.68333,"lat":9.4,"pop":0},{"id":2368096,"name":"Alikopé","lon":1.23333,"lat":6.96667,"pop":0},{"id":2368097,"name":"Alikopé","alt":["Ali","Alikope"],"lon":1.23639,"lat":6.21972,"pop":0},{"id":2368094,"name":"Alinka","alt":["Alinnki"],"lon":1.17861,"lat":6.27333,"pop":0},{"id":2368093,"name":"Alisoumkopé","lon":1.08333,"lat":7.08333,"pop":0},{"id":2368092,"name":"Allou","lon":1.6,"lat":7.15,"pop":0},{"id":2589756,"name":"Aloé","lon":1.19778,"lat":6.22083,"pop":0},{"id":11380140,"name":"Alogavi","lon":1.39063,"lat":6.18928,"pop":0},{"id":2368089,"name":"Alogbalé Kopé","lon":1.3,"lat":6.68333,"pop":0},{"id":2589619,"name":"Alokénou","lon":1.07722,"lat":6.24306,"pop":0},{"id":2368088,"name":"Alokodjé","lon":1.1,"lat":7.81667,"pop":0},{"id":2368087,"name":"Alokoégbé","lon":1.08222,"lat":6.43528,"pop":0},{"id":2368086,"name":"Alokopé","lon":0.78333,"lat":7.1,"pop":0},{"id":2368085,"name":"Alokouévé","lon":1.26667,"lat":6.98333,"pop":0},{"id":2368084,"name":"Alokpa","alt":["Atiakope","Atiakopé"],"lon":0.76667,"lat":6.5,"pop":0},{"id":2368082,"name":"Alomanié","lon":1.1,"lat":8.13333,"pop":0},{"id":2368080,"name":"Alouénou","lon":1.66667,"lat":6.53333,"pop":0},{"id":2368079,"name":"Aloufakopé","lon":1.33333,"lat":7.8,"pop":0},{"id":2368078,"name":"Aloum","alt":["Aloun"],"lon":0.98889,"lat":9.73889,"pop":0},{"id":2368077,"name":"Aloumboukou","lon":1.3,"lat":9.7,"pop":0},{"id":2368076,"name":"Alouméré","alt":["Aloumere"],"lon":1.23333,"lat":9.95,"pop":0},{"id":2368074,"name":"Alovitoké","alt":["Alovikote","Alovikoté","Alovitoke","Atovikote","Atovikoté"],"lon":1.58333,"lat":7.03333,"pop":0},{"id":2368073,"name":"Aloyi","lon":1.01667,"lat":6.66667,"pop":0},{"id":2368072,"name":"Amadjikakopé","lon":1.16667,"lat":7,"pop":0},{"id":2368071,"name":"Amadou","lon":1.68333,"lat":6.3,"pop":0},{"id":2368070,"name":"Amaïdé","lon":1.2,"lat":9.18333,"pop":0},{"id":2368069,"name":"Amaké","lon":0.95,"lat":6.41667,"pop":0},{"id":2368068,"name":"Amakpavé","lon":1.18333,"lat":6.78333,"pop":0},{"id":2368065,"name":"Amandé","lon":1.15,"lat":9.13333,"pop":0},{"id":2368064,"name":"Amangomassi","lon":0.78333,"lat":6.61667,"pop":0},{"id":2368063,"name":"Amaoudè","lon":1.28333,"lat":9.16667,"pop":0},{"id":2368062,"name":"Amatétoukopé","alt":["Amatetoukope","Ametekou Kope","Amétekou Kopé"],"lon":0.85,"lat":6.61667,"pop":0},{"id":2368061,"name":"Amauidjé","lon":1.65,"lat":6.33333,"pop":0},{"id":2368060,"name":"Amavé","lon":1.06667,"lat":6.53333,"pop":0},{"id":2368059,"name":"Amavénou","lon":0.8,"lat":6.7,"pop":0},{"id":2368058,"name":"Amavi Kopé","lon":1.55,"lat":6.48333,"pop":0},{"id":2368055,"name":"Amédé Kouévé","alt":["Amede Koueve","Amede Kove","Amédé Kové"],"lon":1.40111,"lat":6.20778,"pop":0},{"id":2368054,"name":"Amédjonokou","lon":1.56667,"lat":6.26667,"pop":0},{"id":2368052,"name":"Amégadé","lon":1.33333,"lat":6.98333,"pop":0},{"id":2368051,"name":"Amégadiani","lon":1.28333,"lat":7.55,"pop":0},{"id":2368050,"name":"Amégblé","lon":1.51667,"lat":6.48333,"pop":0},{"id":2368056,"name":"Amégblévé","alt":["Amebleve","Amegbleve","Améblévé"],"lon":1.25972,"lat":6.37,"pop":0},{"id":2589755,"name":"Améglo","lon":1.19194,"lat":6.20278,"pop":0},{"id":2368049,"name":"Amégnran","alt":["Amegnran","Amegnrankope","Amenyran","Amégnrankopé","Aményran"],"lon":1.56667,"lat":6.46667,"pop":0},{"id":2368047,"name":"Amékoussikopé","lon":0.58333,"lat":7.41667,"pop":0},{"id":2589506,"name":"Améléké","lon":1.31417,"lat":6.23194,"pop":0},{"id":2368045,"name":"Aménoudji","alt":["Amenoudji","Amenoudji Kondji","Aménoudji Kondji"],"lon":1.66667,"lat":6.35,"pop":0},{"id":2368044,"name":"Aménoukpé","alt":["Amenoukpe","Menoukpoe","Menoukpoé"],"lon":0.93333,"lat":6.48333,"pop":0},{"id":2368043,"name":"Amento Kopé","lon":1.55,"lat":6.28333,"pop":0},{"id":2368042,"name":"Aményaglo","lon":1.68333,"lat":6.55,"pop":0},{"id":2589601,"name":"Aményaglo","lon":1.36278,"lat":6.16694,"pop":0},{"id":2589770,"name":"Aményaglo","lon":1.17389,"lat":6.20111,"pop":0},{"id":2368041,"name":"Aményoukpé","alt":["Amaniokpe","Amaniokpé","Amenyoukpe"],"lon":0.88333,"lat":6.56667,"pop":0},{"id":2368040,"name":"Amesodjikopé","alt":["Amesodjikope","Amezodjikope","Amézodjikopé"],"lon":0.63333,"lat":7.9,"pop":0},{"id":2368038,"name":"Amétogan Kopé","lon":1.61667,"lat":6.48333,"pop":0},{"id":2368037,"name":"Amétonou","lon":1.51667,"lat":6.63333,"pop":0},{"id":2589596,"name":"Améwawou","lon":1.33944,"lat":6.15972,"pop":0},{"id":2368036,"name":"Aminto","lon":0.7,"lat":7.4,"pop":0},{"id":2368035,"name":"Amlamé","alt":["Amlame","Emla"],"lon":0.9,"lat":7.46667,"pop":9870},{"id":2368032,"name":"Amodoukouté","lon":1.55,"lat":8.25,"pop":0},{"id":2368030,"name":"Amokwi","alt":["Amokouy"],"lon":1.1675,"lat":6.2425,"pop":0},{"id":2368028,"name":"Amou","lon":1.1,"lat":7.56667,"pop":0},{"id":2589760,"name":"Amou","lon":1.20333,"lat":6.215,"pop":0},{"id":2368025,"name":"Amou Akpékpé","lon":1.23333,"lat":7.35,"pop":0},{"id":2368014,"name":"Amou Oblo","lon":0.86667,"lat":7.38333,"pop":0},{"id":2589720,"name":"Amouadranyi","lon":1.14167,"lat":6.23,"pop":0},{"id":2368026,"name":"Amouakpa","lon":1.1,"lat":7.4,"pop":0},{"id":2368024,"name":"Amoublé","lon":1.21667,"lat":8.11667,"pop":0},{"id":2589604,"name":"Amoukondji","lon":1.42444,"lat":6.18444,"pop":0},{"id":2368017,"name":"Amoukopé","lon":1.03333,"lat":7.45,"pop":0},{"id":2368018,"name":"Amoukopé","lon":1.11667,"lat":7.38333,"pop":0},{"id":2368019,"name":"Amoukopé","lon":0.93333,"lat":7.38333,"pop":0},{"id":2368020,"name":"Amoukopé","lon":0.93333,"lat":7.36667,"pop":0},{"id":2368021,"name":"Amoukopé","lon":1.18333,"lat":7.35,"pop":0},{"id":2368022,"name":"Amoukopé","lon":1.31667,"lat":7.31667,"pop":0},{"id":2368009,"name":"Amousou","alt":["Amoussou"],"lon":1.12194,"lat":6.21278,"pop":0},{"id":2589687,"name":"Amousou","lon":1.11111,"lat":6.17944,"pop":0},{"id":2589546,"name":"Amousoukopé","lon":1.26667,"lat":6.1775,"pop":0},{"id":2589805,"name":"Amousouvi","lon":1.21,"lat":6.16722,"pop":0},{"id":2368013,"name":"Amoussa","lon":0.98333,"lat":7.58333,"pop":0},{"id":2368012,"name":"Amoussalé","alt":["Amounou","Amoussale"],"lon":1.28333,"lat":7.35,"pop":0},{"id":2368011,"name":"Amoussimé","alt":["Amosime","Amosimé","Amoussime"],"lon":1.51667,"lat":6.63333,"pop":0},{"id":2368010,"name":"Amoussokopé","alt":["Amousou Kope","Amousou Kopé","Amoussokope","Amouzoukope","Amouzoukopé"],"lon":0.85,"lat":6.66667,"pop":0},{"id":2368008,"name":"Amoussoukofé","alt":["Amousoukofe","Amousoukofé","Amoussoukofe"],"lon":0.53333,"lat":6.95,"pop":0},{"id":2368007,"name":"Amouta","lon":0.71667,"lat":7.35,"pop":0},{"id":2368006,"name":"Amoutchou","alt":["Amouchou","Amutschu"],"lon":1.18333,"lat":7.38333,"pop":0},{"id":2589840,"name":"Amoutivé","alt":["Amoutive"],"lon":1.2425,"lat":6.14361,"pop":0},{"id":2368003,"name":"Amouzoukopé","lon":1.15,"lat":7.18333,"pop":0},{"id":2368002,"name":"Anamanié","lon":0.88333,"lat":8.21667,"pop":0},{"id":2368000,"name":"Anamé","lon":1.63333,"lat":6.3,"pop":0},{"id":2367999,"name":"Ananoukopé","lon":1.03333,"lat":7.95,"pop":0},{"id":2367998,"name":"Anatoa","lon":1,"lat":9.93333,"pop":0},{"id":2367997,"name":"Anazivé","lon":1.01667,"lat":6.56667,"pop":0},{"id":2367995,"name":"Andjidé","alt":["Andjide"],"lon":1.11667,"lat":9.9,"pop":0},{"id":2367994,"name":"Ando","lon":0.88333,"lat":6.43333,"pop":0},{"id":2367993,"name":"Ando Gbégamé","lon":0.73333,"lat":6.7,"pop":0},{"id":2367990,"name":"Aného","alt":["Anecho","Aneho","Anekho","Anerho","Anécho","Klein-Popo","Little Popo","Petit Popo"],"lon":1.5919,"lat":6.22798,"pop":47579},{"id":2589559,"name":"Anfamé","lon":1.26778,"lat":6.15444,"pop":0},{"id":2367987,"name":"Anfouin","alt":["Anfei","Anfeou","Anfeï","Anfoi","Anfoin","Anfwen","Anféou","Angfeu"],"lon":1.61667,"lat":6.31667,"pop":0},{"id":2367985,"name":"Anguédi","lon":0.56667,"lat":6.93333,"pop":0},{"id":2367984,"name":"Anha","alt":["Ana"],"lon":0.95,"lat":6.48333,"pop":0},{"id":2367982,"name":"Aniandidé","alt":["Aniandide"],"lon":0.98333,"lat":9.8,"pop":0},{"id":2367981,"name":"Anié","alt":["Ana","Anie"],"lon":1.2,"lat":7.75,"pop":0},{"id":2367978,"name":"Aniélakou","lon":1.16667,"lat":7.76667,"pop":0},{"id":2367976,"name":"Anigouaménio","lon":0.7,"lat":7.66667,"pop":0},{"id":2367973,"name":"Anima","lon":0.88333,"lat":9.93333,"pop":0},{"id":2367974,"name":"Anima","lon":1,"lat":9.91667,"pop":0},{"id":2367975,"name":"Anima","alt":["Oundemba","Undemba"],"lon":1.01667,"lat":9.76667,"pop":0},{"id":2367972,"name":"Animaoio","alt":["Animabio"],"lon":1.41444,"lat":6.43,"pop":0},{"id":2367970,"name":"Animène Tié","alt":["Animene Tie"],"lon":1.13333,"lat":10.03333,"pop":0},{"id":2367968,"name":"Ankoukopé","lon":0.73333,"lat":6.51667,"pop":0},{"id":2589838,"name":"Anoukou","lon":1.24611,"lat":6.14917,"pop":0},{"id":2367964,"name":"Anyahoui","alt":["Agnaoui","Anyarhwi"],"lon":0.75,"lat":6.58333,"pop":0},{"id":2367963,"name":"Anyavé","alt":["Agnave","Agnavé","Anyave"],"lon":0.9,"lat":6.6,"pop":0},{"id":2367962,"name":"Anyibou","lon":1.58333,"lat":8.05,"pop":0},{"id":2589606,"name":"Anyimanya","alt":["Nimanya"],"lon":1.44056,"lat":6.18833,"pop":0},{"id":2367960,"name":"Anyinoumé","lon":1.58333,"lat":6.5,"pop":0},{"id":2589778,"name":"Aogan","lon":1.20417,"lat":6.20556,"pop":0},{"id":2367958,"name":"Aondou","lon":1.34083,"lat":6.27417,"pop":0},{"id":2367957,"name":"Aoroka","lon":1.01667,"lat":7.36667,"pop":0},{"id":2367953,"name":"Aou Losso","alt":["Aou-Lasso"],"lon":1.05,"lat":8.75,"pop":0},{"id":2589646,"name":"Aoudé","lon":1.14833,"lat":6.23861,"pop":0},{"id":2589637,"name":"Aoudja","lon":1.11944,"lat":6.23806,"pop":0},{"id":2589810,"name":"Aoudja","lon":1.24556,"lat":6.19556,"pop":0},{"id":2367955,"name":"Aoudomo","lon":1.26667,"lat":7.66667,"pop":0},{"id":2367954,"name":"Aoukoukopé","lon":1.2,"lat":7.38333,"pop":0},{"id":2367950,"name":"Aouté Kondji","alt":["Aoute Kondji","Awoute Kondji","Awouté Kondji"],"lon":1.53333,"lat":6.6,"pop":0},{"id":2367949,"name":"Aoutélé","lon":1.61667,"lat":7.13333,"pop":0},{"id":2589745,"name":"Aouya","lon":1.19778,"lat":6.22417,"pop":0},{"id":2367947,"name":"Apakpakpekopé","lon":1.08333,"lat":7.11667,"pop":0},{"id":2367946,"name":"Apakpokopé","lon":1.08333,"lat":7.06667,"pop":0},{"id":2367945,"name":"Apapahoé","lon":1.55,"lat":7.16667,"pop":0},{"id":2367943,"name":"Apéda","lon":1.63333,"lat":6.31667,"pop":0},{"id":2367942,"name":"Apéda Kondji","lon":1.53333,"lat":6.31667,"pop":0},{"id":2367941,"name":"Apédo","lon":1.1,"lat":6.2,"pop":0},{"id":2589544,"name":"Apédo","lon":1.26806,"lat":6.19417,"pop":0},{"id":2367940,"name":"Apédomé","lon":0.66667,"lat":7.01667,"pop":0},{"id":2589694,"name":"Apégame","lon":1.115,"lat":6.22472,"pop":0},{"id":2367938,"name":"Apégamé","lon":1.06667,"lat":7.55,"pop":0},{"id":2367939,"name":"Apégamé","lon":0.73333,"lat":6.85,"pop":0},{"id":2589615,"name":"Apéléte","lon":1.06944,"lat":6.22611,"pop":0},{"id":2367937,"name":"Apényigbé","lon":1.43333,"lat":6.3,"pop":0},{"id":2367935,"name":"Apéyémé","lon":0.7,"lat":7.2,"pop":0},{"id":2367936,"name":"Apéyémé","lon":0.93333,"lat":6.43333,"pop":0},{"id":2589841,"name":"Apéyémé","lon":1.23917,"lat":6.13944,"pop":0},{"id":2367934,"name":"Apoeydoumpo","alt":["Apoeidounpo"],"lon":0.63333,"lat":9.26667,"pop":0},{"id":2367933,"name":"Aposso","lon":1.11667,"lat":7.7,"pop":0},{"id":2367932,"name":"Apoti","lon":0.56667,"lat":6.98333,"pop":0},{"id":2367931,"name":"Apounonkpa","lon":1.6,"lat":6.23333,"pop":0},{"id":2367930,"name":"Aranda","lon":1.23333,"lat":9.46667,"pop":0},{"id":2367927,"name":"Arengbo","lon":1.11667,"lat":7.28333,"pop":0},{"id":2367926,"name":"Arigono","lon":1.25,"lat":7.25,"pop":0},{"id":2367924,"name":"Aroukakopé","lon":1.18333,"lat":7.36667,"pop":0},{"id":2367922,"name":"Arrikopé","lon":0.96667,"lat":7.23333,"pop":0},{"id":2367921,"name":"Asanté","alt":["Asante","Assante","Assanté"],"lon":1.38333,"lat":7.43333,"pop":0},{"id":2589708,"name":"Asato","lon":1.14611,"lat":6.18083,"pop":0},{"id":2589719,"name":"Asinyo","lon":1.13722,"lat":6.22194,"pop":0},{"id":2589522,"name":"Asou","lon":1.36889,"lat":6.21333,"pop":0},{"id":2367920,"name":"Asrama","lon":1.41667,"lat":7,"pop":0},{"id":2367916,"name":"Assahoun","alt":["Adzahoun","Asahoun"],"lon":0.91667,"lat":6.45,"pop":0},{"id":2367915,"name":"Assahun Fiagbé","lon":0.7,"lat":6.8,"pop":0},{"id":2367914,"name":"Assénoukopé","alt":["Asenou Kope","Assenoukope","Asénou Kopé","Heti Kope","Héti Kopé"],"lon":1.2,"lat":6.51667,"pop":0},{"id":11395493,"name":"Assigamé","lon":1.2215,"lat":6.12578,"pop":0},{"id":2367912,"name":"Assinyokopé","alt":["Asinyo Kope","Asinyo Kopé","Assinyokope"],"lon":1.6,"lat":6.35,"pop":0},{"id":2367911,"name":"Assiré","alt":["Asire","Asiré","Assire"],"lon":1.26667,"lat":9.8,"pop":0},{"id":8436937,"name":"Assiyeye","lon":1.24122,"lat":6.17398,"pop":0},{"id":2367908,"name":"Assogbakopé","lon":1.13333,"lat":7.08333,"pop":0},{"id":2367905,"name":"Assolakpo","lon":1.48333,"lat":8.05,"pop":0},{"id":2367904,"name":"Assomé","alt":["Asome","Asomé","Assome"],"lon":1.16028,"lat":6.36028,"pop":0},{"id":2367899,"name":"Assou Kondji","alt":["Asou Kondji"],"lon":1.56667,"lat":6.61667,"pop":0},{"id":2367900,"name":"Assou Kondji","alt":["Asou Kondji","Atou Kondji"],"lon":1.61667,"lat":6.43333,"pop":0},{"id":2367901,"name":"Assou Kondji","alt":["Asou Kondji"],"lon":1.55,"lat":6.21667,"pop":0},{"id":2367898,"name":"Assoukopé","alt":["Asou Kope","Asou Kopé","Assoukope"],"lon":1.6,"lat":6.25,"pop":0},{"id":2367895,"name":"Assouma Kédémé","lon":0.7,"lat":8.23333,"pop":0},{"id":2367894,"name":"Assoumakodji","alt":["Assoumakondji"],"lon":1.13333,"lat":8.18333,"pop":0},{"id":2589629,"name":"Asyabi","lon":1.08111,"lat":6.19778,"pop":0},{"id":2367890,"name":"Ataké","lon":1.51667,"lat":8.1,"pop":0},{"id":2367891,"name":"Ataké","lon":1.36667,"lat":7.36667,"pop":0},{"id":2367892,"name":"Ataké","lon":1.23333,"lat":7.35,"pop":0},{"id":2367889,"name":"Atakédibato","lon":1.13333,"lat":7.8,"pop":0},{"id":2367886,"name":"Atakpamé","alt":["Atakpame","Atakpamė","a ta pa mei","atakeupame","atakupame","Ατακπαμέ","Атакпаме","اتاکپامے","アタクパメ","阿塔帕梅","아타크파메"],"lon":1.13333,"lat":7.53333,"pop":80683},{"id":2367887,"name":"Atakpamé","alt":["Atakpame","Atapame","Atapamé"],"lon":0.75,"lat":6.58333,"pop":0},{"id":2367883,"name":"Atakpamédé","lon":1.56667,"lat":6.65,"pop":0},{"id":2367882,"name":"Atakpara","lon":1.23333,"lat":7.26667,"pop":0},{"id":2367879,"name":"Atalo","lon":1.16667,"lat":7.48333,"pop":0},{"id":2367877,"name":"Ataloté","lon":0.94139,"lat":9.93472,"pop":0},{"id":2367875,"name":"Atchachimé","alt":["Atchachime","Atchetime","Atchétimé"],"lon":1.53333,"lat":6.46667,"pop":0},{"id":2367874,"name":"Atchadipémé","lon":1.55,"lat":6.45,"pop":0},{"id":2367873,"name":"Atchahoué","lon":1.51667,"lat":7.46667,"pop":0},{"id":2367872,"name":"Atchakopé","lon":1.2,"lat":7.41667,"pop":0},{"id":2367871,"name":"Atchakpati","alt":["Atiapati"],"lon":0.93333,"lat":6.4,"pop":0},{"id":2367870,"name":"Atchakpwé","lon":1.16667,"lat":6.68333,"pop":0},{"id":2367869,"name":"Atchangbadé","lon":1.13333,"lat":9.46667,"pop":0},{"id":2367868,"name":"Atchanvé","alt":["Atchanve","Atchave","Atchavé"],"lon":1.30056,"lat":6.37889,"pop":0},{"id":2367867,"name":"Atchassi","alt":["Atchasi"],"lon":1.55,"lat":6.45,"pop":0},{"id":2589819,"name":"Atchati","lon":1.23306,"lat":6.18,"pop":0},{"id":2367860,"name":"Atchavé","alt":["Atchanve","Atchanvé","Atchave","Atschawe"],"lon":1.21667,"lat":6.86667,"pop":0},{"id":2367861,"name":"Atchavé","lon":0.63333,"lat":6.83333,"pop":0},{"id":2367862,"name":"Atchavé","alt":["Adjave","Atchanve","Atchanvé","Atchave"],"lon":1,"lat":6.58333,"pop":0},{"id":2367863,"name":"Atchavé","lon":1.16667,"lat":6.51667,"pop":0},{"id":2367864,"name":"Atchavé","alt":["Atchave","Atiave","Atiavé"],"lon":0.98333,"lat":6.46667,"pop":0},{"id":2367865,"name":"Atchavé","lon":1.6,"lat":6.45,"pop":0},{"id":2367866,"name":"Atchavé","lon":1.25,"lat":6.38333,"pop":0},{"id":2589666,"name":"Atchavé","lon":1.20944,"lat":6.22667,"pop":0},{"id":2589835,"name":"Atchavé","lon":1.23806,"lat":6.16083,"pop":0},{"id":2367859,"name":"Atchavé Komé","lon":1.71667,"lat":6.5,"pop":0},{"id":2367858,"name":"Atchavou","lon":1.43333,"lat":7.01667,"pop":0},{"id":2367857,"name":"Atchéki","lon":1.63333,"lat":7.55,"pop":0},{"id":2367855,"name":"Atchinéboukopé","lon":1.4,"lat":7.48333,"pop":0},{"id":2367854,"name":"Atchinedji","alt":["Atchenedji","Atchénedji"],"lon":1.35,"lat":7.56667,"pop":0},{"id":2367853,"name":"Atchitchouvikopé","lon":1.08333,"lat":6.96667,"pop":0},{"id":2367852,"name":"Atchou","lon":1.25,"lat":7.5,"pop":0},{"id":2367851,"name":"Atchoukpé","lon":1.35,"lat":6.93333,"pop":0},{"id":2589652,"name":"Atchyomé","lon":1.16,"lat":6.24861,"pop":0},{"id":2367850,"name":"Atchyonfré","alt":["Atchyonfre","Zionou"],"lon":0.88333,"lat":6.48333,"pop":0},{"id":2367849,"name":"Até","lon":1.06667,"lat":7.85,"pop":0},{"id":2367847,"name":"Atékwi","alt":["Atekoui","Atekwi","Atékoui"],"lon":0.81667,"lat":6.5,"pop":0},{"id":2367845,"name":"Atélo","lon":0.65,"lat":10.05,"pop":0},{"id":2367846,"name":"Atélo","lon":0.86667,"lat":9.91667,"pop":0},{"id":2367844,"name":"Aténioufoué","alt":["Atenioufoue","Atenyoufwe","Atenyoufwé"],"lon":0.9,"lat":6.48333,"pop":0},{"id":2367843,"name":"Atéoué","alt":["Atehoue","Ateoue","Atéhoue"],"lon":1.08333,"lat":7.86667,"pop":0},{"id":2367842,"name":"Atépa","lon":1.6,"lat":8.13333,"pop":0},{"id":2367841,"name":"Atétimé","lon":1.48111,"lat":6.42667,"pop":0},{"id":2367839,"name":"Atétou","lon":1.08333,"lat":9.93333,"pop":0},{"id":2367840,"name":"Atétou","lon":1.05,"lat":9.93333,"pop":0},{"id":2367838,"name":"Atgamazété","lon":1.08333,"lat":7.18333,"pop":0},{"id":2367837,"name":"Ati","alt":["Atti"],"lon":0.9,"lat":6.45,"pop":0},{"id":2367836,"name":"Atiadékopé","lon":1.23333,"lat":7.53333,"pop":0},{"id":2367835,"name":"Atiagomé","lon":0.96667,"lat":6.48333,"pop":0},{"id":2367834,"name":"Atiaka","lon":0.88333,"lat":9.85,"pop":0},{"id":2367833,"name":"Atiakéké","lon":1.31667,"lat":7.25,"pop":0},{"id":2367832,"name":"Atiakodio","lon":1.43333,"lat":8.06667,"pop":0},{"id":2367829,"name":"Atidié","lon":1.25,"lat":7.38333,"pop":0},{"id":2589632,"name":"Atidjon","alt":["Atidji"],"lon":1.09833,"lat":6.24167,"pop":0},{"id":2367827,"name":"Atifoutou","lon":1.63333,"lat":7.3,"pop":0},{"id":2367826,"name":"Atiga Kopé","lon":0.88333,"lat":6.35,"pop":0},{"id":2590413,"name":"Atigan","lon":1.13028,"lat":6.21111,"pop":0},{"id":2589718,"name":"Atigan Kopé","alt":["Atigan","Atigan Kope"],"lon":1.12556,"lat":6.22778,"pop":0},{"id":2367825,"name":"Atigba","alt":["Atiba","Atikpa"],"lon":0.7,"lat":7.15,"pop":0},{"id":2367823,"name":"Atigbé","lon":0.93333,"lat":10.11667,"pop":0},{"id":2367824,"name":"Atigbé","lon":0.7,"lat":6.83333,"pop":0},{"id":2367822,"name":"Atigozo","lon":1.13333,"lat":7.45,"pop":0},{"id":2367821,"name":"Atikolé","lon":0.98333,"lat":6.76667,"pop":0},{"id":2367817,"name":"Atikpaï","alt":["Atikpai","Atikpay","Atitpaye"],"lon":1.31667,"lat":8.18333,"pop":0},{"id":2367818,"name":"Atikpaï","lon":1.13333,"lat":8.08333,"pop":0},{"id":2367819,"name":"Atikpaï","lon":1.58333,"lat":8.05,"pop":0},{"id":2367816,"name":"Atikpamé","lon":1.53333,"lat":6.41667,"pop":0},{"id":2367815,"name":"Atikplé Kopé","alt":["Atikple Kope","Attikple Kope","Attikplé Kopé"],"lon":1.68333,"lat":6.46667,"pop":0},{"id":2367813,"name":"Atikpo Kopé","alt":["Atikpo","Atikpo Kope"],"lon":1.63333,"lat":6.3,"pop":0},{"id":2367814,"name":"Atikpoévikopé","alt":["Atikpoevikope","Atikpovi Kope","Atikpovi Kopé"],"lon":1.53333,"lat":6.55,"pop":0},{"id":2367811,"name":"Atilkavé","lon":1.28333,"lat":7.03333,"pop":0},{"id":2367809,"name":"Atimé","lon":0.73333,"lat":7.11667,"pop":0},{"id":2367810,"name":"Atimé","lon":1.28333,"lat":6.8,"pop":0},{"id":2367808,"name":"Atimédé","lon":1.26667,"lat":6.8,"pop":0},{"id":2367806,"name":"Atinndou","alt":["Atindou"],"lon":1.15,"lat":6.51667,"pop":0},{"id":2589678,"name":"Atinyo","lon":1.1025,"lat":6.21806,"pop":0},{"id":2367805,"name":"Atiogbékopé","lon":1.35,"lat":7,"pop":0},{"id":2367803,"name":"Atioukoufe","lon":1.3,"lat":8.05,"pop":0},{"id":2367802,"name":"Atiové","lon":1.15,"lat":6.5,"pop":0},{"id":2589809,"name":"Atiso","lon":1.22972,"lat":6.19917,"pop":0},{"id":2367801,"name":"Atisowé","lon":1.23333,"lat":6.9,"pop":0},{"id":2367798,"name":"Atisso Kondji","alt":["Atiso Kondji","Zoki Kondji"],"lon":1.66667,"lat":6.33333,"pop":0},{"id":2367800,"name":"Atissobékopé","alt":["Atisobe Kope","Atisobé Kopé","Atissobekope","Avedji","Avédji"],"lon":1.15944,"lat":6.46806,"pop":0},{"id":2367799,"name":"Atissogbé","alt":["Atisogbe","Atisogbé","Atissogbe"],"lon":1.58333,"lat":6.38333,"pop":0},{"id":2367797,"name":"Atité Kopé","lon":0.96667,"lat":6.4,"pop":0},{"id":2367794,"name":"Atitoé","alt":["Atite","Atitoe","Atité"],"lon":1.08333,"lat":6.71667,"pop":0},{"id":2367795,"name":"Atitoé","lon":1.08194,"lat":6.27944,"pop":0},{"id":2367793,"name":"Atitolomé Apégamé","alt":["Apegame","Apégamé","Atitolome Apegame"],"lon":1.47361,"lat":6.46944,"pop":0},{"id":2367792,"name":"Atitso Kopé","lon":1.30722,"lat":6.31111,"pop":0},{"id":2367791,"name":"Ativé","alt":["Ative","Atiwe","Atiwé"],"lon":1.71667,"lat":6.45,"pop":0},{"id":2367790,"name":"Ativémé","lon":1.11056,"lat":6.42278,"pop":0},{"id":2367787,"name":"Atokodjé","lon":1.2,"lat":7.45,"pop":0},{"id":2367785,"name":"Atomé","lon":1.53333,"lat":7.36667,"pop":0},{"id":2367784,"name":"Atomé Atchiné","lon":1.35,"lat":7.53333,"pop":0},{"id":2367782,"name":"Atontébou","alt":["Atontebou"],"lon":0.81667,"lat":9.86667,"pop":0},{"id":2367780,"name":"Atouikondji","lon":1.55,"lat":6.76667,"pop":0},{"id":2367778,"name":"Atsoglokopé","lon":0.95,"lat":6.73333,"pop":0},{"id":2367777,"name":"Attia","lon":1.36667,"lat":8.1,"pop":0},{"id":11205304,"name":"Attiegou","lon":1.26163,"lat":6.19653,"pop":0},{"id":2367776,"name":"Attitogon","alt":["Atitogo","Atitogon"],"lon":1.66667,"lat":6.41667,"pop":0},{"id":2367775,"name":"Atwéta","alt":["Atoueta","Atouéta","Atweta"],"lon":1.66667,"lat":6.3,"pop":0},{"id":2589644,"name":"Atyémé","lon":1.145,"lat":6.24944,"pop":0},{"id":2367774,"name":"Avadadé","lon":1.26667,"lat":9.08333,"pop":0},{"id":2367773,"name":"Avakodja","lon":1.2,"lat":7.95,"pop":0},{"id":2367772,"name":"Avalao","lon":1.35,"lat":9.1,"pop":0},{"id":2367771,"name":"Avalépo","lon":1.23694,"lat":6.31306,"pop":0},{"id":2589867,"name":"Avalépo","lon":1.26111,"lat":6.31528,"pop":0},{"id":2367770,"name":"Avati Djobédji","alt":["Avati Djobedji","Djobedji"],"lon":1.11667,"lat":6.68333,"pop":0},{"id":2367769,"name":"Avazikopé","lon":0.83333,"lat":6.45,"pop":0},{"id":2366814,"name":"Avé Djén","alt":["Ave Djen","Edjene","Edjéné"],"lon":1.14194,"lat":6.48861,"pop":0},{"id":2367768,"name":"Avébadié","lon":0.86667,"lat":7.11667,"pop":0},{"id":2367762,"name":"Avédjé","lon":1.13333,"lat":7.46667,"pop":0},{"id":2367763,"name":"Avédjé","alt":["Afidegni","Avedje"],"lon":1.58333,"lat":7.13333,"pop":0},{"id":2367764,"name":"Avédjé","lon":0.78333,"lat":6.86667,"pop":0},{"id":2367765,"name":"Avédjé","alt":["Avedio","Avedje"],"lon":0.91667,"lat":6.73333,"pop":0},{"id":2367766,"name":"Avédjé","lon":1.23333,"lat":6.66667,"pop":0},{"id":2367767,"name":"Avédjé","alt":["Avedie","Avedje","Avédié"],"lon":1.05917,"lat":6.49083,"pop":0},{"id":2367759,"name":"Avédjémé","lon":1.61667,"lat":7.26667,"pop":0},{"id":2367760,"name":"Avédjémé","lon":1.61667,"lat":7.25,"pop":0},{"id":2367761,"name":"Avédjémé","lon":1.48333,"lat":6.98333,"pop":0},{"id":2367758,"name":"Avédjéta","alt":["Avedjeta","Avieteta","Aviététa"],"lon":0.86667,"lat":6.53333,"pop":0},{"id":2589765,"name":"Avédji","lon":1.175,"lat":6.18167,"pop":0},{"id":2589766,"name":"Avédji Anyigbé","lon":1.17806,"lat":6.18028,"pop":0},{"id":2367756,"name":"Avédji Sagada","lon":1.5,"lat":7.03333,"pop":0},{"id":11497867,"name":"Avedji Telessou","lon":1.19738,"lat":6.18,"pop":0},{"id":2367757,"name":"Avédjikpodji","lon":1.17,"lat":6.19528,"pop":0},{"id":2367754,"name":"Avédomé","lon":1.25,"lat":8.03333,"pop":0},{"id":2367755,"name":"Avédomé","lon":0.96667,"lat":6.45,"pop":0},{"id":2367753,"name":"Avéfodzo","alt":["Avefodzo","Avepozo","Avépozo"],"lon":1.3425,"lat":6.16833,"pop":0},{"id":2367751,"name":"Avégan","lon":1.01667,"lat":6.6,"pop":0},{"id":2367748,"name":"Avégo","lon":0.96667,"lat":6.56667,"pop":0},{"id":2589681,"name":"Avégwimé","lon":1.09722,"lat":6.20694,"pop":0},{"id":2367746,"name":"Avého","alt":["Aveho","Aveho-Tongbe","Avého-Tongbé"],"lon":0.78333,"lat":7.21667,"pop":0},{"id":2367747,"name":"Avého","lon":1.13333,"lat":6.18333,"pop":0},{"id":2367745,"name":"Avéimé","lon":1.2325,"lat":6.22139,"pop":0},{"id":2367744,"name":"Avélé","lon":1.65,"lat":6.35,"pop":0},{"id":2589783,"name":"Avéméné","lon":1.18833,"lat":6.18083,"pop":0},{"id":2367743,"name":"Avéno","alt":["Aveno","Aweno"],"lon":0.6,"lat":6.86667,"pop":0},{"id":2367742,"name":"Avenou","lon":1.18333,"lat":6.16667,"pop":0},{"id":2367741,"name":"Avéssido","alt":["Avesido","Avessido","Avésido"],"lon":0.78333,"lat":6.86667,"pop":0},{"id":2367740,"name":"Avéta","alt":["Aveta","Aweta","Awéta"],"lon":1.28722,"lat":6.26889,"pop":0},{"id":2367739,"name":"Avété","lon":1.15,"lat":7.46667,"pop":0},{"id":2589579,"name":"Avété","lon":1.26,"lat":6.14278,"pop":0},{"id":2367738,"name":"Avétonou","alt":["Avetonou","Togo-Plantation"],"lon":0.8,"lat":6.8,"pop":0},{"id":2367737,"name":"Avévé","alt":["Avere","Aveve","Avéré","Awewe","Awewé"],"lon":1.76667,"lat":6.4,"pop":0},{"id":2367735,"name":"Avévoen","alt":["Avevoen","Avevwen","Avévwen","Vevoin","Vévoin"],"lon":1.02667,"lat":6.49806,"pop":0},{"id":2367736,"name":"Avévonou","lon":1.51667,"lat":6.36667,"pop":0},{"id":2589870,"name":"Aveyigbome","lon":1.12417,"lat":6.15278,"pop":0},{"id":2367734,"name":"Aviguénou","alt":["Avigenou","Aviguenou","Avigénou"],"lon":1.75,"lat":6.25,"pop":0},{"id":2367733,"name":"Avlata","lon":1.16667,"lat":6.51667,"pop":0},{"id":2367731,"name":"Avoémé","lon":1.13333,"lat":6.16667,"pop":0},{"id":2367730,"name":"Avoikopé","lon":0.76667,"lat":6.45,"pop":0},{"id":2367729,"name":"Avolé","lon":1.6,"lat":7.81667,"pop":0},{"id":2367728,"name":"Avolokopé","lon":1.1,"lat":6.75,"pop":0},{"id":2367727,"name":"Avou","lon":1.5,"lat":7.01667,"pop":0},{"id":2367725,"name":"Avougon Kopé","alt":["Apougon","Avougon Kope"],"lon":1.29833,"lat":6.23,"pop":0},{"id":2367724,"name":"Avouko","lon":1.21667,"lat":6.8,"pop":0},{"id":2367723,"name":"Avoukouékopé","lon":1.01667,"lat":7.18333,"pop":0},{"id":2589547,"name":"Avoutsou","lon":1.27833,"lat":6.17861,"pop":0},{"id":2367721,"name":"Awagomé","alt":["Aouagome","Aouagomé","Awagome","Awogame"],"lon":1.2,"lat":7.63333,"pop":0},{"id":2367718,"name":"Awandjélo","alt":["Awandjello","Awandjelo"],"lon":1.21667,"lat":9.45,"pop":0},{"id":2367717,"name":"Awassa","lon":0.95,"lat":9.85,"pop":0},{"id":2589815,"name":"Awen","lon":1.23806,"lat":6.18694,"pop":0},{"id":2367714,"name":"Ayagba","alt":["Ayaba"],"lon":0.8,"lat":7.76667,"pop":0},{"id":2367712,"name":"Ayamagblé","alt":["Ahiamable","Ahiamablé","Ayamagble"],"lon":1.08,"lat":6.25556,"pop":0},{"id":2367711,"name":"Ayandété","alt":["Ayandete","Ayanelete","Ayanélete"],"lon":0.91797,"lat":10.07614,"pop":0},{"id":2367710,"name":"Ayata","lon":1.56667,"lat":6.33333,"pop":0},{"id":2367708,"name":"Ayékpada","lon":1.25,"lat":8.05,"pop":0},{"id":2367707,"name":"Ayékporé","lon":0.63333,"lat":10.06667,"pop":0},{"id":2367706,"name":"Ayengré","alt":["Ayengre","Ayenngre"],"lon":1.01667,"lat":8.66667,"pop":0},{"id":2367705,"name":"Ayéro","lon":1.48333,"lat":7.43333,"pop":0},{"id":2589731,"name":"Ayi Kopé","lon":1.16556,"lat":6.21361,"pop":0},{"id":2589589,"name":"Ayivi","lon":1.2925,"lat":6.14333,"pop":0},{"id":2367704,"name":"Ayivi Adjavon","lon":1.26528,"lat":6.14167,"pop":0},{"id":2367703,"name":"Ayolé","lon":1.11667,"lat":7.3,"pop":0},{"id":2367701,"name":"Ayomé","alt":["Ajome","Ajomé","Ayome"],"lon":0.95,"lat":7.5,"pop":0},{"id":2367700,"name":"Ayoré","lon":1.4,"lat":7.58333,"pop":0},{"id":2589737,"name":"Azabényon","lon":1.175,"lat":6.22639,"pop":0},{"id":2367699,"name":"Azafi","lon":1.03333,"lat":7.56667,"pop":0},{"id":2367698,"name":"Azafi Témé","lon":1.08333,"lat":7.5,"pop":0},{"id":2589705,"name":"Azakopé","lon":1.11444,"lat":6.18056,"pop":0},{"id":2367697,"name":"Azakpé","lon":1.25,"lat":7.06667,"pop":0},{"id":2367696,"name":"Azam","lon":1.5,"lat":9.16667,"pop":0},{"id":2367694,"name":"Azanadé","lon":1.23333,"lat":9.1,"pop":0},{"id":2367693,"name":"Azano","alt":["Valo"],"lon":0.85,"lat":6.4,"pop":0},{"id":2367692,"name":"Azapoué","lon":1.2,"lat":7,"pop":0},{"id":2367691,"name":"Azaza","alt":["Asasa"],"lon":1.35,"lat":9.16667,"pop":0},{"id":2367689,"name":"Azévou","lon":1.58333,"lat":7.26667,"pop":0},{"id":2367688,"name":"Aziadomé","lon":1.34333,"lat":6.28,"pop":0},{"id":2367687,"name":"Aziakpo Kopé","lon":1.295,"lat":6.36389,"pop":0},{"id":2367686,"name":"Azigo","lon":0.86667,"lat":7.85,"pop":0},{"id":2367685,"name":"Azikopé","lon":1.1,"lat":6.58333,"pop":0},{"id":2367684,"name":"Azimégan","alt":["Azime","Azimegan","Azimé"],"lon":1.75,"lat":6.3,"pop":0},{"id":2367683,"name":"Azio Anou","lon":0.81667,"lat":6.9,"pop":0},{"id":2367682,"name":"Azivégo","lon":0.85,"lat":7.26667,"pop":0},{"id":2589576,"name":"Aziza","lon":1.48028,"lat":6.20556,"pop":0},{"id":2589728,"name":"Aziza","lon":1.16639,"lat":6.22722,"pop":0},{"id":2589808,"name":"Azogénou","lon":1.22806,"lat":6.19917,"pop":0},{"id":2589752,"name":"Azongo","lon":1.18639,"lat":6.21556,"pop":0},{"id":2589784,"name":"Azyagbang","lon":1.20028,"lat":6.17722,"pop":0},{"id":2589773,"name":"Ba Kopé","lon":1.17667,"lat":6.18639,"pop":0},{"id":2367680,"name":"Babadé","lon":1.03333,"lat":8.7,"pop":0},{"id":2367679,"name":"Babahoé","lon":0.68333,"lat":7.33333,"pop":0},{"id":2367678,"name":"Babame","lon":1.18333,"lat":8.01667,"pop":0},{"id":2367677,"name":"Babansaoudé","alt":["Babansaoude","Banbansaoude","Banbansaoudé"],"lon":1.4,"lat":8.8,"pop":0},{"id":2367675,"name":"Babiaillé","lon":0.7,"lat":7.6,"pop":0},{"id":2367674,"name":"Babona","lon":0.28333,"lat":10.81667,"pop":0},{"id":2367673,"name":"Badao","lon":0.96667,"lat":9.45,"pop":0},{"id":2367671,"name":"Badégoékopermi","lon":1.5,"lat":7.41667,"pop":0},{"id":2367670,"name":"Badia","lon":1.53333,"lat":8.15,"pop":0},{"id":2367669,"name":"Badja","lon":0.98333,"lat":6.38333,"pop":0},{"id":2367668,"name":"Badjanaké","lon":0.83333,"lat":6.48333,"pop":0},{"id":2367667,"name":"Badjénopé","lon":1.56667,"lat":6.41667,"pop":0},{"id":2367664,"name":"Badji","lon":1.35,"lat":7.38333,"pop":0},{"id":2367665,"name":"Badji","lon":1.25,"lat":7.31667,"pop":0},{"id":2367666,"name":"Badji","lon":1.46667,"lat":6.96667,"pop":0},{"id":2367662,"name":"Badji Kopé","lon":1.5,"lat":6.28333,"pop":0},{"id":2589812,"name":"Badoga","lon":1.20972,"lat":6.19028,"pop":0},{"id":2367661,"name":"Badoré","lon":0.21667,"lat":10.83333,"pop":0},{"id":2367660,"name":"Badou","alt":["Bad","Badu","Bādu","Бад"],"lon":0.6,"lat":7.58333,"pop":24000},{"id":2367658,"name":"Badougbé","lon":1.51667,"lat":6.23333,"pop":0},{"id":2367657,"name":"Badougbé Bézoumé","lon":1.51667,"lat":6.23333,"pop":0},{"id":2367656,"name":"Bafilo","alt":["Бафило"],"lon":1.26667,"lat":9.35,"pop":22543},{"id":2367653,"name":"Bafo","alt":["Bato"],"lon":0.95,"lat":7.81667,"pop":0},{"id":2367649,"name":"Baga","lon":1.1,"lat":9.8,"pop":0},{"id":2367650,"name":"Baga","lon":0.85,"lat":9.38333,"pop":0},{"id":2367645,"name":"Bagbé","lon":1.01667,"lat":6.33333,"pop":0},{"id":2367646,"name":"Bagbé","lon":0.98333,"lat":6.33333,"pop":0},{"id":11395374,"name":"Bagbé Atikoumé","lon":1.10378,"lat":6.2323,"pop":0},{"id":2367644,"name":"Bagou","alt":["Bagu"],"lon":1.4,"lat":8.51667,"pop":0},{"id":2367648,"name":"Bagré","alt":["Bagare","Bagaré","Bagre"],"lon":0.73111,"lat":10.87861,"pop":0},{"id":2367642,"name":"Baguida","alt":["Bagida","Bagnida","Baguid"],"lon":1.325,"lat":6.1675,"pop":0},{"id":2589599,"name":"Baka","lon":1.35389,"lat":6.16472,"pop":0},{"id":2367639,"name":"Bakari","lon":0.56667,"lat":9.26667,"pop":0},{"id":2367640,"name":"Bakari","alt":["Bakari Kondji"],"lon":1.76667,"lat":6.28333,"pop":0},{"id":2367636,"name":"Bako Samaba","lon":1.13333,"lat":10.11667,"pop":0},{"id":2367635,"name":"Bako Touga","lon":1.08333,"lat":10.11667,"pop":0},{"id":2367637,"name":"Bakokozé","lon":0.08333,"lat":10.66667,"pop":0},{"id":2367638,"name":"Bakokozé","lon":0.06667,"lat":10.66667,"pop":0},{"id":2367633,"name":"Bakoulé","alt":["Bakoule"],"lon":0.53333,"lat":9.06667,"pop":0},{"id":2367631,"name":"Bakpansouga","lon":0.06667,"lat":10.8,"pop":0},{"id":2367630,"name":"Bakpaya","lon":0.53333,"lat":9.26667,"pop":0},{"id":2367629,"name":"Baladjékopé","lon":1.21667,"lat":7.3,"pop":0},{"id":2367627,"name":"Balanka","lon":1.61667,"lat":8.86667,"pop":0},{"id":2367623,"name":"Balimé","alt":["Balime","Mome Baleme","Momé Balémé"],"lon":1.56667,"lat":6.46667,"pop":0},{"id":2367622,"name":"Balkok","lon":0.01667,"lat":10.81667,"pop":0},{"id":2367621,"name":"Balla","lon":0.56667,"lat":6.98333,"pop":0},{"id":2367618,"name":"Baluikopé","lon":1.03333,"lat":7.01667,"pop":0},{"id":2367616,"name":"Bama Kopé","alt":["Bama","Bama Kope"],"lon":1.27361,"lat":6.25694,"pop":0},{"id":2367615,"name":"Bamandou","lon":0.63333,"lat":9.8,"pop":0},{"id":2367611,"name":"Bambouyé","lon":1.1,"lat":9.01667,"pop":0},{"id":2367610,"name":"Bamé","lon":1.055,"lat":6.32972,"pop":0},{"id":2589620,"name":"Bamé","lon":1.07722,"lat":6.24056,"pop":0},{"id":2367608,"name":"Bamoundo","lon":0.51667,"lat":9.5,"pop":0},{"id":2367605,"name":"Banboli","lon":0.65,"lat":10.91667,"pop":0},{"id":2367603,"name":"Bandali","lon":0.81667,"lat":10.96667,"pop":0},{"id":2367602,"name":"Bandiadou","lon":0.5,"lat":9.85,"pop":0},{"id":2367601,"name":"Bandjal","alt":["Bandjeli","Bandjéli","Bangeli","Banjeli","Banyeli","Banyéli","Panjere","Pánjere"],"lon":0.62255,"lat":9.42713,"pop":0},{"id":2367600,"name":"Bangan","lon":0.7,"lat":9.06667,"pop":0},{"id":2367599,"name":"Bangbou","lon":0.81667,"lat":9.85,"pop":0},{"id":2367597,"name":"Baniamé","lon":0.3,"lat":11,"pop":0},{"id":2367595,"name":"Baniamé Kantindi","lon":0.3,"lat":10.9,"pop":0},{"id":2367593,"name":"Banjena","lon":0.9,"lat":9.43333,"pop":0},{"id":2367590,"name":"Bantierk","alt":["Banntierk"],"lon":0.1745,"lat":10.59869,"pop":0},{"id":2367587,"name":"Banyi Kopé","alt":["Banikope","Banikopé","Banyi Kope"],"lon":0.91667,"lat":6.68333,"pop":0},{"id":2367586,"name":"Bao","alt":["Baou"],"lon":1.15,"lat":9.6,"pop":0},{"id":2367585,"name":"Baouda","lon":0.98333,"lat":9.5,"pop":0},{"id":2367584,"name":"Baoulé","lon":0.58333,"lat":10.26667,"pop":0},{"id":2367582,"name":"Baoulinsé","alt":["Baoulinse"],"lon":0.63333,"lat":9.31667,"pop":0},{"id":2367581,"name":"Baounda","lon":1.25,"lat":9.03333,"pop":0},{"id":2367580,"name":"Bapélé","alt":["Bapele"],"lon":0.55,"lat":9.46667,"pop":0},{"id":2367579,"name":"Bapuré","alt":["Bapure"],"lon":0.61646,"lat":9.52515,"pop":0},{"id":2367578,"name":"Barangadé","lon":1.3,"lat":9.08333,"pop":0},{"id":2367575,"name":"Barédjian","lon":0.98333,"lat":10.03333,"pop":0},{"id":2367574,"name":"Barkoissi","alt":["Barkoisi","Barkouassi"],"lon":0.30308,"lat":10.55026,"pop":0},{"id":2367571,"name":"Barouba","alt":["Banouba"],"lon":1.23333,"lat":7.6,"pop":0},{"id":2367569,"name":"Bassambo","alt":["Bassammbo"],"lon":0.81667,"lat":9.76667,"pop":0},{"id":2367568,"name":"Bassar","alt":["Basar","Bassari","ba sa","Басар","巴萨"],"lon":0.78213,"lat":9.25025,"pop":61845},{"id":2367565,"name":"Bassassin","lon":0.48333,"lat":9.68333,"pop":0},{"id":2367564,"name":"Bassavakopé","lon":1.21306,"lat":6.33528,"pop":0},{"id":2367563,"name":"Bassé Adjido","lon":1.06667,"lat":7.35,"pop":0},{"id":2367562,"name":"Bassé Djigbé","lon":1.06667,"lat":7.35,"pop":0},{"id":2367561,"name":"Bassé Gnamassi","lon":1.06667,"lat":7.35,"pop":0},{"id":2367559,"name":"Bassikopé","lon":0.86667,"lat":7.28333,"pop":0},{"id":2367558,"name":"Bassoudé","alt":["Bassoude"],"lon":0.93333,"lat":9.46667,"pop":0},{"id":2367557,"name":"Bassoutougou","alt":["Basoudougou"],"lon":0.05,"lat":10.95,"pop":0},{"id":2367556,"name":"Batanbouaré","lon":0.23333,"lat":10.81667,"pop":0},{"id":2367555,"name":"Batchang","lon":1.13333,"lat":8.81667,"pop":0},{"id":2367554,"name":"Baté","lon":1.13333,"lat":8.01667,"pop":0},{"id":2367552,"name":"Batébogou","lon":0.35,"lat":10.73333,"pop":0},{"id":2367550,"name":"Batékpo","alt":["Balekpo","Balékpo","Batekpo"],"lon":1.03333,"lat":6.55,"pop":0},{"id":2367549,"name":"Batémané","lon":0.26667,"lat":10.8,"pop":0},{"id":2367548,"name":"Batéo","alt":["Bafeo","Baféo","Bateo"],"lon":0.71667,"lat":7.71667,"pop":0},{"id":2367547,"name":"Bating","lon":0.15,"lat":10.78333,"pop":0},{"id":2367546,"name":"Bato","lon":1.13333,"lat":7.21667,"pop":0},{"id":2367544,"name":"Batonou","lon":1.75,"lat":6.43333,"pop":0},{"id":2367540,"name":"Batoumé","lon":0.98333,"lat":6.88333,"pop":0},{"id":2367541,"name":"Batoumé","lon":0.98333,"lat":6.71667,"pop":0},{"id":2367542,"name":"Batoumé","alt":["Abowikovhe","Batome","Batoume"],"lon":0.75,"lat":6.48333,"pop":0},{"id":2367543,"name":"Batoumé","lon":0.91667,"lat":6.36667,"pop":0},{"id":2367537,"name":"Baya","lon":0.93333,"lat":9.35,"pop":0},{"id":2367536,"name":"Bayaïdé","lon":1.28333,"lat":8.83333,"pop":0},{"id":2367535,"name":"Bazirékopé","lon":0.88333,"lat":7.26667,"pop":0},{"id":2367534,"name":"Bé","alt":["Be","Be-Apeyeme","Bé-Apeyémé"],"lon":1.2475,"lat":6.14111,"pop":0},{"id":11205096,"name":"Bè Kpéhénou","lon":1.23213,"lat":6.13675,"pop":0},{"id":11395392,"name":"Be-Kpota","lon":1.25673,"lat":6.15981,"pop":0},{"id":2367533,"name":"Bébémé","lon":1.43333,"lat":6.33333,"pop":0},{"id":2367532,"name":"Bédékopé","lon":0.75,"lat":6.58333,"pop":0},{"id":2367531,"name":"Bediémé","lon":1.1,"lat":6.5,"pop":0},{"id":2367530,"name":"Bédjikpé","alt":["Bedikpe","Bedjikpe","Bédikpé"],"lon":0.95,"lat":6.51667,"pop":0},{"id":2367529,"name":"Bédo","lon":0.85,"lat":6.48333,"pop":0},{"id":2367527,"name":"Bégbé","lon":1.2,"lat":6.61667,"pop":0},{"id":2589846,"name":"Béhémé","alt":["Bebeme","Beheme","Bébémé"],"lon":1.43389,"lat":6.33389,"pop":0},{"id":2367523,"name":"Békando","alt":["Bekando"],"lon":0.61667,"lat":9.78333,"pop":0},{"id":2367521,"name":"Békouleb","alt":["Bekouleb"],"lon":0.76667,"lat":9.25,"pop":0},{"id":2367520,"name":"Békouroubé","alt":["Bekouroube"],"lon":0.51667,"lat":9.1,"pop":0},{"id":2367517,"name":"Bélémélé","alt":["Belemele"],"lon":0.63333,"lat":9.45,"pop":0},{"id":2367516,"name":"Bélondi","alt":["Belondi","Boulasso"],"lon":0.58333,"lat":10.45,"pop":0},{"id":2367515,"name":"Béloukoué","alt":["Beloukoue","Pakpassa"],"lon":1.6,"lat":7.58333,"pop":0},{"id":2367513,"name":"Bémé","lon":0.83333,"lat":6.61667,"pop":0},{"id":2367512,"name":"Bémina Kondji","lon":1.56667,"lat":6.66667,"pop":0},{"id":2367511,"name":"Béna","lon":0.9,"lat":7.53333,"pop":0},{"id":2367508,"name":"Bénali","lon":0.73333,"lat":7.58333,"pop":0},{"id":2367505,"name":"Bénata","alt":["Benata"],"lon":0.5,"lat":9.11667,"pop":0},{"id":2367502,"name":"Béoaja","alt":["Beoaja"],"lon":0.53333,"lat":9.43333,"pop":0},{"id":2589658,"name":"Bésé","lon":1.17667,"lat":6.245,"pop":0},{"id":2367499,"name":"Bessaméké","lon":1.5,"lat":7.18333,"pop":0},{"id":2367498,"name":"Béssarakpenbé","alt":["Bessarakpenbe","Bessarakpennbe","Bessarakpennbé"],"lon":0.58333,"lat":9.3,"pop":0},{"id":2367497,"name":"Bétékpo","lon":1.45,"lat":7.06667,"pop":0},{"id":2367496,"name":"Bétèkpo Kopé","alt":["Betekpo Kope","Betepo","Bétépo"],"lon":0.76667,"lat":6.68333,"pop":0},{"id":2367493,"name":"Bétia","lon":1.08333,"lat":7.85,"pop":0},{"id":2367494,"name":"Bétia","lon":0.96667,"lat":7.8,"pop":0},{"id":2589554,"name":"Bétoglo","lon":1.28194,"lat":6.16639,"pop":0},{"id":2367491,"name":"Bétoué","alt":["Beloue","Betoue","Béloué"],"lon":1.56667,"lat":7.38333,"pop":0},{"id":2367490,"name":"Bia","lon":0.98333,"lat":9.48333,"pop":0},{"id":2367489,"name":"Biaga","lon":0.45,"lat":10.61667,"pop":0},{"id":2367486,"name":"Biakou","lon":0.56667,"lat":10.8,"pop":0},{"id":2367485,"name":"Biakpabé","alt":["Biakopabe","Biakopabé","Biakpabe"],"lon":0.59902,"lat":9.42255,"pop":0},{"id":2367484,"name":"Biankouri","lon":0.05472,"lat":11.01944,"pop":0},{"id":2367483,"name":"Bibindo","lon":0.61667,"lat":9.95,"pop":0},{"id":2367482,"name":"Bidaïbé","alt":["Bidaibe"],"lon":0.53333,"lat":9.25,"pop":0},{"id":2367479,"name":"Bidjabé","alt":["Bidjabe","Bitjabe","Bitjabé"],"lon":0.8,"lat":9.73333,"pop":0},{"id":2367480,"name":"Bidjabé","alt":["Bidjabe","Bitjabe","Bitjabé"],"lon":0.4,"lat":9.58333,"pop":0},{"id":2367478,"name":"Bidjanga","alt":["Bidjenga"],"lon":0.27083,"lat":10.7175,"pop":0},{"id":2367476,"name":"Bidokékopé","lon":1.13333,"lat":7.06667,"pop":0},{"id":2367475,"name":"Biduimé","alt":["Bidoeme","Bidoemé","Biduime"],"lon":1.01667,"lat":6.63333,"pop":0},{"id":2367474,"name":"Biégou","lon":0.36667,"lat":10.71667,"pop":0},{"id":2367472,"name":"Bigabo","lon":0.85,"lat":9.21667,"pop":0},{"id":2367470,"name":"Bijobébé","alt":["Bijobebe"],"lon":0.6,"lat":9.35,"pop":0},{"id":2367469,"name":"Bijomanbé","alt":["Bijomanbe"],"lon":0.6,"lat":9.35,"pop":0},{"id":2367468,"name":"Bikambombé","alt":["Bikambombe","Bikambonbe","Bikambonbé","Bikammbommbe","Bikammbommbé"],"lon":0.6,"lat":9.4,"pop":0},{"id":2367466,"name":"Bikoutikpandi","lon":0.75,"lat":9.25,"pop":0},{"id":2367465,"name":"Bikpadiab","lon":0.45,"lat":9.7,"pop":0},{"id":2367464,"name":"Bikpandib","alt":["Pikpandib"],"lon":0.36667,"lat":9.55,"pop":0},{"id":2367462,"name":"Bilamoinga","lon":0.63333,"lat":10.93333,"pop":0},{"id":2367458,"name":"Bimaldé","lon":1.2,"lat":7.88333,"pop":0},{"id":2367456,"name":"Binadioub","lon":0.53333,"lat":9.61667,"pop":0},{"id":2367455,"name":"Binadioubé","alt":["Binadioube"],"lon":0.56667,"lat":9.3,"pop":0},{"id":2367453,"name":"Binako","lon":0.9,"lat":9.18333,"pop":0},{"id":2367451,"name":"Binanoualiba","lon":0.76667,"lat":9.25,"pop":0},{"id":2367450,"name":"Binaparba","lon":0.76667,"lat":9.23333,"pop":0},{"id":2367449,"name":"Binatapé","alt":["Binatape"],"lon":0.6,"lat":9.25,"pop":0},{"id":2367448,"name":"Bindiba","lon":0.78333,"lat":9.55,"pop":0},{"id":2367445,"name":"Bini Kopé","lon":1.23417,"lat":6.31722,"pop":0},{"id":2367443,"name":"Birini","lon":1.2,"lat":8.9,"pop":0},{"id":2367441,"name":"Bissaomé","lon":1.13333,"lat":6.93333,"pop":0},{"id":2367439,"name":"Bissibi","lon":0.61667,"lat":9.43333,"pop":0},{"id":2367438,"name":"Bissokpabé","alt":["Bisoukpabe","Bisoukpabé","Bissokpabe"],"lon":0.56667,"lat":9.28333,"pop":0},{"id":2367437,"name":"Bitankpan","lon":0.61667,"lat":9.45,"pop":0},{"id":2367481,"name":"Bitchabé","alt":["Bidjabe","Bidjabé","Bitchabe","Bitjaba","Bitjabe","Bityaba"],"lon":0.58235,"lat":9.32092,"pop":0},{"id":2367436,"name":"Bitiakpa","lon":0.63333,"lat":9.51667,"pop":0},{"id":2367435,"name":"Bittindam","lon":0.38333,"lat":9.9,"pop":0},{"id":2589758,"name":"Bla","lon":1.20528,"lat":6.21694,"pop":0},{"id":2367431,"name":"Blakpa","alt":["Blakpe"],"lon":1.16667,"lat":6.98333,"pop":0},{"id":2367432,"name":"Blakpa","lon":0.76667,"lat":6.86667,"pop":0},{"id":2367430,"name":"Blakpa Kopé","lon":1.3,"lat":6.65,"pop":0},{"id":2367429,"name":"Blama Kondji","lon":1.66667,"lat":6.4,"pop":0},{"id":12494068,"name":"Blamonga","lon":0.57772,"lat":10.93655,"pop":0},{"id":2367427,"name":"Bléonoukopé","lon":1.3,"lat":7.48333,"pop":0},{"id":2367426,"name":"Blétérikopé","lon":0.73333,"lat":6.48333,"pop":0},{"id":2367425,"name":"Blidokopé","lon":0.71667,"lat":6.66667,"pop":0},{"id":2367423,"name":"Blitta","alt":["Bliba","Blibba","Blita","Blita-gare"],"lon":0.98595,"lat":8.32335,"pop":0},{"id":2367422,"name":"Blitta Kotokoli","lon":1.01667,"lat":8.33333,"pop":0},{"id":2367421,"name":"Blitta Losso","alt":["Blita"],"lon":1.01667,"lat":8.33333,"pop":0},{"id":2367420,"name":"Bloma","lon":0.65,"lat":6.96667,"pop":0},{"id":2367419,"name":"Bloumfou","alt":["Blomfou","Blumfu","Brouffou"],"lon":0.68333,"lat":7.73333,"pop":0},{"id":2367416,"name":"Boanakopé","lon":1.13333,"lat":7,"pop":0},{"id":2367415,"name":"Boatzanarou","lon":1.08333,"lat":7.35,"pop":0},{"id":2589602,"name":"Bobolé","lon":1.37056,"lat":6.16944,"pop":0},{"id":2589504,"name":"Bodavé","lon":1.30917,"lat":6.23806,"pop":0},{"id":2367413,"name":"Bodié","lon":1.51667,"lat":8.08333,"pop":0},{"id":2367411,"name":"Bodjendi Sada","lon":1.3,"lat":7.61667,"pop":0},{"id":2367410,"name":"Bodjondé","alt":["Bodjonde","Bondjonde","Bondjondé"],"lon":1.03333,"lat":8.43333,"pop":0},{"id":2367409,"name":"Bodo","alt":["Bedo","Bédo"],"lon":0.85,"lat":6.51667,"pop":0},{"id":2367408,"name":"Bodoudé","alt":["Bodoude","Pedaude","Pédaudé"],"lon":1.28333,"lat":9.33333,"pop":0},{"id":2367407,"name":"Bodoukpé","alt":["Bodougpe","Bodougpé","Bodoukpe","Kolokpe","Kolokpé"],"lon":1.1575,"lat":6.46083,"pop":0},{"id":2367406,"name":"Boébé","lon":1.21667,"lat":7.3,"pop":0},{"id":2367404,"name":"Boga Kopé","lon":1.185,"lat":6.30944,"pop":0},{"id":2367403,"name":"Bogan","alt":["Boga"],"lon":1.21667,"lat":6.65,"pop":0},{"id":2367402,"name":"Bogan Afoudomé","alt":["Boga Afoudome","Boga Afoudomé","Bogan","Bogan Afoudome"],"lon":1.21667,"lat":6.66667,"pop":0},{"id":2367400,"name":"Bogdélo Kopé","lon":1.01667,"lat":6.33333,"pop":0},{"id":2367399,"name":"Bogo Arlon","alt":["Bogo","Bogo Ahlo"],"lon":0.66667,"lat":7.26667,"pop":0},{"id":2367397,"name":"Bogokopé","lon":1.06667,"lat":6.98333,"pop":0},{"id":2367398,"name":"Bogokopé","lon":1.06667,"lat":6.93333,"pop":0},{"id":2367395,"name":"Bogou","alt":["Bogu"],"lon":0.18333,"lat":10.65,"pop":0},{"id":2367417,"name":"Bohou","alt":["Bo"],"lon":1.16667,"lat":9.58333,"pop":0},{"id":2367392,"name":"Boilougou","lon":0.56667,"lat":10.75,"pop":0},{"id":2367391,"name":"Boinintinga","alt":["Boirintinga"],"lon":0.8,"lat":10.6,"pop":0},{"id":2367390,"name":"Boinkéré","lon":0.7,"lat":7.66667,"pop":0},{"id":2367389,"name":"Boissi","lon":0.78333,"lat":7.46667,"pop":0},{"id":2367388,"name":"Bojonk","lon":1.13333,"lat":9.2,"pop":0},{"id":2367386,"name":"Boko","lon":1.21667,"lat":7.58333,"pop":0},{"id":2367387,"name":"Boko","lon":1.53333,"lat":6.45,"pop":0},{"id":2367384,"name":"Bokohoé","lon":1.6,"lat":7.25,"pop":0},{"id":2367383,"name":"Bokokopé","lon":1.13333,"lat":6.61667,"pop":0},{"id":2367381,"name":"Bokourobé","alt":["Bokourobe"],"lon":0.46667,"lat":9.08333,"pop":0},{"id":2367379,"name":"Bola","lon":1.23333,"lat":9.31667,"pop":0},{"id":2589668,"name":"Bolo Kopé","lon":1.21444,"lat":6.24417,"pop":0},{"id":2367376,"name":"Bolomegblé","lon":0.63333,"lat":6.81667,"pop":0},{"id":2365505,"name":"Bolou Kpéta","alt":["Bolou Kpeta","Kpeta","Kpéta"],"lon":1.09583,"lat":6.44917,"pop":0},{"id":2367375,"name":"Bolougan","alt":["Bolou"],"lon":1.17333,"lat":6.42361,"pop":0},{"id":2367374,"name":"Bombonagui","alt":["Bommbonagui"],"lon":0.58333,"lat":9.93333,"pop":0},{"id":2367373,"name":"Bomboua","lon":1.4,"lat":9.28333,"pop":0},{"id":2367294,"name":"Bombouaka","alt":["Boumbouaka"],"lon":0.20722,"lat":10.70361,"pop":0},{"id":2367370,"name":"Bomongue","lon":0.2,"lat":10.85,"pop":0},{"id":2367371,"name":"Bomongué","lon":0.05,"lat":10.83333,"pop":0},{"id":2367366,"name":"Bongboldo","lon":0.65,"lat":9.8,"pop":0},{"id":2367365,"name":"Bongbon","lon":0.65,"lat":9.86667,"pop":0},{"id":2367364,"name":"Bongoulou","alt":["Bolo"],"lon":0.66667,"lat":8.98333,"pop":0},{"id":2367362,"name":"Boni","lon":0.63333,"lat":10.3,"pop":0},{"id":2367357,"name":"Bonodoko","lon":1.13333,"lat":7.36667,"pop":0},{"id":2367356,"name":"Bonsougou","lon":0.51667,"lat":10.33333,"pop":0},{"id":2367355,"name":"Bontan","lon":1.21667,"lat":10.03333,"pop":0},{"id":2367354,"name":"Bopaké","lon":0.13333,"lat":10.68333,"pop":0},{"id":2367353,"name":"Borbogou","lon":0.6,"lat":9.53333,"pop":0},{"id":2367352,"name":"Borgou","alt":["Bergou","Borgu"],"lon":0.57694,"lat":10.76361,"pop":0},{"id":2367351,"name":"Boro","lon":0.55,"lat":9.48333,"pop":0},{"id":2367350,"name":"Borobodji","lon":1.55,"lat":8.21667,"pop":0},{"id":2367349,"name":"Borokpindo","lon":0.66667,"lat":9.7,"pop":0},{"id":2589556,"name":"Bosou","lon":1.25306,"lat":6.1525,"pop":0},{"id":2367346,"name":"Bossofémé","alt":["Bosofeme","Bosofémé","Bossofeme"],"lon":1.58333,"lat":6.53333,"pop":0},{"id":2367345,"name":"Bossou Vegou","lon":1.36667,"lat":6.86667,"pop":0},{"id":2367338,"name":"Bouandaou","lon":1.15,"lat":7.73333,"pop":0},{"id":2367335,"name":"Bouassé","alt":["Bouase","Bouasse","Bouasé"],"lon":0.33333,"lat":10.61667,"pop":0},{"id":2367334,"name":"Boubogou","lon":0.31667,"lat":10.66667,"pop":0},{"id":2367330,"name":"Boudiédou","lon":0.9,"lat":10.98333,"pop":0},{"id":2367327,"name":"Bouélé","alt":["Bouele"],"lon":0.58333,"lat":9.51667,"pop":0},{"id":2367326,"name":"Bouénaou","lon":1.01667,"lat":7.71667,"pop":0},{"id":2367325,"name":"Boufalé","alt":["Boufale"],"lon":1.33167,"lat":9.86361,"pop":0},{"id":2367323,"name":"Boufouli Boko Losso","alt":["Defali-Boco"],"lon":1.06667,"lat":8.31667,"pop":0},{"id":2367322,"name":"Bougab","lon":0.75,"lat":9.66667,"pop":0},{"id":2367321,"name":"Bougnarou","lon":1.1,"lat":7.46667,"pop":0},{"id":2367318,"name":"Bougou","lon":0.25,"lat":10.98333,"pop":0},{"id":2367319,"name":"Bougou","lon":0.28333,"lat":10.63333,"pop":0},{"id":2367316,"name":"Bougri","lon":0.58333,"lat":10.2,"pop":0},{"id":2367315,"name":"Bouhori","lon":0.61667,"lat":9.91667,"pop":0},{"id":2367314,"name":"Bouita","lon":0.73333,"lat":6.86667,"pop":0},{"id":2367310,"name":"Boukouakou","lon":0.63333,"lat":10.01667,"pop":0},{"id":2367308,"name":"Boukoukpanbé","alt":["Boukoukpanbe"],"lon":0.63333,"lat":9.41667,"pop":0},{"id":2367307,"name":"Boukpassiba","lon":0.75,"lat":9.25,"pop":0},{"id":2367306,"name":"Bouladé","lon":1.21667,"lat":9.43333,"pop":0},{"id":2367302,"name":"Boulogou","lon":0.25,"lat":10.66667,"pop":0},{"id":2367303,"name":"Boulohou","alt":["Boulo","Gboloho"],"lon":0.67232,"lat":8.76648,"pop":0},{"id":2367301,"name":"Boulou","lon":0.95,"lat":9.28333,"pop":0},{"id":2367297,"name":"Boulouguioualé","alt":["Boulougiouale","Boulougioualé","Boulouguiouale"],"lon":0.66667,"lat":10.85,"pop":0},{"id":2367296,"name":"Bouman","lon":0.48333,"lat":9.7,"pop":0},{"id":2367295,"name":"Boumbéri","lon":1.28333,"lat":9.06667,"pop":0},{"id":2367292,"name":"Boumouan","lon":0.35,"lat":10.75,"pop":0},{"id":2367288,"name":"Boundialé","alt":["Boundiale"],"lon":0.51667,"lat":9.65,"pop":0},{"id":2367287,"name":"Boundido","lon":0.58333,"lat":9.6,"pop":0},{"id":2367286,"name":"Boundjouaré","alt":["Boundjouare","Boundjouaro"],"lon":0.26667,"lat":10.81667,"pop":0},{"id":2367282,"name":"Boungbalé","lon":0.66667,"lat":9.85,"pop":0},{"id":2367283,"name":"Boungbalé","lon":0.5,"lat":9.78333,"pop":0},{"id":2367284,"name":"Boungbalé","lon":0.51667,"lat":9.66667,"pop":0},{"id":2367280,"name":"Bounkoulinki","lon":0.65,"lat":9.33333,"pop":0},{"id":2367279,"name":"Bounkouloum","lon":0.91667,"lat":9.45,"pop":0},{"id":2367278,"name":"Bounlaré","alt":["Bounlare"],"lon":0.76667,"lat":9.4,"pop":0},{"id":2367276,"name":"Bounon","lon":1.1,"lat":9.48333,"pop":0},{"id":2367275,"name":"Bounoubana","lon":-0.03333,"lat":10.76667,"pop":0},{"id":2367274,"name":"Bountourouga","lon":0.63333,"lat":10.25,"pop":0},{"id":2367272,"name":"Bourgou","lon":0.93333,"lat":9.73333,"pop":0},{"id":2367271,"name":"Bourgué","lon":0.13333,"lat":10.55,"pop":0},{"id":2367270,"name":"Bourk","lon":0.11667,"lat":10.61667,"pop":0},{"id":2367266,"name":"Boussékou","alt":["Boussekou"],"lon":0.85,"lat":9.46667,"pop":0},{"id":2367264,"name":"Boussié","alt":["Boussie"],"lon":0.43333,"lat":9.9,"pop":0},{"id":2367260,"name":"Boutado","lon":0.68333,"lat":9.35,"pop":0},{"id":2367258,"name":"Boutanièmpa","lon":0.71667,"lat":9.95,"pop":0},{"id":2367257,"name":"Boutiatialé","alt":["Boutiatiale"],"lon":0.56667,"lat":9.71667,"pop":0},{"id":2367256,"name":"Bouto","lon":1.16667,"lat":7.66667,"pop":0},{"id":2367254,"name":"Boutob","lon":0.68333,"lat":9.36667,"pop":0},{"id":2367252,"name":"Bouvolem","alt":["Bouvoleme","Bouvolèmé","Bowolem"],"lon":1.08333,"lat":8.6,"pop":0},{"id":2367250,"name":"Bouya","lon":1.43333,"lat":8.83333,"pop":0},{"id":2367247,"name":"Bouzaloda","lon":1.05,"lat":9.11667,"pop":0},{"id":2367245,"name":"Bouzem","lon":0.95,"lat":9.43333,"pop":0},{"id":2367242,"name":"Bovéle","lon":1.31667,"lat":7.45,"pop":0},{"id":2367241,"name":"Bovimé","lon":1.6,"lat":7.35,"pop":0},{"id":2589829,"name":"Boyi","lon":1.22444,"lat":6.16556,"pop":0},{"id":2367240,"name":"Brékoukou","lon":0.71667,"lat":7.71667,"pop":0},{"id":2367239,"name":"Broda","lon":0.76667,"lat":7.83333,"pop":0},{"id":2367236,"name":"Chaboua","lon":0.9,"lat":9.4,"pop":0},{"id":2367234,"name":"Chalandé","lon":1.18333,"lat":9.1,"pop":0},{"id":2367233,"name":"Chapouko","lon":0.61667,"lat":9.1,"pop":0},{"id":2367232,"name":"Chénakoé","lon":1.61667,"lat":7.1,"pop":0},{"id":2367230,"name":"Chialakoé","lon":1.63333,"lat":7.13333,"pop":0},{"id":2367228,"name":"Chila","lon":1.33333,"lat":7.25,"pop":0},{"id":2367227,"name":"Chodouko","lon":0.81667,"lat":9.38333,"pop":0},{"id":2367225,"name":"Dabogou","lon":0.26667,"lat":10.71667,"pop":0},{"id":2367224,"name":"Daboukopé","lon":1.38333,"lat":7.5,"pop":0},{"id":2367223,"name":"Dabouté","alt":["Daboute"],"lon":0.73333,"lat":9.56667,"pop":0},{"id":2367222,"name":"Dadekpé","alt":["Averekpe","Avérékpé","Dadekpe"],"lon":1.01667,"lat":6.65,"pop":0},{"id":2367221,"name":"Dadiérémé","lon":1.43333,"lat":7.08333,"pop":0},{"id":2367219,"name":"Dadja","lon":1.55,"lat":8.08333,"pop":0},{"id":2367220,"name":"Dadja","alt":["Avedje"],"lon":1.16667,"lat":7.43333,"pop":0},{"id":2367218,"name":"Dafé","lon":0.66667,"lat":7.71667,"pop":0},{"id":2367216,"name":"Dafo","lon":0.71667,"lat":7.25,"pop":0},{"id":2367217,"name":"Dafo","lon":1.1,"lat":6.93333,"pop":0},{"id":2367214,"name":"Dafolényamé","lon":0.98333,"lat":6.65,"pop":0},{"id":2367215,"name":"Dafolényamé","alt":["Dafoleame","Dafolenyame","Dafoléamé"],"lon":1.05,"lat":6.51667,"pop":0},{"id":2367213,"name":"Dafounoukopé","alt":["Dafonou","Dafounoukope"],"lon":0.88333,"lat":6.68333,"pop":0},{"id":2367212,"name":"Dagakou","lon":1.5,"lat":7.23333,"pop":0},{"id":2367210,"name":"Dagbati","lon":1.5,"lat":6.48333,"pop":0},{"id":2367204,"name":"Dagé","alt":["Dage","Dague","Dagué"],"lon":1.40472,"lat":6.20278,"pop":0},{"id":2367209,"name":"Dagni","lon":0.76667,"lat":7.81667,"pop":0},{"id":2367207,"name":"Dagnivi","lon":0.76667,"lat":7.8,"pop":0},{"id":2367205,"name":"Dagou","lon":1.31667,"lat":8.05,"pop":0},{"id":2367203,"name":"Daho","lon":0.16667,"lat":10.6,"pop":0},{"id":2367202,"name":"Dahoué","lon":1.53333,"lat":6.76667,"pop":0},{"id":2367201,"name":"Dahoumé","lon":1.06667,"lat":6.63333,"pop":0},{"id":2367200,"name":"Daïdéhoué","lon":1.6,"lat":7.33333,"pop":0},{"id":2367199,"name":"Daïrohoé","lon":1.6,"lat":7.1,"pop":0},{"id":2367198,"name":"Dako","alt":["Daude","Daudé"],"lon":1.05,"lat":9.31667,"pop":0},{"id":2367197,"name":"Dakondji","lon":1.66667,"lat":6.28333,"pop":0},{"id":2367196,"name":"Dakouadé","lon":0.65,"lat":10.55,"pop":0},{"id":2367195,"name":"Dakpa","lon":0.7,"lat":7.66667,"pop":0},{"id":2367193,"name":"Dakpétab","alt":["Dakpetab"],"lon":0.4,"lat":9.66667,"pop":0},{"id":2367191,"name":"Dalagou","lon":0.28333,"lat":10.96667,"pop":0},{"id":2367192,"name":"Dalagou","lon":0.26667,"lat":10.96667,"pop":0},{"id":2367190,"name":"Dalaïka","lon":0.61667,"lat":10.26667,"pop":0},{"id":2367189,"name":"Dalangda","lon":1.01667,"lat":8.63333,"pop":0},{"id":2367186,"name":"Dalavé","lon":0.75,"lat":6.85,"pop":0},{"id":2367187,"name":"Dalavé","lon":1.24861,"lat":6.38611,"pop":0},{"id":2367185,"name":"Dalavé Todomé","lon":0.68333,"lat":7.2,"pop":0},{"id":2367183,"name":"Dalia","lon":1.21667,"lat":6.83333,"pop":0},{"id":2589638,"name":"Daliko","alt":["Dalako"],"lon":1.12583,"lat":6.23861,"pop":0},{"id":2589860,"name":"Damabali","lon":1.46806,"lat":6.46389,"pop":0},{"id":2367182,"name":"Damadé","alt":["Adame","Adamé","Damade"],"lon":0.83333,"lat":6.7,"pop":0},{"id":2367176,"name":"Dangbéssito","alt":["Dagbesito","Dagbésito","Dangbessito"],"lon":1.1,"lat":6.25,"pop":0},{"id":2367175,"name":"Dangma","lon":1.41667,"lat":9.05,"pop":0},{"id":2367174,"name":"Danhadanha","lon":1.36667,"lat":8.75,"pop":0},{"id":2367170,"name":"Danlé","lon":0.76667,"lat":7.78333,"pop":0},{"id":2367169,"name":"Danouaga","lon":0.73333,"lat":10.41667,"pop":0},{"id":2367168,"name":"Danpiong","lon":0.23333,"lat":10.91667,"pop":0},{"id":2367167,"name":"Dantcho","alt":["Dantjo"],"lon":1.48333,"lat":8.98333,"pop":0},{"id":2367165,"name":"Dapanpergou","lon":0.21667,"lat":10.83333,"pop":0},{"id":2367164,"name":"Dapaong","alt":["Dapango","Dapaon","Dapaongas","Dapaonge","Dapong","da pang","dabawnq","dapangu","dapaong","dapawng","Дапаон","Дапаонге","داباونق","داپاونگ","ダパング","达庞","다파옹"],"lon":0.20762,"lat":10.86225,"pop":33324},{"id":2367161,"name":"Daroué","lon":1.51667,"lat":6.76667,"pop":0},{"id":2367159,"name":"Dasagba","alt":["Dazagba"],"lon":1.61667,"lat":7.61667,"pop":0},{"id":2367158,"name":"Dassékopé","lon":1.11667,"lat":7.46667,"pop":0},{"id":2367157,"name":"Dassikopé","alt":["Avogo","Dasi Kope","Dasi Kopé","Dassikope"],"lon":0.91667,"lat":6.58333,"pop":0},{"id":2367156,"name":"Dassou Kondji","alt":["Dasou Kondji"],"lon":1.6,"lat":6.5,"pop":0},{"id":2367155,"name":"Dassouti","alt":["Dasouti"],"lon":0.03333,"lat":10.76667,"pop":0},{"id":2367154,"name":"Datoukopé","lon":1.05,"lat":7.93333,"pop":0},{"id":2367153,"name":"Davédé","lon":1.26972,"lat":6.43444,"pop":0},{"id":2367152,"name":"Davié","alt":["Davie","Davye","Davyé","Dawie-Dekpo","Dawië-Dékpo"],"lon":1.205,"lat":6.38472,"pop":0},{"id":2589709,"name":"Davo","lon":1.14778,"lat":6.18111,"pop":0},{"id":2367151,"name":"Dayébou","lon":0.66667,"lat":10.65,"pop":0},{"id":2367128,"name":"Dé Kopé","alt":["De Kope","Kleme","Klémé"],"lon":1.2825,"lat":6.27444,"pop":0},{"id":2367145,"name":"Dédéké","alt":["Dedeke","Derheke","Dérhéké"],"lon":1.05,"lat":6.66667,"pop":0},{"id":2367143,"name":"Dèdjé","alt":["Dedje","Zobedji","Zobédji"],"lon":1.09972,"lat":6.48667,"pop":0},{"id":2367142,"name":"Dédomé","alt":["Dadome","Dedome"],"lon":0.98333,"lat":7.5,"pop":0},{"id":2367140,"name":"Défalé","alt":["Defale"],"lon":1.08639,"lat":9.87611,"pop":0},{"id":2367141,"name":"Défalé","lon":1.1,"lat":8.28333,"pop":0},{"id":11395929,"name":"Dégbénou","lon":1.58546,"lat":6.23232,"pop":0},{"id":2367136,"name":"Déguéré","lon":1.6,"lat":8.28333,"pop":0},{"id":2367135,"name":"Déguingué","lon":0.63333,"lat":8.08333,"pop":0},{"id":2367133,"name":"Dekadyé","lon":1.48333,"lat":6.61667,"pop":0},{"id":2367131,"name":"Dékamé","lon":1.15,"lat":6.58333,"pop":0},{"id":2367132,"name":"Dékamé","lon":1.23444,"lat":6.24528,"pop":0},{"id":2367130,"name":"Déklémé","lon":1.11667,"lat":6.63333,"pop":0},{"id":2367129,"name":"Dékondji","lon":1.55,"lat":6.76667,"pop":0},{"id":2367127,"name":"Dékou Kopé","lon":1.46667,"lat":6.65,"pop":0},{"id":2367125,"name":"Dekpo","lon":1.3725,"lat":6.27833,"pop":0},{"id":2367126,"name":"Dekpo","lon":1.11556,"lat":6.21917,"pop":0},{"id":2367124,"name":"Dékpo","lon":1.07833,"lat":6.45861,"pop":0},{"id":2367123,"name":"Déléga","lon":0.63333,"lat":10.26667,"pop":0},{"id":2367122,"name":"Démakpoé","alt":["Demakpoe","Evamakpoe","Evamakpoé"],"lon":1.20361,"lat":6.24222,"pop":0},{"id":2367121,"name":"Démé","alt":["Deme","Demi-Okpahoue","Demi-Okpahoué"],"lon":1.06667,"lat":7.6,"pop":0},{"id":2367119,"name":"Démon","alt":["Demon"],"lon":0.63333,"lat":9.85,"pop":0},{"id":2367116,"name":"Dénakapoé","lon":0.96667,"lat":6.75,"pop":0},{"id":2367115,"name":"Dengbaza","lon":0.93333,"lat":9.43333,"pop":0},{"id":2589647,"name":"Denliko","lon":1.15444,"lat":6.2475,"pop":0},{"id":2367114,"name":"Dénou","lon":0.66667,"lat":7.31667,"pop":0},{"id":2367113,"name":"Déomouana","lon":0.28333,"lat":10.88333,"pop":0},{"id":2367112,"name":"Déréboua","lon":1.03333,"lat":8.56667,"pop":0},{"id":2367107,"name":"Détokpo","lon":1.6,"lat":7.3,"pop":0},{"id":2367104,"name":"Dévé","lon":1.13333,"lat":6.61667,"pop":0},{"id":2367105,"name":"Dévé","lon":1.21667,"lat":6.43333,"pop":0},{"id":2367102,"name":"Dévégo","lon":1.34389,"lat":6.19306,"pop":0},