[{"id":7522183,"name":"Atafu Village","alt":["Atafu"],"lon":-172.51591,"lat":-8.54212,"pop":524},{"id":4031110,"name":"Fale old settlement","alt":["Fakaofu Village","Fale"],"lon":-171.24675,"lat":-9.38516,"pop":120},{"id":7603117,"name":"Fenua Fala New Settlement","lon":-171.26536,"lat":-9.37387,"pop":0},{"id":7603129,"name":"Motuhaga","lon":-171.84591,"lat":-9.20311,"pop":0},{"id":7522181,"name":"Nukunonu","alt":["Nukunonu Village"],"lon":-171.84804,"lat":-9.20045,"pop":426}]