[{"id":1942885,"name":"Abafala","lon":126.56528,"lat":-8.55361,"pop":0},{"id":1943741,"name":"Abat","lon":125.29861,"lat":-8.73278,"pop":0},{"id":8629251,"name":"Abat-oan","lon":126.05766,"lat":-8.97185,"pop":0},{"id":1945365,"name":"Abere","lon":126.83611,"lat":-8.54083,"pop":0},{"id":8629783,"name":"Abo","lon":126.56667,"lat":-8.63333,"pop":0},{"id":1943590,"name":"Abomatebean","lon":126.56444,"lat":-8.64306,"pop":0},{"id":1943714,"name":"Abuli","lon":125.23111,"lat":-8.845,"pop":0},{"id":1944041,"name":"Aburo","lon":125.24028,"lat":-9.19167,"pop":0},{"id":1946052,"name":"Abuti","lon":126.72222,"lat":-8.54056,"pop":0},{"id":1945264,"name":"Acaidoroloho","alt":["Acadiro Loho"],"lon":126.84611,"lat":-8.68111,"pop":0},{"id":1943218,"name":"Acakuata","lon":126.41472,"lat":-8.66194,"pop":0},{"id":1945182,"name":"Acara","lon":126.82889,"lat":-8.72306,"pop":0},{"id":1944635,"name":"Acolimamate","lon":125.495,"lat":-8.755,"pop":0},{"id":8617843,"name":"Acubilitoho","lon":125.66667,"lat":-8.71667,"pop":0},{"id":1943922,"name":"Acubira","lon":125.23028,"lat":-8.96806,"pop":0},{"id":1944721,"name":"Acubuli","lon":125.4125,"lat":-8.945,"pop":0},{"id":8629850,"name":"Aculau","lon":125.2075,"lat":-8.75833,"pop":0},{"id":8630074,"name":"Acumano","lon":125.35,"lat":-8.66667,"pop":0},{"id":8629000,"name":"Acumao","lon":125.6604,"lat":-8.6124,"pop":0},{"id":1945643,"name":"Acumata","lon":125.71139,"lat":-8.82333,"pop":0},{"id":1943015,"name":"Adafari","lon":126.85306,"lat":-8.43889,"pop":0},{"id":1944150,"name":"Adara","lon":125.56472,"lat":-8.19639,"pop":0},{"id":1945568,"name":"Adentuik","lon":125.37095,"lat":-9.23522,"pop":0},{"id":1943479,"name":"Adoi","lon":126.68861,"lat":-8.6375,"pop":0},{"id":1945362,"name":"Aelaneno","lon":126.83472,"lat":-8.54361,"pop":0},{"id":8629861,"name":"Aelebere","lon":126.82278,"lat":-8.71306,"pop":0},{"id":1942735,"name":"Aelemilari","lon":126.59564,"lat":-8.49016,"pop":0},{"id":1943212,"name":"Aelita","lon":126.47778,"lat":-8.69861,"pop":0},{"id":1945380,"name":"Afa","lon":126.83139,"lat":-8.5075,"pop":0},{"id":8643021,"name":"Afabubu","lon":126.81889,"lat":-8.48556,"pop":0},{"id":1942895,"name":"Afaca","lon":126.60111,"lat":-8.54556,"pop":0},{"id":1942956,"name":"Afacaimau","lon":126.43333,"lat":-8.52639,"pop":0},{"id":1942957,"name":"Afagua Manufai","lon":126.43639,"lat":-8.52583,"pop":0},{"id":1945357,"name":"Afaia","lon":126.83361,"lat":-8.54583,"pop":0},{"id":1943299,"name":"Afalari","lon":126.64222,"lat":-8.63056,"pop":0},{"id":1943333,"name":"Afaloicai","lon":126.67167,"lat":-8.68778,"pop":0},{"id":1943604,"name":"Afaloicai","lon":126.61,"lat":-8.65778,"pop":0},{"id":8643808,"name":"Afaloicai","lon":126.51667,"lat":-8.68333,"pop":0},{"id":1943356,"name":"Afguia","lon":126.67722,"lat":-8.62556,"pop":0},{"id":1943273,"name":"Afloicai","lon":126.56306,"lat":-8.77528,"pop":0},{"id":1944368,"name":"Afumalule","lon":124.37,"lat":-9.34111,"pop":0},{"id":1944045,"name":"Ager","lon":125.20583,"lat":-9.18528,"pop":0},{"id":1945198,"name":"Agoltama","lon":125.37789,"lat":-9.0465,"pop":0},{"id":1944783,"name":"Ahegara","lon":125.38972,"lat":-8.88778,"pop":0},{"id":1942854,"name":"Ahic","lon":126.2125,"lat":-8.83611,"pop":0},{"id":8629359,"name":"Ahinarae","lon":125.25,"lat":-9.31667,"pop":0},{"id":1945595,"name":"Ahinarai","lon":125.25639,"lat":-9.31306,"pop":0},{"id":8643265,"name":"Ai-Assa","lon":125.31735,"lat":-9.04055,"pop":0},{"id":1944840,"name":"Aiabe","lon":125.37028,"lat":-8.97111,"pop":0},{"id":1945255,"name":"Aiaras","lon":125.35194,"lat":-9.0025,"pop":0},{"id":1943396,"name":"Aiasa","lon":125.08028,"lat":-8.95833,"pop":0},{"id":1945203,"name":"Aiasa","lon":125.31253,"lat":-9.04375,"pop":0},{"id":1943125,"name":"Aibana","lon":125.66312,"lat":-8.67455,"pop":0},{"id":1943158,"name":"Aibitikeou","lon":125.53861,"lat":-8.69333,"pop":0},{"id":1945029,"name":"Aibote","lon":125.31694,"lat":-8.80333,"pop":0},{"id":1943126,"name":"Aibutihun","lon":125.66898,"lat":-8.67625,"pop":0},{"id":1944650,"name":"Aiceo","lon":125.38861,"lat":-8.80667,"pop":0},{"id":1942652,"name":"Aidabahare","lon":125.62845,"lat":-8.57032,"pop":0},{"id":1943878,"name":"Aidabaleten","lon":125.14167,"lat":-8.82778,"pop":0},{"id":1944023,"name":"Aidabaleten","lon":125.10167,"lat":-8.78417,"pop":0},{"id":1944980,"name":"Aidabamera","lon":125.31806,"lat":-8.86444,"pop":0},{"id":1943717,"name":"Aidabaraeabe","lon":125.22194,"lat":-8.80944,"pop":0},{"id":1943692,"name":"Aidabasalala","lon":125.18,"lat":-8.87278,"pop":0},{"id":1943823,"name":"Aidac","lon":126.28389,"lat":-8.91056,"pop":0},{"id":1942851,"name":"Aidaklaran","lon":126.2075,"lat":-8.83444,"pop":0},{"id":1945529,"name":"Aidaludo","lon":125.61917,"lat":-9.00722,"pop":0},{"id":1945165,"name":"Aidila","lon":125.72083,"lat":-8.89972,"pop":0},{"id":1943987,"name":"Aidilalaran","lon":125.24722,"lat":-9.31583,"pop":0},{"id":8643544,"name":"Aifro","lon":125.39078,"lat":-8.94496,"pop":0},{"id":1942514,"name":"Aihanexun","lon":125.5832,"lat":-8.58424,"pop":0},{"id":1944991,"name":"Aihatadiu Leten","lon":125.36306,"lat":-8.81889,"pop":0},{"id":1944989,"name":"Aihatadiukraic","lon":125.37139,"lat":-8.82139,"pop":0},{"id":1943038,"name":"Aihatutu","lon":125.43694,"lat":-8.70694,"pop":0},{"id":1945658,"name":"Aihosan","lon":125.65417,"lat":-8.80722,"pop":0},{"id":1944914,"name":"Aihou","lon":125.59028,"lat":-8.87583,"pop":0},{"id":1944358,"name":"Aijauana","lon":124.27778,"lat":-9.34861,"pop":0},{"id":1943652,"name":"Aikau","lon":125.11667,"lat":-8.88333,"pop":0},{"id":1944971,"name":"Aikurus","lon":125.75806,"lat":-8.6175,"pop":0},{"id":1943011,"name":"Ailafa","lon":126.82333,"lat":-8.44722,"pop":0},{"id":1945547,"name":"Ailalec","lon":125.96139,"lat":-9.04472,"pop":0},{"id":1945147,"name":"Ailau","lon":125.70417,"lat":-8.95028,"pop":0},{"id":1945505,"name":"Ailau","lon":125.54444,"lat":-9.05917,"pop":0},{"id":1945186,"name":"Ailebere","lon":126.82278,"lat":-8.71306,"pop":0},{"id":1942681,"name":"Ailelehu","lon":125.62361,"lat":-8.5525,"pop":0},{"id":1942458,"name":"Ailelehun","lon":125.585,"lat":-8.55639,"pop":0},{"id":8629851,"name":"Ailelo","lon":125.30833,"lat":-8.80417,"pop":0},{"id":1651816,"name":"Aileu","alt":["Aileou","Ajleu","Vila General Camona","Vila General Carmona","a yi lai wu","aylyw","Αϊλέου","Айлеу","Աիլեու","אילאו","ایلئو","阿伊萊烏"],"lon":125.56639,"lat":-8.72806,"pop":17356},{"id":1943146,"name":"Aileukota","lon":125.56544,"lat":-8.72461,"pop":0},{"id":1943313,"name":"Ailili","lon":126.01167,"lat":-8.51194,"pop":0},{"id":1944728,"name":"Ailisu","lon":125.40278,"lat":-8.93167,"pop":0},{"id":1942390,"name":"Ailoklaran","lon":125.61278,"lat":-8.565,"pop":0},{"id":1942438,"name":"Ailoklaran","lon":125.56,"lat":-8.56472,"pop":0},{"id":1942713,"name":"Ailoklaran","lon":125.68352,"lat":-8.54527,"pop":0},{"id":1942439,"name":"Ailoklaran Selatan","lon":125.56472,"lat":-8.56917,"pop":0},{"id":1937133,"name":"Ailora","lon":125.63974,"lat":-9.1159,"pop":0},{"id":1944946,"name":"Ailora","lon":125.64194,"lat":-9.11389,"pop":0},{"id":1945544,"name":"Ailora","lon":125.79083,"lat":-9.01528,"pop":0},{"id":1945084,"name":"Ailuli","lon":125.66833,"lat":-8.99333,"pop":0},{"id":1943657,"name":"Aimalai","lon":125.03139,"lat":-8.88111,"pop":0},{"id":1945162,"name":"Aimea","lon":125.35051,"lat":-9.0679,"pop":0},{"id":1942639,"name":"Aimerahun","lon":125.66701,"lat":-8.60679,"pop":0},{"id":1945398,"name":"Aimerliu","lon":125.57417,"lat":-9.13528,"pop":0},{"id":1945017,"name":"Aimerulu","lon":125.32806,"lat":-8.81278,"pop":0},{"id":1945310,"name":"Aimeta","lon":125.39,"lat":-9.01083,"pop":0},{"id":1942865,"name":"Aimetahun","lon":126.20389,"lat":-8.84389,"pop":0},{"id":1943722,"name":"Aimia","lon":125.24361,"lat":-8.79778,"pop":0},{"id":1945492,"name":"Aimorbada","lon":125.64528,"lat":-9.1725,"pop":0},{"id":1942409,"name":"Aimutin 1","lon":125.54667,"lat":-8.55528,"pop":0},{"id":1942410,"name":"Aimutin 2","lon":125.54773,"lat":-8.56205,"pop":0},{"id":1942408,"name":"Aimutin Laran","lon":125.54394,"lat":-8.56128,"pop":0},{"id":1651810,"name":"Ainaro","alt":["Ainaru","Builico","Dystrykt Ainaro","Hato-Builico","Vila de Ainaro"],"lon":125.50816,"lat":-8.99241,"pop":12000},{"id":1943818,"name":"Ainauain","lon":126.36583,"lat":-8.87944,"pop":0},{"id":1944498,"name":"Ainesi","lon":125.75917,"lat":-8.9225,"pop":0},{"id":1945104,"name":"Aiprado","lon":125.35417,"lat":-8.76694,"pop":0},{"id":1943381,"name":"Airae","lon":125.0425,"lat":-8.96694,"pop":0},{"id":1944706,"name":"Airae","lon":125.38472,"lat":-8.97389,"pop":0},{"id":1944855,"name":"Airae","lon":125.35111,"lat":-8.93333,"pop":0},{"id":1944733,"name":"Airai","lon":125.40944,"lat":-8.92667,"pop":0},{"id":1944896,"name":"Airakalau","lon":125.61889,"lat":-8.90056,"pop":0},{"id":1943696,"name":"Airamasala","lon":125.18917,"lat":-8.84583,"pop":0},{"id":1944815,"name":"Airas","lon":125.33528,"lat":-8.98944,"pop":0},{"id":1942677,"name":"Airiti","lon":125.65722,"lat":-8.55444,"pop":0},{"id":1942985,"name":"Airliu","lon":127.04028,"lat":-8.33944,"pop":0},{"id":1944147,"name":"Airport","lon":125.60306,"lat":-8.24389,"pop":0},{"id":1943824,"name":"Aisahe","lon":126.28167,"lat":-8.91333,"pop":0},{"id":1943836,"name":"Aisahe","lon":126.26889,"lat":-8.96444,"pop":0},{"id":1945189,"name":"Aisalgusun","lon":125.34837,"lat":-9.05797,"pop":0},{"id":1943957,"name":"Aisik","lon":125.0475,"lat":-9.23556,"pop":0},{"id":1944032,"name":"Aisik","lon":125.21944,"lat":-9.23139,"pop":0},{"id":1943145,"name":"Aissirimou","lon":125.57146,"lat":-8.72607,"pop":0},{"id":1943363,"name":"Aisucunuc","lon":126.225,"lat":-8.88972,"pop":0},{"id":8643639,"name":"Aitahan","lon":125.17188,"lat":-9.41052,"pop":0},{"id":8643296,"name":"Aitaman","lon":125.17256,"lat":-9.39344,"pop":0},{"id":1942419,"name":"Aitarak Laran","lon":125.56583,"lat":-8.54889,"pop":0},{"id":1944885,"name":"Aitasiabe","lon":125.29139,"lat":-8.92472,"pop":0},{"id":1943314,"name":"Aiteas","lon":126.01583,"lat":-8.51056,"pop":0},{"id":1943303,"name":"Aitehen","lon":126.03056,"lat":-8.51278,"pop":0},{"id":1943754,"name":"Aitemua","lon":125.36528,"lat":-8.74333,"pop":0},{"id":1945109,"name":"Aitemua","lon":125.35806,"lat":-8.75111,"pop":0},{"id":8629901,"name":"Aitenua","lon":125.69,"lat":-8.84389,"pop":0},{"id":1943119,"name":"Aitoi","lon":125.63167,"lat":-8.67306,"pop":0},{"id":1943123,"name":"Aitoi","alt":["Aioi"],"lon":125.65272,"lat":-8.67056,"pop":0},{"id":1943148,"name":"Aitoi","lon":125.56537,"lat":-8.71445,"pop":0},{"id":1943102,"name":"Aitoin","lon":125.64722,"lat":-8.71306,"pop":0},{"id":1943389,"name":"Aitos","lon":125.06167,"lat":-8.95722,"pop":0},{"id":1944177,"name":"Aitos","lon":125.06694,"lat":-9.28778,"pop":0},{"id":1943960,"name":"Aitoun","lon":125.11496,"lat":-9.20172,"pop":0},{"id":1944525,"name":"Aituha","lon":125.77139,"lat":-8.91194,"pop":0},{"id":1943147,"name":"Aitularan","lon":125.56892,"lat":-8.71789,"pop":0},{"id":1944654,"name":"Aitura","lon":125.4025,"lat":-8.79944,"pop":0},{"id":1944891,"name":"Aituto","lon":125.59278,"lat":-8.90028,"pop":0},{"id":1945009,"name":"Akadiruhun","lon":125.65528,"lat":-9.01333,"pop":0},{"id":1945519,"name":"Akadirularan","lon":125.64139,"lat":-9.14417,"pop":0},{"id":1942674,"name":"Akanunu","lon":125.64898,"lat":-8.55689,"pop":0},{"id":1943978,"name":"Akarlaran","lon":125.24611,"lat":-9.35028,"pop":0},{"id":1945494,"name":"Akarlaran","lon":125.65611,"lat":-9.16167,"pop":0},{"id":1944146,"name":"Akrema","lon":125.63472,"lat":-8.13333,"pop":0},{"id":1946032,"name":"Alacafa","lon":126.67917,"lat":-8.50722,"pop":0},{"id":1942959,"name":"Alala","lon":126.43889,"lat":-8.51444,"pop":0},{"id":1651650,"name":"Alas","lon":125.78573,"lat":-9.02072,"pop":0},{"id":1946152,"name":"Alaua","lon":126.6775,"lat":-8.62472,"pop":0},{"id":1943352,"name":"Alaua 1","lon":126.65444,"lat":-8.62833,"pop":0},{"id":1943355,"name":"Alaua 2","lon":126.65778,"lat":-8.62639,"pop":0},{"id":1946136,"name":"Alaua Leten","lon":126.6575,"lat":-8.61944,"pop":0},{"id":8629769,"name":"Alaua-Craik","lon":126.614,"lat":-8.69711,"pop":0},{"id":8643845,"name":"Alawa Craik","lon":126.65,"lat":-8.63333,"pop":0},{"id":8629015,"name":"Alawa Leten","lon":126.65,"lat":-8.61667,"pop":0},{"id":1943883,"name":"Alecou Baru","lon":125.1475,"lat":-8.92083,"pop":0},{"id":1943884,"name":"Alecou Lama","lon":125.15389,"lat":-8.9175,"pop":0},{"id":1651630,"name":"Aliambata","lon":126.58278,"lat":-8.80333,"pop":0},{"id":1944732,"name":"Aliatu","lon":125.40667,"lat":-8.92667,"pop":0},{"id":1943322,"name":"Alooli","lon":126.64028,"lat":-8.69222,"pop":0},{"id":1944765,"name":"Alosain","lon":125.42778,"lat":-8.88806,"pop":0},{"id":1944633,"name":"Amanun","lon":125.92028,"lat":-8.80556,"pop":0},{"id":1943837,"name":"Amarleza","lon":126.26861,"lat":-8.96528,"pop":0},{"id":1945577,"name":"Ames","lon":125.27972,"lat":-9.15917,"pop":0},{"id":1945251,"name":"Anahon","lon":125.27981,"lat":-9.00913,"pop":0},{"id":1945141,"name":"Anapol","lon":125.36931,"lat":-9.10257,"pop":0},{"id":1944138,"name":"Anartutu","lon":125.54944,"lat":-8.26,"pop":0},{"id":1943007,"name":"Anarua","lon":126.82306,"lat":-8.44944,"pop":0},{"id":8643665,"name":"Anauaru","lon":126.44458,"lat":-8.45371,"pop":0},{"id":1942547,"name":"Anaulu","alt":["Analulo"],"lon":126.44866,"lat":-8.4625,"pop":0},{"id":1942543,"name":"Anawaro","lon":126.44111,"lat":-8.45333,"pop":0},{"id":1944972,"name":"Anicalau","lon":125.80361,"lat":-8.61833,"pop":0},{"id":1945161,"name":"Anilumu","lon":125.64778,"lat":-8.92167,"pop":0},{"id":1945569,"name":"Anon","lon":125.34084,"lat":-9.17893,"pop":0},{"id":1942363,"name":"Angkasabaru","lon":126.36167,"lat":-8.505,"pop":0},{"id":1944068,"name":"Aosnak","lon":124.40722,"lat":-9.1825,"pop":0},{"id":1944668,"name":"Apidou","lon":125.41222,"lat":-8.76167,"pop":0},{"id":1945179,"name":"Arara","lon":126.83444,"lat":-8.71694,"pop":0},{"id":1651252,"name":"Arcos","alt":["Cassa","Kassa"],"lon":125.51667,"lat":-9.13333,"pop":0},{"id":1946500,"name":"Areain","lon":125.91667,"lat":-8.735,"pop":0},{"id":1942395,"name":"Areia Branca","lon":125.61611,"lat":-8.53222,"pop":0},{"id":1943231,"name":"Ariana","lon":126.41111,"lat":-8.63667,"pop":0},{"id":1943887,"name":"Arlaeben","lon":125.1625,"lat":-8.89111,"pop":0},{"id":1943753,"name":"Arle","lon":125.34056,"lat":-8.72944,"pop":0},{"id":8644028,"name":"Arleu","lon":125.35,"lat":-8.73333,"pop":0},{"id":1944151,"name":"Arlo","lon":125.59111,"lat":-8.17778,"pop":0},{"id":1944340,"name":"Asabat","lon":124.32778,"lat":-9.37,"pop":0},{"id":1944734,"name":"Asio","lon":125.40528,"lat":-8.92417,"pop":0},{"id":1944821,"name":"Asobea","lon":125.3275,"lat":-8.97556,"pop":0},{"id":1943586,"name":"Asorlema","lon":125.36139,"lat":-8.64111,"pop":0},{"id":1943338,"name":"Assafadae","lon":126.69778,"lat":-8.68389,"pop":0},{"id":1942998,"name":"Assalaino","lon":127.005,"lat":-8.43333,"pop":0},{"id":1944581,"name":"Assi","lon":125.40889,"lat":-8.85639,"pop":0},{"id":1944123,"name":"Assuileten","lon":125.47694,"lat":-8.83639,"pop":0},{"id":1944119,"name":"Asuikraik","alt":["Assuicraic"],"lon":125.47083,"lat":-8.85139,"pop":0},{"id":1945053,"name":"Asulau","lon":125.31667,"lat":-8.77306,"pop":0},{"id":1943110,"name":"Asumata","lon":125.67994,"lat":-8.72112,"pop":0},{"id":1937095,"name":"Asumaten","lon":125.25,"lat":-9.31874,"pop":0},{"id":1937096,"name":"Asumaten","lon":125.25139,"lat":-9.31806,"pop":0},{"id":1945594,"name":"Asumaten","lon":125.26056,"lat":-9.31889,"pop":0},{"id":8629060,"name":"Atabae","lon":125.2,"lat":-8.83333,"pop":0},{"id":1944836,"name":"Atahoc","lon":125.9925,"lat":-8.67528,"pop":0},{"id":1945381,"name":"Ataname","lon":126.83306,"lat":-8.50667,"pop":0},{"id":8629075,"name":"Atara","lon":125.38333,"lat":-8.95,"pop":0},{"id":1944709,"name":"Ataubu","lon":125.37722,"lat":-8.96778,"pop":0},{"id":1635814,"name":"Atauro","alt":["AUT","Mau Mata","Mau Meta","Mau Metan"],"lon":125.60139,"lat":-8.26667,"pop":0},{"id":1944148,"name":"Atekru","lon":125.53472,"lat":-8.22306,"pop":0},{"id":1946056,"name":"Atelari","lon":126.70361,"lat":-8.54667,"pop":0},{"id":1943533,"name":"Ateuaissi","lon":126.51528,"lat":-8.68111,"pop":0},{"id":1944835,"name":"Atolara","lon":125.37222,"lat":-8.99139,"pop":0},{"id":1651079,"name":"Atsabe","alt":["Batuane","Nova Ourem","Nova Ourém"],"lon":125.39806,"lat":-8.925,"pop":0},{"id":1944833,"name":"Atu Lara","lon":125.37222,"lat":-8.99139,"pop":0},{"id":1944811,"name":"Atuaben","lon":125.32889,"lat":-8.9925,"pop":0},{"id":1945253,"name":"Atuaben","lon":125.32747,"lat":-9.00398,"pop":0},{"id":1944829,"name":"Atubrau","lon":125.36694,"lat":-8.97528,"pop":0},{"id":1944730,"name":"Atubuti","lon":125.40528,"lat":-8.93083,"pop":0},{"id":1944879,"name":"Atubuti","lon":125.29083,"lat":-8.94806,"pop":0},{"id":8643091,"name":"Atudara","lon":125.29083,"lat":-8.94806,"pop":0},{"id":1944748,"name":"Atudose","lon":125.41139,"lat":-8.92,"pop":0},{"id":1944809,"name":"Atuegas","lon":125.32306,"lat":-8.99028,"pop":0},{"id":1945254,"name":"Atuela","lon":125.34667,"lat":-9.00639,"pop":0},{"id":8643286,"name":"Atulara","lon":125.36944,"lat":-8.97944,"pop":0},{"id":1945223,"name":"Atulaun","lon":125.30167,"lat":-9.02778,"pop":0},{"id":1943697,"name":"Atumate","lon":125.17611,"lat":-8.83667,"pop":0},{"id":1944731,"name":"Atupae","lon":125.41,"lat":-8.92972,"pop":0},{"id":1945306,"name":"Atupai","lon":125.38999,"lat":-9.00566,"pop":0},{"id":1943946,"name":"Atus","lon":125.19139,"lat":-9.0975,"pop":0},{"id":1651067,"name":"Aubá","alt":["Auba","Babonaro","Bobonaro","Bubo Naro","Vila Armindo Monteiro"],"lon":125.36667,"lat":-9.03333,"pop":0},{"id":1942488,"name":"Aubaca","lon":126.36013,"lat":-8.49052,"pop":0},{"id":1943382,"name":"Aube","lon":125.04667,"lat":-8.96806,"pop":0},{"id":8629292,"name":"Aubeon","lon":126.06667,"lat":-8.98333,"pop":0},{"id":1937249,"name":"Audian","lon":125.28154,"lat":-9.32754,"pop":0},{"id":1942456,"name":"Audian","lon":125.58206,"lat":-8.5571,"pop":0},{"id":1945271,"name":"Audian","lon":125.45389,"lat":-9.19806,"pop":0},{"id":1943290,"name":"Aumodok","lon":124.98417,"lat":-8.95806,"pop":0},{"id":8643504,"name":"Auraba","lon":126.70583,"lat":-8.51778,"pop":0},{"id":1945399,"name":"Ausur","lon":125.58111,"lat":-9.12833,"pop":0},{"id":1942610,"name":"Ayatan","lon":125.73527,"lat":-8.53675,"pop":0},{"id":8629561,"name":"Baboe Kraik","lon":125.40774,"lat":-8.91579,"pop":0},{"id":8629842,"name":"Baboi Leten","lon":125.39639,"lat":-8.90556,"pop":0},{"id":1942664,"name":"Baboro","lon":126.52033,"lat":-8.48164,"pop":0},{"id":1943272,"name":"Babulo","lon":126.56361,"lat":-8.77722,"pop":0},{"id":8629690,"name":"Babulo","lon":125.65539,"lat":-9.02318,"pop":0},{"id":1944963,"name":"Babulu","lon":125.68861,"lat":-9.08861,"pop":0},{"id":1944993,"name":"Babulu","lon":125.65611,"lat":-9.02361,"pop":0},{"id":1943200,"name":"Bacaisi","lon":126.38056,"lat":-8.74472,"pop":0},{"id":1943305,"name":"Bacarui","lon":126.63083,"lat":-8.64556,"pop":0},{"id":8629288,"name":"Bado-Ho'o","lon":126.42586,"lat":-8.60546,"pop":0},{"id":1942828,"name":"Baduro","lon":126.88889,"lat":-8.45444,"pop":0},{"id":1943255,"name":"Badutmean","lon":124.94556,"lat":-8.98889,"pop":0},{"id":1943505,"name":"Baehana","lon":126.72639,"lat":-8.65306,"pop":0},{"id":1944172,"name":"Baer","lon":125.092,"lat":-9.30767,"pop":0},{"id":1650776,"name":"Baguia","lon":126.66139,"lat":-8.62778,"pop":0},{"id":1942877,"name":"Baguia","lon":126.54639,"lat":-8.58917,"pop":0},{"id":8643846,"name":"Baha Mori","lon":126.41667,"lat":-8.61667,"pop":0},{"id":1943820,"name":"Bahabunak","lon":126.36889,"lat":-8.88056,"pop":0},{"id":1943193,"name":"Bahadato","lon":126.35944,"lat":-8.6575,"pop":0},{"id":1946624,"name":"Bahadic","lon":125.88972,"lat":-8.60056,"pop":0},{"id":1943814,"name":"Bahafau","lon":126.36639,"lat":-8.87611,"pop":0},{"id":1942339,"name":"Bahalale","lon":126.33444,"lat":-8.56333,"pop":0},{"id":8617940,"name":"Bahalarauain","lon":126.28374,"lat":-8.91113,"pop":0},{"id":1942343,"name":"Bahamori","lon":126.34167,"lat":-8.5375,"pop":0},{"id":1942953,"name":"Bahamori","lon":126.42361,"lat":-8.54028,"pop":0},{"id":1943543,"name":"Bahamori","lon":126.22806,"lat":-8.50917,"pop":0},{"id":1943809,"name":"Bahaneu","lon":126.31306,"lat":-8.75861,"pop":0},{"id":1943300,"name":"Bahatata","lon":126.63972,"lat":-8.63806,"pop":0},{"id":1943346,"name":"Bahatata","lon":126.65139,"lat":-8.64917,"pop":0},{"id":1943482,"name":"Bahatata","lon":126.71639,"lat":-8.69028,"pop":0},{"id":8629325,"name":"Bahu","lon":126.45,"lat":-8.46667,"pop":0},{"id":1937050,"name":"Bahulu","lon":125.65621,"lat":-9.02507,"pop":0},{"id":1943425,"name":"Baiquenilau","lon":125.21028,"lat":-8.65667,"pop":0},{"id":1942423,"name":"Bairo Alto","lon":125.56743,"lat":-8.55549,"pop":0},{"id":8629364,"name":"Bairo Formosa","lon":125.58333,"lat":-8.56,"pop":0},{"id":1942479,"name":"Bairo Ledidere","lon":125.58694,"lat":-8.55028,"pop":0},{"id":1942425,"name":"Bairo Pite","lon":125.56218,"lat":-8.55987,"pop":0},{"id":8629363,"name":"Bairro Pite","lon":125.56667,"lat":-8.56667,"pop":0},{"id":1944921,"name":"Baleo","lon":125.25556,"lat":-8.92417,"pop":0},{"id":1942544,"name":"Balibar","lon":125.59495,"lat":-8.60045,"pop":0},{"id":1650533,"name":"Balibo","lon":125.04056,"lat":-8.96889,"pop":0},{"id":1942436,"name":"Balide","lon":125.57333,"lat":-8.565,"pop":0},{"id":1943834,"name":"Balidioan","lon":126.27056,"lat":-8.9625,"pop":0},{"id":1946492,"name":"Balulin","lon":125.90556,"lat":-8.74611,"pop":0},{"id":1944518,"name":"Bambai","lon":124.33472,"lat":-9.37833,"pop":0},{"id":8629775,"name":"Banafi","lon":124.30889,"lat":-9.39083,"pop":0},{"id":8692965,"name":"Bandadili","lon":126.33358,"lat":-8.49031,"pop":0},{"id":1945078,"name":"Bandeirahun","lon":125.53833,"lat":-8.75833,"pop":0},{"id":1942433,"name":"Banderahun","lon":125.56694,"lat":-8.56306,"pop":0},{"id":8629985,"name":"Bandudato","lon":125.56667,"lat":-8.76667,"pop":0},{"id":1943707,"name":"Banedole","lon":125.21917,"lat":-8.85167,"pop":0},{"id":1940413,"name":"Banegoa","lon":125.24528,"lat":-8.79111,"pop":0},{"id":1943723,"name":"Banegoa","lon":125.24278,"lat":-8.79194,"pop":0},{"id":1944931,"name":"Banerema","lon":125.26278,"lat":-8.8875,"pop":0},{"id":1943737,"name":"Banitur","lon":125.29361,"lat":-8.69028,"pop":0},{"id":1944211,"name":"Baoknana","lon":124.13157,"lat":-9.30727,"pop":0},{"id":1944356,"name":"Baokopael","lon":124.27611,"lat":-9.34667,"pop":0},{"id":1945274,"name":"Baordaikun","lon":125.41239,"lat":-9.20013,"pop":0},{"id":1944411,"name":"Baqui","lon":124.35111,"lat":-9.28333,"pop":0},{"id":8643609,"name":"Baria","lon":126.50629,"lat":-8.86219,"pop":0},{"id":1936800,"name":"Barialaran","lon":125.66243,"lat":-9.14124,"pop":0},{"id":1945518,"name":"Barialaran","lon":125.66167,"lat":-9.14417,"pop":0},{"id":1945360,"name":"Barikafa","lon":126.83167,"lat":-8.54556,"pop":0},{"id":1649996,"name":"Barique","lon":126.06667,"lat":-8.83333,"pop":0},{"id":8629134,"name":"Barique","lon":126.06213,"lat":-8.84661,"pop":0},{"id":1943018,"name":"Barleo","lon":126.76167,"lat":-8.42083,"pop":0},{"id":1944489,"name":"Barliu","lon":126.74139,"lat":-8.41,"pop":0},{"id":1649319,"name":"Barolai","alt":["Bela Vista","Boa Vista","Calicai","Kelicai"],"lon":126.60167,"lat":-8.55167,"pop":0},{"id":1943899,"name":"Barolara","lon":125.23778,"lat":-8.90972,"pop":0},{"id":1943222,"name":"Baru","lon":126.37833,"lat":-8.64694,"pop":0},{"id":1944487,"name":"Barubatu","lon":126.74167,"lat":-8.41222,"pop":0},{"id":1944643,"name":"Batamac","lon":125.90167,"lat":-8.75194,"pop":0},{"id":8617710,"name":"Batara","lon":125.91667,"lat":-8.735,"pop":0},{"id":1945156,"name":"Batas","lon":125.70556,"lat":-8.93722,"pop":0},{"id":1943526,"name":"Baticassa","lon":126.53306,"lat":-8.65444,"pop":0},{"id":1944703,"name":"Batubala","lon":125.3875,"lat":-8.97778,"pop":0},{"id":1943445,"name":"Batubeleter","lon":125.20306,"lat":-8.68194,"pop":0},{"id":1944724,"name":"Batueru","lon":125.375,"lat":-8.95694,"pop":0},{"id":1649734,"name":"Batugade","alt":["Batoe Gade","Batoe Gadeh","Batoe Gadè","Batu Gadeh","Caxias do Extremo"],"lon":124.9725,"lat":-8.94722,"pop":0},{"id":1944723,"name":"Batumano","alt":["Batomano"],"lon":125.37444,"lat":-8.95139,"pop":0},{"id":1944743,"name":"Batumigi","lon":125.38806,"lat":-8.91556,"pop":0},{"id":1649893,"name":"Batuu","alt":["Bata","Batu"],"lon":125.36083,"lat":-8.94944,"pop":0},{"id":1944905,"name":"Batuubu","lon":125.28306,"lat":-8.9075,"pop":0},{"id":1945064,"name":"Bauana","lon":125.35417,"lat":-8.78278,"pop":0},{"id":1943994,"name":"Baukama","lon":125.14528,"lat":-9.29722,"pop":0},{"id":1649539,"name":"Baukau","alt":["BCH","Bacau","Baucau","Vila Salazar","bao kao","baukau","baw khaw","khet bea kea","Баукау","באוקאו","บาวคาว","เขตเบาเกา","包考","바우카우"],"lon":126.45633,"lat":-8.47572,"pop":16000},{"id":1944017,"name":"Baulela","lon":125.23139,"lat":-9.29139,"pop":0},{"id":1944757,"name":"Baulesiria","lon":125.43278,"lat":-8.87639,"pop":0},{"id":1944410,"name":"Baupat","lon":124.32528,"lat":-9.27972,"pop":0},{"id":1943078,"name":"Baura","lon":125.38361,"lat":-8.66306,"pop":0},{"id":1943645,"name":"Baura","lon":125.37278,"lat":-8.65333,"pop":0},{"id":1942996,"name":"Bauro","lon":127.00639,"lat":-8.44222,"pop":0},{"id":1943886,"name":"Bausae","lon":125.14861,"lat":-8.90139,"pop":0},{"id":1944069,"name":"Bausiu","lon":124.4098,"lat":-9.17747,"pop":0},{"id":1943971,"name":"Bauwai","lon":125.02139,"lat":-9.01194,"pop":0},{"id":1945507,"name":"Bazar","lon":125.54306,"lat":-9.05306,"pop":0},{"id":1649467,"name":"Bazartete","alt":["Vila Eduardo Marques"],"lon":125.38306,"lat":-8.62611,"pop":0},{"id":1943075,"name":"Bazartete","lon":125.38306,"lat":-8.62472,"pop":0},{"id":1943890,"name":"Beabubu","lon":125.20278,"lat":-8.93083,"pop":0},{"id":1649465,"name":"Beaco","alt":["Beago","Beasso"],"lon":126.44944,"lat":-8.94417,"pop":0},{"id":1943388,"name":"Beain","lon":125.05639,"lat":-8.96,"pop":0},{"id":8629994,"name":"Beamoas","lon":125.38333,"lat":-9,"pop":0},{"id":1943892,"name":"Beasale","lon":125.21194,"lat":-8.91194,"pop":0},{"id":1944350,"name":"Bebo","lon":124.28167,"lat":-9.35222,"pop":0},{"id":8629980,"name":"Bebonuk Metin","lon":125.54361,"lat":-8.54444,"pop":0},{"id":1942421,"name":"Bebora","lon":125.56635,"lat":-8.553,"pop":0},{"id":1943481,"name":"Beboro","lon":126.16528,"lat":-8.54056,"pop":0},{"id":1942399,"name":"Bebunuk","lon":125.54361,"lat":-8.54444,"pop":0},{"id":1649439,"name":"Beco","lon":125.39372,"lat":-9.21031,"pop":0},{"id":8629048,"name":"Beco","lon":125.34439,"lat":-9.2214,"pop":0},{"id":8540349,"name":"Becol","lon":125.3883,"lat":-9.22344,"pop":0},{"id":8628940,"name":"Becora","lon":125.6,"lat":-8.566,"pop":0},{"id":1942412,"name":"Bedik","lon":125.55194,"lat":-8.55306,"pop":0},{"id":1942502,"name":"Bedois","lon":125.62167,"lat":-8.5675,"pop":0},{"id":1942656,"name":"Bedois","lon":125.62471,"lat":-8.56568,"pop":0},{"id":1942584,"name":"Beduku","lon":125.52814,"lat":-8.58361,"pop":0},{"id":1643389,"name":"Behau","alt":["Hau"],"lon":125.88007,"lat":-8.47763,"pop":0},{"id":1944538,"name":"Behau","lon":125.89028,"lat":-8.47778,"pop":0},{"id":1944541,"name":"Beheda","lon":125.95222,"lat":-8.49417,"pop":0},{"id":1943304,"name":"Beheissi","lon":126.64556,"lat":-8.63833,"pop":0},{"id":1944186,"name":"Beibutuk","lon":125.07802,"lat":-9.2692,"pop":0},{"id":1937126,"name":"Beikala","lon":125.6632,"lat":-9.1069,"pop":0},{"id":1944954,"name":"Beikala","lon":125.66472,"lat":-9.10944,"pop":0},{"id":8629355,"name":"Beilaco","lon":125.48333,"lat":-9.2,"pop":0},{"id":1945270,"name":"Beilako A","lon":125.47808,"lat":-9.19223,"pop":0},{"id":1937244,"name":"Beimau","lon":125.27958,"lat":-9.34732,"pop":0},{"id":8630041,"name":"Beiseuc","lon":125.06667,"lat":-9.31667,"pop":0},{"id":8629052,"name":"Beiseuk","lon":125.06252,"lat":-9.31459,"pop":0},{"id":1942495,"name":"Bekaril","lon":125.61526,"lat":-8.53898,"pop":0},{"id":1937123,"name":"Beko","lon":125.68237,"lat":-9.09995,"pop":0},{"id":1944043,"name":"Beko","lon":125.13889,"lat":-9.18861,"pop":0},{"id":1944958,"name":"Beko","lon":125.68333,"lat":-9.10194,"pop":0},{"id":1942389,"name":"Bekosi Atas","lon":125.60667,"lat":-8.565,"pop":0},{"id":1942469,"name":"Bekosi Bawah","lon":125.59899,"lat":-8.56332,"pop":0},{"id":1937135,"name":"Bekumu","lon":125.64248,"lat":-9.12093,"pop":0},{"id":1944937,"name":"Bekumu","lon":125.64556,"lat":-9.1225,"pop":0},{"id":1945269,"name":"Belako B","lon":125.48289,"lat":-9.20226,"pop":0},{"id":1943201,"name":"Belas","lon":126.37667,"lat":-8.74083,"pop":0},{"id":1942477,"name":"Belebato","lon":125.58889,"lat":-8.55417,"pop":0},{"id":8629093,"name":"Belecasac","lon":125.2565,"lat":-9.22818,"pop":0},{"id":1944145,"name":"Belem","lon":125.6375,"lat":-8.15333,"pop":0},{"id":1946043,"name":"Beliwale","alt":["Beli Uali"],"lon":126.70139,"lat":-8.51389,"pop":0},{"id":1944149,"name":"Beloi","lon":125.60528,"lat":-8.22111,"pop":0},{"id":1943391,"name":"Belola","lon":125.07111,"lat":-8.95222,"pop":0},{"id":1944808,"name":"Beluat","lon":125.32556,"lat":-8.99694,"pop":0},{"id":1943959,"name":"Belulik Kraik","lon":125.02083,"lat":-9.22111,"pop":0},{"id":1943952,"name":"Belulik Leten","lon":125.00447,"lat":-9.24682,"pop":0},{"id":1943177,"name":"Belumhato","lon":125.56816,"lat":-8.6502,"pop":0},{"id":1945521,"name":"Bemalai","lon":125.66417,"lat":-9.13722,"pop":0},{"id":1942706,"name":"Bemanotolu","lon":125.6784,"lat":-8.53408,"pop":0},{"id":1942533,"name":"Bematua","lon":125.5608,"lat":-8.6043,"pop":0},{"id":1942472,"name":"Bemori Babaliurai","lon":125.58778,"lat":-8.56,"pop":0},{"id":1942471,"name":"Bemori Sentral","lon":125.58583,"lat":-8.55889,"pop":0},{"id":1942473,"name":"Bemori Taibesi","lon":125.58694,"lat":-8.56167,"pop":0},{"id":1945392,"name":"Bemoris","lon":125.54556,"lat":-9.13389,"pop":0},{"id":1944367,"name":"Benais","lon":124.36444,"lat":-9.33861,"pop":0},{"id":8617936,"name":"Bene-Ufe","lon":124.09028,"lat":-9.32917,"pop":0},{"id":1944429,"name":"Benoko","lon":124.34722,"lat":-9.255,"pop":0},{"id":8643422,"name":"Benona","lon":125.59,"lat":-8.6,"pop":0},{"id":1942605,"name":"Benunuk","lon":125.74535,"lat":-8.53008,"pop":0},{"id":1942710,"name":"Beraka","lon":125.6892,"lat":-8.53877,"pop":0},{"id":1943387,"name":"Berame","lon":125.05278,"lat":-8.96472,"pop":0},{"id":1943295,"name":"Berato","lon":126.02,"lat":-8.51444,"pop":0},{"id":1636965,"name":"Berau","alt":["Macadade","Makadade","Maquedade","Mascadade"],"lon":125.55833,"lat":-8.29667,"pop":0},{"id":1942938,"name":"Bercoli","lon":126.38778,"lat":-8.58917,"pop":0},{"id":1943900,"name":"Bereleu","lon":125.23111,"lat":-8.91889,"pop":0},{"id":8629006,"name":"Bereleu","lon":125.68333,"lat":-8.71667,"pop":0},{"id":1943134,"name":"Berelisu","lon":125.71855,"lat":-8.64214,"pop":0},{"id":1945624,"name":"Beremana","lon":125.71778,"lat":-8.85583,"pop":0},{"id":1945537,"name":"Beremanek","lon":125.79222,"lat":-9.02556,"pop":0},{"id":1943973,"name":"Beremanu","lon":125.08833,"lat":-9.00056,"pop":0},{"id":8630257,"name":"Bergel","lon":125.23569,"lat":-9.24284,"pop":0},{"id":1943109,"name":"Berkate","lon":125.69245,"lat":-8.71275,"pop":0},{"id":1943137,"name":"Berlorai","lon":125.64806,"lat":-8.64825,"pop":0},{"id":1942806,"name":"Berluli","lon":125.41111,"lat":-8.73472,"pop":0},{"id":1944547,"name":"Berluli","lon":125.51833,"lat":-8.98583,"pop":0},{"id":8629932,"name":"Bermanek","lon":125.8,"lat":-9.03333,"pop":0},{"id":1944693,"name":"Bertai","lon":125.53056,"lat":-8.84694,"pop":0},{"id":1891884,"name":"Beru","lon":127.24583,"lat":-8.47083,"pop":0},{"id":1942689,"name":"Berukulun","lon":125.67183,"lat":-8.54714,"pop":0},{"id":8643786,"name":"Besakoan","lon":125.16666,"lat":-9.41666,"pop":0},{"id":1943969,"name":"Besakren","lon":125.07104,"lat":-9.01157,"pop":0},{"id":1944472,"name":"Besatoko","lon":124.29917,"lat":-9.44194,"pop":0},{"id":1944507,"name":"Besatoko","lon":124.30889,"lat":-9.39083,"pop":0},{"id":1944342,"name":"Besemese","lon":124.33778,"lat":-9.36917,"pop":0},{"id":1942693,"name":"Besidada","lon":125.67036,"lat":-8.54324,"pop":0},{"id":1942353,"name":"Besite","lon":125.45778,"lat":-8.57333,"pop":0},{"id":1945564,"name":"Besusu","lon":125.89611,"lat":-9.11361,"pop":0},{"id":1945503,"name":"Betama","lon":125.52694,"lat":-9.10139,"pop":0},{"id":1648907,"name":"Betano","alt":["Belana","Betana","Betarro","Nutur"],"lon":125.72346,"lat":-9.16588,"pop":0},{"id":1945495,"name":"Betano","lon":125.72639,"lat":-9.16056,"pop":0},{"id":1943190,"name":"Betecaiana","lon":126.37111,"lat":-8.67528,"pop":0},{"id":1942403,"name":"Beto Barat","lon":125.52361,"lat":-8.55083,"pop":0},{"id":1942400,"name":"Beto Timur","lon":125.53198,"lat":-8.55062,"pop":0},{"id":1942939,"name":"Betonau","lon":126.38472,"lat":-8.59611,"pop":0},{"id":1944596,"name":"Betorema","lon":125.41833,"lat":-8.81389,"pop":0},{"id":1945106,"name":"Betorema","lon":125.33583,"lat":-8.75917,"pop":0},{"id":1943332,"name":"Betoria","lon":126.66694,"lat":-8.69222,"pop":0},{"id":1943497,"name":"Betoria","lon":126.69806,"lat":-8.74639,"pop":0},{"id":1944846,"name":"Betulala","lon":125.61444,"lat":-8.9375,"pop":0},{"id":1942575,"name":"Betulale","lon":126.45825,"lat":-8.46457,"pop":0},{"id":8629126,"name":"Betulari","lon":126.6075,"lat":-8.58722,"pop":0},{"id":1943090,"name":"Betulau","lon":125.65255,"lat":-8.74607,"pop":0},{"id":1944988,"name":"Betupu","lon":125.36444,"lat":-8.83028,"pop":0},{"id":1945110,"name":"Betupu","lon":125.27278,"lat":-8.80139,"pop":0},{"id":1945057,"name":"Betutu","lon":125.33111,"lat":-8.77889,"pop":0},{"id":1944539,"name":"Beuah","lon":125.91778,"lat":-8.48,"pop":0},{"id":1943469,"name":"Biaboe","lon":126.14361,"lat":-8.60917,"pop":0},{"id":1944853,"name":"Biabote","lon":125.35,"lat":-8.92972,"pop":0},{"id":1944787,"name":"Biaboti","lon":125.38,"lat":-8.90139,"pop":0},{"id":1944819,"name":"Biabusi","lon":125.34028,"lat":-8.98306,"pop":0},{"id":1944003,"name":"Biacau","lon":125.05722,"lat":-8.83361,"pop":0},{"id":8643257,"name":"Biacou","lon":125.05,"lat":-8.83333,"pop":0},{"id":1943242,"name":"Biadae","lon":126.50861,"lat":-8.86639,"pop":0},{"id":1943710,"name":"Biadila","lon":125.21222,"lat":-8.87417,"pop":0},{"id":1943257,"name":"Biae","lon":124.99444,"lat":-8.96778,"pop":0},{"id":1940078,"name":"Biahian","lon":125.04722,"lat":-8.8625,"pop":0},{"id":1944711,"name":"Biahoro","lon":125.39472,"lat":-8.96528,"pop":0},{"id":1943885,"name":"Biamarae","lon":125.13806,"lat":-8.90917,"pop":0},{"id":1944699,"name":"Biamoas","lon":125.38944,"lat":-8.99583,"pop":0},{"id":1943879,"name":"Biarua","lon":125.15028,"lat":-8.83778,"pop":0},{"id":1944881,"name":"Biateo","lon":125.29611,"lat":-8.94306,"pop":0},{"id":1938332,"name":"Bibaro","lon":125.39083,"lat":-8.89556,"pop":0},{"id":1944788,"name":"Bibaro","lon":125.38389,"lat":-8.8925,"pop":0},{"id":1943502,"name":"Bibidae","lon":126.72722,"lat":-8.65611,"pop":0},{"id":1943514,"name":"Bibidae","lon":126.72,"lat":-8.64083,"pop":0},{"id":8629924,"name":"Bibileo","lon":126.26667,"lat":-8.96667,"pop":0},{"id":1943671,"name":"Bibiluto","lon":126.40028,"lat":-8.92639,"pop":0},{"id":1944188,"name":"Bibitali","lon":125.01404,"lat":-9.25356,"pop":0},{"id":1945074,"name":"Bibteron","lon":125.57194,"lat":-8.77417,"pop":0},{"id":1648802,"name":"Bidau","lon":125.6,"lat":-8.56667,"pop":0},{"id":8630268,"name":"Bidau Santana","lon":125.59306,"lat":-8.54889,"pop":0},{"id":1942696,"name":"Bidik","lon":125.66306,"lat":-8.54194,"pop":0},{"id":1944252,"name":"Biele","lon":124.38111,"lat":-9.3375,"pop":0},{"id":1944328,"name":"Bihala","lon":124.37306,"lat":-9.28083,"pop":0},{"id":8643651,"name":"Bihana","lon":124.36783,"lat":-9.27908,"pop":0},{"id":1944406,"name":"Bilahuk","lon":124.36222,"lat":-9.28694,"pop":0},{"id":1943395,"name":"Bilekun","lon":125.07056,"lat":-8.95722,"pop":0},{"id":1940416,"name":"Bilimau","lon":125.22444,"lat":-8.78389,"pop":0},{"id":1944826,"name":"Biliubu","lon":125.35917,"lat":-8.98056,"pop":0},{"id":1943093,"name":"Biloko","lon":125.65752,"lat":-8.74459,"pop":0},{"id":8643348,"name":"Biluli","lon":125.41111,"lat":-8.73472,"pop":0},{"id":1944327,"name":"Bimelo","lon":124.38306,"lat":-9.28194,"pop":0},{"id":1942661,"name":"Binagua","lon":126.52127,"lat":-8.46284,"pop":0},{"id":1944485,"name":"Binagua","lon":126.68015,"lat":-8.43147,"pop":0},{"id":1945173,"name":"Binani","lon":125.71528,"lat":-8.88944,"pop":0},{"id":1944502,"name":"Binau","lon":124.35583,"lat":-9.41111,"pop":0},{"id":1945638,"name":"Binimalo","lon":125.72944,"lat":-8.83167,"pop":0},{"id":1943810,"name":"Binita","lon":126.63722,"lat":-8.77583,"pop":0},{"id":8643777,"name":"Bioni","lon":124.26108,"lat":-9.29097,"pop":0},{"id":8629070,"name":"Biqueli","lon":125.63333,"lat":-8.18333,"pop":0},{"id":1944428,"name":"Biseo","lon":124.32611,"lat":-9.25806,"pop":0},{"id":1943181,"name":"Bislau","lon":125.59321,"lat":-8.64359,"pop":0},{"id":1945403,"name":"Bismata","lon":125.60528,"lat":-9.13278,"pop":0},{"id":1942437,"name":"Bispo Medeiros","lon":125.57833,"lat":-8.56444,"pop":0},{"id":1944360,"name":"Bitana","lon":124.32222,"lat":-9.34278,"pop":0},{"id":1944136,"name":"Bite","lon":125.55083,"lat":-8.27444,"pop":0},{"id":1944376,"name":"Bititim","lon":124.26306,"lat":-9.30528,"pop":0},{"id":1945178,"name":"Blaro","lon":125.66194,"lat":-8.91861,"pop":0},{"id":1937979,"name":"Bleheto","lon":125.55278,"lat":-8.89694,"pop":0},{"id":1942745,"name":"Blinklala","lon":125.71098,"lat":-8.58117,"pop":0},{"id":1945502,"name":"Bobe","lon":125.66417,"lat":-9.15556,"pop":0},{"id":8629323,"name":"Bobocasse","lon":124.36824,"lat":-9.27003,"pop":0},{"id":1944630,"name":"Boboe","lon":125.45417,"lat":-8.75111,"pop":0},{"id":1944739,"name":"Boboleta","lon":125.38806,"lat":-8.925,"pop":0},{"id":1944522,"name":"Bobolora","lon":125.77417,"lat":-8.91889,"pop":0},{"id":1944245,"name":"Bobometo","lon":124.38028,"lat":-9.34889,"pop":0},{"id":1945206,"name":"Bobonaro","alt":["Bobonaru","Distretto di Bobonaro","bo bo na luo xian","Бобонару","博博納羅縣"],"lon":125.325,"lat":-9.03194,"pop":0},{"id":1944385,"name":"Bobonoe","lon":124.36889,"lat":-9.30222,"pop":0},{"id":8618043,"name":"Bobonus","lon":124.36667,"lat":-9.3,"pop":0},{"id":1942789,"name":"Bocilai","lon":126.52278,"lat":-8.5725,"pop":0},{"id":1945533,"name":"Boclaran","lon":125.90278,"lat":-9.10361,"pop":0},{"id":8643774,"name":"Bocos","lon":124.2253,"lat":-9.24161,"pop":0},{"id":1942941,"name":"Bodohoo","lon":126.40417,"lat":-8.60167,"pop":0},{"id":1944978,"name":"Boeana","lon":125.29806,"lat":-8.8575,"pop":0},{"id":1943642,"name":"Boelema","lon":125.3425,"lat":-8.67111,"pop":0},{"id":8630087,"name":"Boi Le","lon":126.45611,"lat":-8.46194,"pop":0},{"id":1648456,"name":"Boibau","alt":["Boibao"],"lon":125.31722,"lat":-8.68333,"pop":0},{"id":1943665,"name":"Boibun","lon":125.04444,"lat":-8.93139,"pop":0},{"id":1942576,"name":"Boile","lon":126.45553,"lat":-8.4626,"pop":0},{"id":1945211,"name":"Bok","lon":125.34056,"lat":-9.04167,"pop":0},{"id":8643421,"name":"Boklelo","lon":125.53,"lat":-8.62,"pop":0},{"id":1944056,"name":"Bokon","lon":124.22517,"lat":-9.23918,"pop":0},{"id":1942930,"name":"Boleha","lon":126.62333,"lat":-8.50278,"pop":0},{"id":1942715,"name":"Bolobai","lon":126.59186,"lat":-8.4765,"pop":0},{"id":1944213,"name":"Bonak","lon":124.16895,"lat":-9.28927,"pop":0},{"id":1944276,"name":"Bonemese","lon":124.39944,"lat":-9.31028,"pop":0},{"id":1944200,"name":"Bonemeto","lon":124.20333,"lat":-9.36417,"pop":0},{"id":1944347,"name":"Bono","lon":124.34722,"lat":-9.37139,"pop":0},{"id":1945385,"name":"Bonuk","lon":125.54028,"lat":-9.21528,"pop":0},{"id":1943202,"name":"Borala","lon":126.38722,"lat":-8.74028,"pop":0},{"id":1943682,"name":"Borala","lon":126.38194,"lat":-8.75167,"pop":0},{"id":1944948,"name":"Boramba","lon":125.64833,"lat":-9.11278,"pop":0},{"id":1944624,"name":"Borhei","lon":125.42889,"lat":-8.76083,"pop":0},{"id":1944822,"name":"Borluli","lon":125.33167,"lat":-8.97167,"pop":0},{"id":1943668,"name":"Boro","lon":125.07083,"lat":-8.9375,"pop":0},{"id":1943017,"name":"Borofari","lon":126.85722,"lat":-8.43667,"pop":0},{"id":1945374,"name":"Borogae","lon":126.83194,"lat":-8.51056,"pop":0},{"id":8629998,"name":"Borohei","lon":125.43333,"lat":-8.76667,"pop":0},{"id":1942432,"name":"Borohun","lon":125.57778,"lat":-8.56028,"pop":0},{"id":1943263,"name":"Borolalo","lon":126.55944,"lat":-8.79194,"pop":0},{"id":1944235,"name":"Borolau","lon":126.6468,"lat":-8.48897,"pop":0},{"id":1942518,"name":"Boromata","lon":125.58303,"lat":-8.60001,"pop":0},{"id":1945243,"name":"Boropai","lon":126.78917,"lat":-8.70556,"pop":0},{"id":1937706,"name":"Boroulo","lon":125.68417,"lat":-8.84167,"pop":0},{"id":1945373,"name":"Borowali","lon":126.83167,"lat":-8.51139,"pop":0},{"id":1942856,"name":"Boruc","lon":126.20889,"lat":-8.83806,"pop":0},{"id":8629327,"name":"Borulau","lon":126.64693,"lat":-8.48798,"pop":0},{"id":1943419,"name":"Bourawei","lon":125.23361,"lat":-8.65417,"pop":0},{"id":1945574,"name":"Boutal","lon":125.26946,"lat":-9.16317,"pop":0},{"id":1944856,"name":"Brahua","lon":125.32361,"lat":-8.935,"pop":0},{"id":1944985,"name":"Brogobo","lon":125.37,"lat":-8.85806,"pop":0},{"id":1944939,"name":"Bua","lon":125.81833,"lat":-8.58361,"pop":0},{"id":1946093,"name":"Buadolo","lon":126.69,"lat":-8.55917,"pop":0},{"id":1943140,"name":"Buahun","lon":125.63694,"lat":-8.64361,"pop":0},{"id":1943331,"name":"Bualale","lon":126.65806,"lat":-8.68833,"pop":0},{"id":1943340,"name":"Bualale","lon":126.69944,"lat":-8.68,"pop":0},{"id":1943492,"name":"Bualale","lon":126.71222,"lat":-8.73222,"pop":0},{"id":1943524,"name":"Bualale","lon":126.5425,"lat":-8.64306,"pop":0},{"id":1945146,"name":"Buamunir","lon":126.775,"lat":-8.745,"pop":0},{"id":1945354,"name":"Buanomor","lon":126.81222,"lat":-8.54944,"pop":0},{"id":1943676,"name":"Buanurak","lon":126.44126,"lat":-8.72618,"pop":0},{"id":1946116,"name":"Buau","lon":126.68389,"lat":-8.57556,"pop":0},{"id":1944232,"name":"Bubodefo","lon":126.65972,"lat":-8.48472,"pop":0},{"id":1943349,"name":"Buboha","lon":126.68583,"lat":-8.6375,"pop":0},{"id":1942798,"name":"Bubolita","lon":126.56359,"lat":-8.69997,"pop":0},{"id":1944458,"name":"Buboloma","lon":126.68647,"lat":-8.48429,"pop":0},{"id":1945095,"name":"Bubulau","lon":125.70583,"lat":-8.95694,"pop":0},{"id":8643506,"name":"Bubur Laletec","lon":125.95861,"lat":-9.04583,"pop":0},{"id":1943740,"name":"Buburia","lon":125.30444,"lat":-8.73139,"pop":0},{"id":1945545,"name":"Buburlalete","lon":125.95861,"lat":-9.04583,"pop":0},{"id":1944178,"name":"Buburlaran","lon":125.02806,"lat":-9.28361,"pop":0},{"id":1942503,"name":"Buburlau","lon":125.61806,"lat":-8.57083,"pop":0},{"id":1942847,"name":"Buburlolon","lon":126.06111,"lat":-8.98194,"pop":0},{"id":1944523,"name":"Bubususu","lon":125.78333,"lat":-8.91444,"pop":0},{"id":8643593,"name":"Buca Dalan","lon":126.53476,"lat":-8.81576,"pop":0},{"id":1945644,"name":"Bucacoa","lon":125.70583,"lat":-8.81806,"pop":0},{"id":1942483,"name":"Bucoli","lon":126.33833,"lat":-8.48556,"pop":0},{"id":1945158,"name":"Bucuk","lon":125.25592,"lat":-9.07525,"pop":0},{"id":1945245,"name":"Bugas","lon":125.37222,"lat":-9.01556,"pop":0},{"id":8692950,"name":"Bugas Iara","lon":125.13244,"lat":-8.72581,"pop":0},{"id":1942963,"name":"Buibau","lon":126.4667,"lat":-8.50778,"pop":0},{"id":1945520,"name":"Buifu","lon":125.63167,"lat":-9.13611,"pop":0},{"id":1944482,"name":"Buiguira","lon":126.63946,"lat":-8.45166,"pop":0},{"id":1943021,"name":"Buihomau","lon":126.83139,"lat":-8.3975,"pop":0},{"id":1943821,"name":"Buikarin","lon":126.28111,"lat":-8.91222,"pop":0},{"id":1942960,"name":"Builai","lon":126.44361,"lat":-8.50861,"pop":0},{"id":1943484,"name":"Builako","lon":126.71889,"lat":-8.69083,"pop":0},{"id":8644078,"name":"Builale","lon":126.37072,"lat":-8.67494,"pop":0},{"id":8643269,"name":"Builecon","lon":125.07056,"lat":-8.95722,"pop":0},{"id":1943308,"name":"Builicorae","lon":126.64694,"lat":-8.6475,"pop":0},{"id":1945523,"name":"Builiko","lon":125.50889,"lat":-9.04528,"pop":0},{"id":1944389,"name":"Buinsapi","lon":124.28417,"lat":-9.29583,"pop":0},{"id":1944352,"name":"Buki","lon":124.32194,"lat":-9.35222,"pop":0},{"id":1943072,"name":"Buku Mera","lon":125.39056,"lat":-8.64417,"pop":0},{"id":1943694,"name":"Buloi","lon":125.18667,"lat":-8.85972,"pop":0},{"id":1943698,"name":"Buloilaun","lon":125.16667,"lat":-8.83833,"pop":0},{"id":1945224,"name":"Bunabiqui","lon":126.83861,"lat":-8.7075,"pop":0},{"id":1944058,"name":"Buneu","lon":124.40537,"lat":-9.24474,"pop":0},{"id":1945172,"name":"Buquila","lon":126.84,"lat":-8.72833,"pop":0},{"id":1943326,"name":"Burabahae","lon":126.63972,"lat":-8.72194,"pop":0},{"id":8629013,"name":"Buruma","lon":126.48333,"lat":-8.46667,"pop":0},{"id":1943982,"name":"Busakukun","lon":125.22898,"lat":-9.32928,"pop":0},{"id":1944238,"name":"Buskaulari","lon":126.64878,"lat":-8.48472,"pop":0},{"id":1944309,"name":"Bussi","lon":124.42083,"lat":-9.27667,"pop":0},{"id":1945207,"name":"Buteri","lon":125.32556,"lat":-9.03694,"pop":0},{"id":1942880,"name":"Butileo","lon":126.55611,"lat":-8.59611,"pop":0},{"id":1945188,"name":"Butinafa","lon":126.82556,"lat":-8.69611,"pop":0},{"id":1942736,"name":"Butofalo","lon":126.61444,"lat":-8.48441,"pop":0},{"id":8643274,"name":"Butuk","lon":125.25,"lat":-9.08333,"pop":0},{"id":8629406,"name":"Cabaira-Oan","lon":126.36667,"lat":-8.86667,"pop":0},{"id":8643779,"name":"Cabana","lon":124.22388,"lat":-9.30088,"pop":0},{"id":8629407,"name":"Cabira Oan","lon":126.36667,"lat":-8.86667,"pop":0},{"id":1943801,"name":"Cabirooan","lon":126.36667,"lat":-8.86806,"pop":0},{"id":1945464,"name":"Cacaven","lon":126.885,"lat":-8.56806,"pop":0},{"id":1945456,"name":"Cacaven Lama","lon":126.90139,"lat":-8.54778,"pop":0},{"id":8643260,"name":"Cai Uai Ho O","lon":126.36667,"lat":-8.71667,"pop":0},{"id":8629395,"name":"Cai-Cassa","lon":125.15,"lat":-8.65,"pop":0},{"id":8629012,"name":"Caibada","lon":126.46667,"lat":-8.46667,"pop":0},{"id":1942494,"name":"Caibolale","lon":126.3586,"lat":-8.44583,"pop":0},{"id":1945546,"name":"Caicasa","lon":125.95944,"lat":-9.04278,"pop":0},{"id":1944495,"name":"Caicassa","lon":125.81583,"lat":-8.92972,"pop":0},{"id":1943734,"name":"Caicassico","lon":125.34639,"lat":-8.68639,"pop":0},{"id":1943731,"name":"Caicoletohoho","lon":125.31556,"lat":-8.65278,"pop":0},{"id":1942431,"name":"Caicoli","lon":125.57377,"lat":-8.56061,"pop":0},{"id":8629356,"name":"Caicoli","lon":125.16667,"lat":-9.38333,"pop":0},{"id":1943542,"name":"Caicua","lon":126.22583,"lat":-8.5125,"pop":0},{"id":8643590,"name":"Caida Ho'o","lon":126.71204,"lat":-8.70101,"pop":0},{"id":1945261,"name":"Caidabu","lon":126.8425,"lat":-8.635,"pop":0},{"id":1943348,"name":"Caidauai","lon":126.67778,"lat":-8.635,"pop":0},{"id":1942327,"name":"Caidenulale","lon":126.33722,"lat":-8.58694,"pop":0},{"id":1943605,"name":"Caidico","lon":125.31417,"lat":-8.6425,"pop":0},{"id":1945237,"name":"Caidovalarin","alt":["Caidava Larin"],"lon":126.82806,"lat":-8.68889,"pop":0},{"id":1942947,"name":"Caihula","lon":126.40667,"lat":-8.58889,"pop":0},{"id":1647422,"name":"Cailaco","alt":["Kailako"],"lon":125.28333,"lat":-8.9,"pop":0},{"id":1942594,"name":"Cailara","lon":126.4545,"lat":-8.49398,"pop":0},{"id":1943633,"name":"Caileli","lon":125.34667,"lat":-8.65083,"pop":0},{"id":1943189,"name":"Cailetiana","lon":126.37167,"lat":-8.68278,"pop":0},{"id":8644031,"name":"Caileulema","lon":125.36667,"lat":-8.63333,"pop":0},{"id":8629115,"name":"Cailiti","lon":125.43333,"lat":-8.81667,"pop":0},{"id":1943091,"name":"Cailoibere","lon":126.47306,"lat":-8.60833,"pop":0},{"id":1942858,"name":"Cailooc","lon":126.21361,"lat":-8.83806,"pop":0},{"id":1943845,"name":"Cailorodi","lon":126.6975,"lat":-8.75,"pop":0},{"id":1647421,"name":"Caimauc Quic","alt":["Caimauc","Nova Portal","Nova Portel"],"lon":125.78333,"lat":-8.68333,"pop":0},{"id":1942301,"name":"Caimegi","lon":125.3825,"lat":-8.60528,"pop":0},{"id":1942300,"name":"Caimegi Ulu","lon":125.39667,"lat":-8.59944,"pop":0},{"id":1945239,"name":"Cainliu","lon":126.83139,"lat":-8.68361,"pop":0},{"id":1945432,"name":"Caino","lon":126.94528,"lat":-8.5125,"pop":0},{"id":1945180,"name":"Caintau","lon":126.83694,"lat":-8.71306,"pop":0},{"id":1942573,"name":"Caiobilalei","lon":126.46984,"lat":-8.46478,"pop":0},{"id":1943515,"name":"Cairedo","lon":126.5075,"lat":-8.63667,"pop":0},{"id":8629133,"name":"Cairui","lon":126.15,"lat":-8.61667,"pop":0},{"id":1942530,"name":"Caisido","lon":126.40019,"lat":-8.44214,"pop":0},{"id":1943743,"name":"Caisoro","lon":125.26472,"lat":-8.73028,"pop":0},{"id":1943043,"name":"Caissahe","lon":125.41056,"lat":-8.70028,"pop":0},{"id":1943192,"name":"Caitarahu","lon":126.36778,"lat":-8.66806,"pop":0},{"id":1942332,"name":"Caitaranau","lon":126.33944,"lat":-8.57444,"pop":0},{"id":1942863,"name":"Caiua","lon":126.21139,"lat":-8.84083,"pop":0},{"id":1943182,"name":"Caiuaihoo","lon":126.36722,"lat":-8.72167,"pop":0},{"id":1943315,"name":"Caiualita","lon":126.62861,"lat":-8.65667,"pop":0},{"id":8629254,"name":"Camalpun","lon":125.42917,"lat":-8.77889,"pop":0},{"id":8630003,"name":"Camalpun","lon":125.43333,"lat":-8.66667,"pop":0},{"id":8617663,"name":"Camea","lon":125.59631,"lat":-8.5597,"pop":0},{"id":1942849,"name":"Camedar","lon":126.05889,"lat":-8.97167,"pop":0},{"id":8629841,"name":"Camenaça","lon":125.32229,"lat":-9.29765,"pop":0},{"id":8643812,"name":"Camnasa","lon":125.28333,"lat":-9.31666,"pop":0},{"id":1943828,"name":"Canlor","lon":126.25667,"lat":-8.93,"pop":0},{"id":1945317,"name":"Carabau","lon":125.38333,"lat":-9.01861,"pop":0},{"id":1943675,"name":"Caraubalo","lon":126.37583,"lat":-8.8725,"pop":0},{"id":1943793,"name":"Caraubalo","lon":126.36389,"lat":-8.85889,"pop":0},{"id":1945094,"name":"Carbulau","lon":125.65111,"lat":-8.95417,"pop":0},{"id":1942668,"name":"Caremon","lon":125.66545,"lat":-8.56374,"pop":0},{"id":1943284,"name":"Carlilo","lon":126.00667,"lat":-8.53389,"pop":0},{"id":1943599,"name":"Carolema","lon":125.34806,"lat":-8.6425,"pop":0},{"id":8629845,"name":"Casabauc","lon":125.22886,"lat":-9.37345,"pop":0},{"id":8643737,"name":"Casamou","lon":125.51667,"lat":-8.71667,"pop":0},{"id":11761165,"name":"Casemu","lon":125.52324,"lat":-8.71875,"pop":0},{"id":1945391,"name":"Cassa","lon":125.54444,"lat":-9.13611,"pop":0},{"id":1942357,"name":"Cassait","lon":125.46444,"lat":-8.57111,"pop":0},{"id":8629689,"name":"Catolada","lon":125.6266,"lat":-8.9831,"pop":0},{"id":8642878,"name":"Catrai Leten","lon":125.41134,"lat":-8.87286,"pop":0},{"id":8629711,"name":"Catraileten","lon":125.39915,"lat":-8.8693,"pop":0},{"id":1943762,"name":"Caturlau","lon":125.33278,"lat":-8.71333,"pop":0},{"id":1943512,"name":"Caudatae","lon":126.73306,"lat":-8.63083,"pop":0},{"id":1943641,"name":"Caunua","lon":126.065,"lat":-8.84694,"pop":0},{"id":1944675,"name":"Caurema","lon":125.55139,"lat":-8.86917,"pop":0},{"id":1943725,"name":"Ceres","lon":125.23389,"lat":-8.75361,"pop":0},{"id":1945280,"name":"Chai","lon":127.01667,"lat":-8.60833,"pop":0},{"id":1942991,"name":"Chailoro","lon":127.24917,"lat":-8.39778,"pop":0},{"id":1945444,"name":"Chaiuacha Baru","lon":126.98194,"lat":-8.52917,"pop":0},{"id":1945425,"name":"Chaiuacha Lama","alt":["Chaivacha"],"lon":126.97278,"lat":-8.54944,"pop":0},{"id":1945412,"name":"Charano","lon":126.88889,"lat":-8.59472,"pop":0},{"id":1942995,"name":"Chauluturo","lon":127.00833,"lat":-8.45194,"pop":0},{"id":1942795,"name":"Chefamuai","lon":126.52917,"lat":-8.58639,"pop":0},{"id":1945433,"name":"Chenuloro","lon":126.94167,"lat":-8.50611,"pop":0},{"id":1945426,"name":"Chomoco","lon":126.99222,"lat":-8.55528,"pop":0},{"id":1945462,"name":"Choquiro","lon":126.91083,"lat":-8.5675,"pop":0},{"id":1942822,"name":"Cirata","lon":126.88417,"lat":-8.46556,"pop":0},{"id":1943735,"name":"Cirilelo","lon":125.33028,"lat":-8.68917,"pop":0},{"id":1639958,"name":"Citrana","alt":["Kitrana","Soetrana","Sutrana"],"lon":124.09189,"lat":-9.32909,"pop":0},{"id":1945218,"name":"Clacuc","lon":126.01139,"lat":-9.00889,"pop":0},{"id":1943364,"name":"Clarecmaruc","lon":126.22028,"lat":-8.88194,"pop":0},{"id":8629370,"name":"Classo","lon":125.4,"lat":-8.6,"pop":0},{"id":1945549,"name":"Clidic","lon":125.99006,"lat":-9.03428,"pop":0},{"id":8644030,"name":"Cocoa","lon":125.46667,"lat":-8.7,"pop":0},{"id":1942824,"name":"Codo","lon":126.88194,"lat":-8.46694,"pop":0},{"id":8629853,"name":"Coilate-Letelo","lon":125.37278,"lat":-8.83167,"pop":0},{"id":8629113,"name":"Coilequi","lon":125.41667,"lat":-8.91667,"pop":0},{"id":1943046,"name":"Colaco","lon":125.39083,"lat":-8.69694,"pop":0},{"id":8643633,"name":"Coliate","lon":125.37354,"lat":-8.83138,"pop":0},{"id":1944701,"name":"Colimau","lon":125.38806,"lat":-8.9875,"pop":0},{"id":8643531,"name":"Colmera","lon":125.5709,"lat":-8.55744,"pop":0},{"id":1942982,"name":"Com","lon":127.05111,"lat":-8.35611,"pop":0},{"id":1943841,"name":"Comaoli","lon":126.68,"lat":-8.75639,"pop":0},{"id":1945458,"name":"Comilara","lon":126.93,"lat":-8.55583,"pop":0},{"id":8629069,"name":"Comoro","lon":125.51667,"lat":-8.55,"pop":0},{"id":1945066,"name":"Condar","lon":125.96139,"lat":-8.53278,"pop":0},{"id":1943473,"name":"Corohoco","lon":126.14417,"lat":-8.60583,"pop":0},{"id":8693268,"name":"Correio","lon":125.5804,"lat":-8.56088,"pop":0},{"id":8617938,"name":"Costa","lon":124.42085,"lat":-9.2769,"pop":0},{"id":8630000,"name":"Cota Heu","lon":125.38333,"lat":-8.73333,"pop":0},{"id":1945316,"name":"Cotabot","lon":125.3829,"lat":-9.01447,"pop":0},{"id":1942889,"name":"Cotaissi","lon":126.5625,"lat":-8.53722,"pop":0},{"id":8642976,"name":"Cotamuto","lon":126.82944,"lat":-8.54083,"pop":0},{"id":8659310,"name":"Cotamutu","lon":126.82944,"lat":-8.54083,"pop":0},{"id":8628951,"name":"Cotolau","lon":125.6,"lat":-8.63333,"pop":0},{"id":1942738,"name":"Couguira","lon":126.60124,"lat":-8.50102,"pop":0},{"id":8629289,"name":"Cowa","lon":124.98116,"lat":-9.04243,"pop":0},{"id":8643580,"name":"Crarec Maruc","lon":126.22028,"lat":-8.88194,"pop":0},{"id":1942852,"name":"Craricboco","lon":126.21417,"lat":-8.83444,"pop":0},{"id":1645944,"name":"Cribas","alt":["Crbas","Kribas"],"lon":126.01667,"lat":-8.68889,"pop":0},{"id":1945045,"name":"Cucara","lon":125.32556,"lat":-8.7975,"pop":0},{"id":1943276,"name":"Cucodere","lon":126.61111,"lat":-8.77528,"pop":0},{"id":8643757,"name":"Culu Hun","lon":125.59712,"lat":-8.55015,"pop":0},{"id":1942906,"name":"Culugia","lon":126.60139,"lat":-8.57667,"pop":0},{"id":8629782,"name":"Cunha","lon":124.32667,"lat":-9.30861,"pop":0},{"id":1944059,"name":"Cutete","lon":124.42318,"lat":-9.23993,"pop":0},{"id":1943704,"name":"Daarobu","lon":125.20444,"lat":-8.82583,"pop":0},{"id":1645860,"name":"Dacolo","alt":["Dacola"],"lon":125.06667,"lat":-9.3,"pop":0},{"id":1943287,"name":"Dadean Huhun","lon":126.04306,"lat":-8.51917,"pop":0},{"id":1943380,"name":"Dadubere","lon":125.04194,"lat":-8.96611,"pop":0},{"id":1944705,"name":"Dadubere","alt":["Dadobere"],"lon":125.38417,"lat":-8.97167,"pop":0},{"id":1943529,"name":"Daemenama","lon":126.5175,"lat":-8.65972,"pop":0},{"id":1943208,"name":"Daesi","lon":126.43389,"lat":-8.73194,"pop":0},{"id":8630078,"name":"Dai-Sua","lon":125.68333,"lat":-9.06667,"pop":0},{"id":1945076,"name":"Dailor","lon":125.57083,"lat":-8.76083,"pop":0},{"id":1943115,"name":"Dailorluta","lon":125.65144,"lat":-8.69148,"pop":0},{"id":1943307,"name":"Dair","lon":125.13861,"lat":-8.63917,"pop":0},{"id":1937086,"name":"Dais","lon":125.31592,"lat":-9.28122,"pop":0},{"id":1937113,"name":"Daisua","lon":125.68667,"lat":-9.08167,"pop":0},{"id":1945375,"name":"Dalari","lon":126.83472,"lat":-8.50917,"pop":0},{"id":1943207,"name":"Dalirisi","lon":126.43611,"lat":-8.73444,"pop":0},{"id":1945087,"name":"Dalun","lon":125.69333,"lat":-8.98556,"pop":0},{"id":1944548,"name":"Dambohum","lon":125.96806,"lat":-8.91389,"pop":0},{"id":8630273,"name":"Dambua Hun","lon":125.96806,"lat":-8.91389,"pop":0},{"id":8643261,"name":"Damlaran","lon":125.10164,"lat":-8.85976,"pop":0},{"id":1943258,"name":"Darabai","lon":126.55306,"lat":-8.8,"pop":0},{"id":1943812,"name":"Daradobi","lon":126.65333,"lat":-8.76694,"pop":0},{"id":8643600,"name":"Daralari","lon":126.5775,"lat":-8.80478,"pop":0},{"id":1943089,"name":"Daralata","lon":126.4525,"lat":-8.60167,"pop":0},{"id":1942920,"name":"Daraloi","lon":126.61,"lat":-8.60583,"pop":0},{"id":1945096,"name":"Daramata","lon":125.74111,"lat":-8.95806,"pop":0},{"id":1943523,"name":"Daraoma","lon":126.53778,"lat":-8.64,"pop":0},{"id":1942348,"name":"Darasula","lon":126.34667,"lat":-8.53361,"pop":0},{"id":1943194,"name":"Dare","lon":125.571,"lat":-8.59273,"pop":0},{"id":1944849,"name":"Dare","lon":125.56111,"lat":-8.93056,"pop":0},{"id":1943163,"name":"Darhai","lon":125.54356,"lat":-8.68637,"pop":0},{"id":1944659,"name":"Darhai","lon":125.39583,"lat":-8.77861,"pop":0},{"id":1943206,"name":"Darinau","lon":126.45917,"lat":-8.73778,"pop":0},{"id":1942650,"name":"Darlau","lon":125.63145,"lat":-8.59488,"pop":0},{"id":1943103,"name":"Daro","lon":125.64079,"lat":-8.71271,"pop":0},{"id":1943423,"name":"Darolema","lon":125.22528,"lat":-8.66444,"pop":0},{"id":1944868,"name":"Daruasa","lon":125.29528,"lat":-8.9725,"pop":0},{"id":1944611,"name":"Darudu","lon":125.43944,"lat":-8.78167,"pop":0},{"id":1943408,"name":"Darulara","lon":125.19,"lat":-8.64139,"pop":0},{"id":1943424,"name":"Darulema","lon":125.21806,"lat":-8.66528,"pop":0},{"id":8630073,"name":"Darulete","lon":125.35,"lat":-8.65,"pop":0},{"id":11856535,"name":"Dasilelo","lon":125.76306,"lat":-8.61611,"pop":0},{"id":1943687,"name":"Dassarai","lon":126.40861,"lat":-8.76694,"pop":0},{"id":1943361,"name":"Datametan","lon":126.225,"lat":-8.8925,"pop":0},{"id":1942577,"name":"Datawa","lon":126.46539,"lat":-8.46334,"pop":0},{"id":1945150,"name":"Datina","lon":125.6325,"lat":-8.93389,"pop":0},{"id":1943456,"name":"Dato","lon":125.32778,"lat":-8.595,"pop":0},{"id":8629789,"name":"Dato Rua","lon":125.05583,"lat":-9.23123,"pop":0},{"id":8629791,"name":"Dato Tolu","lon":125.13342,"lat":-9.2497,"pop":0},{"id":1943066,"name":"Datoleo","lon":125.48861,"lat":-8.65722,"pop":0},{"id":1943656,"name":"Datolia","lon":125.05083,"lat":-8.90361,"pop":0},{"id":8630069,"name":"Datolor","lon":125.91667,"lat":-9.06667,"pop":0},{"id":8643093,"name":"Dau Udo","lon":125.26278,"lat":-8.8875,"pop":0},{"id":1943012,"name":"Daudere","lon":126.82222,"lat":-8.45028,"pop":0},{"id":1943120,"name":"Daulalan","lon":125.63072,"lat":-8.68436,"pop":0},{"id":1942837,"name":"Daulaturo","lon":126.91056,"lat":-8.39528,"pop":0},{"id":1943221,"name":"Daule","lon":126.42333,"lat":-8.655,"pop":0},{"id":1943896,"name":"Daulelo","lon":125.23528,"lat":-8.87861,"pop":0},{"id":1945621,"name":"Daulelo","lon":125.68222,"lat":-8.85472,"pop":0},{"id":1944496,"name":"Daurata","lon":125.76056,"lat":-8.92833,"pop":0},{"id":1944619,"name":"Dauroloc","lon":125.945,"lat":-8.86139,"pop":0},{"id":1945596,"name":"Debos","lon":125.25167,"lat":-9.31444,"pop":0},{"id":1943988,"name":"Debosasumaten","lon":125.24806,"lat":-9.31156,"pop":0},{"id":1942794,"name":"Defadae","lon":126.52278,"lat":-8.58333,"pop":0},{"id":1946109,"name":"Defauassi","lon":126.69222,"lat":-8.59528,"pop":0},{"id":8629117,"name":"Deleso","lon":125.5,"lat":-8.66667,"pop":0},{"id":1945623,"name":"Delubo","lon":125.71778,"lat":-8.85833,"pop":0},{"id":1943405,"name":"Delusuvati","alt":["Delesuvaati"],"lon":125.17194,"lat":-8.62972,"pop":0},{"id":1945200,"name":"Dena","lon":125.34361,"lat":-9.04639,"pop":0},{"id":1945072,"name":"Denehuni","lon":125.56139,"lat":-8.78806,"pop":0},{"id":1943480,"name":"Denihare","lon":126.69861,"lat":-8.67694,"pop":0},{"id":1943335,"name":"Deralare","lon":126.66861,"lat":-8.68806,"pop":0},{"id":1943138,"name":"Derohati","lon":125.63918,"lat":-8.65286,"pop":0},{"id":8643357,"name":"Deudet","lon":125.27389,"lat":-9.14167,"pop":0},{"id":1945164,"name":"Deunai","lon":125.66194,"lat":-8.90667,"pop":0},{"id":1945020,"name":"Diaro","lon":125.33556,"lat":-8.80972,"pop":0},{"id":1945580,"name":"Dilai","lon":125.32265,"lat":-9.17214,"pop":0},{"id":1943711,"name":"Dilatorobo","lon":125.235,"lat":-8.87111,"pop":0},{"id":1645457,"name":"Dili","alt":["DIL","Delhi","Dilhi","Dili khot","Dilis","Dilli","Dilly","Dilo","Dily","Dyli","Díli","Nova Dili","Ntili","di li","dili","dilli","diri","dyly","tili","Ντίλι","Дили","Дили хот","Дылі","Ділі","Դիլի","דילי","دىلى","ديلي","دیلی","ڈلی","दिली","দিলি","ਦੀਲੀ","டிலி","ಡಿಲಿ","ദിലി","ดิลี","དྷི་ལི།","ဒီလီမြို့","დილი","ディリ","帝力","딜리"],"lon":125.57361,"lat":-8.55861,"pop":150000},{"id":1942853,"name":"Dilor","lon":126.2125,"lat":-8.83778,"pop":0},{"id":1945294,"name":"Dilukede","lon":125.44832,"lat":-9.16041,"pop":0},{"id":1945617,"name":"Dimtete","lon":125.64889,"lat":-8.85944,"pop":0},{"id":1943261,"name":"Dinbau","lon":126.55583,"lat":-8.79667,"pop":0},{"id":1943744,"name":"Direma","lon":125.25361,"lat":-8.73833,"pop":0},{"id":1942489,"name":"Dirgantara","lon":126.36912,"lat":-8.49198,"pop":0},{"id":8629366,"name":"Dirhatilau","lon":125.25,"lat":-8.75,"pop":0},{"id":1943468,"name":"Dirihatilau","lon":125.24472,"lat":-8.74611,"pop":0},{"id":1943903,"name":"Diruabe","lon":125.21556,"lat":-8.95139,"pop":0},{"id":1943644,"name":"Diruana","lon":125.09944,"lat":-8.94306,"pop":0},{"id":1943702,"name":"Dirularan","lon":125.20111,"lat":-8.83194,"pop":0},{"id":1943908,"name":"Dirumdesan","lon":125.22111,"lat":-8.98083,"pop":0},{"id":1942562,"name":"Diwake","lon":126.46146,"lat":-8.44883,"pop":0},{"id":1943325,"name":"Docoate","lon":126.63444,"lat":-8.70417,"pop":0},{"id":8630089,"name":"Dolibuti","lon":126.41667,"lat":-8.76667,"pop":0},{"id":1943160,"name":"Dorema","lon":125.50161,"lat":-8.68903,"pop":0},{"id":1944152,"name":"Doro","lon":125.60306,"lat":-8.16583,"pop":0},{"id":1943766,"name":"Dosmagar","lon":125.31889,"lat":-8.71917,"pop":0},{"id":1943767,"name":"Dosmagar Kraik","lon":125.31861,"lat":-8.70611,"pop":0},{"id":8629852,"name":"Dotik","lon":125.9175,"lat":-9.07056,"pop":0},{"id":1943647,"name":"Duaderok","lon":125.07861,"lat":-8.92333,"pop":0},{"id":1943648,"name":"Dualanok","lon":125.09139,"lat":-8.91306,"pop":0},{"id":1945058,"name":"Ducurai","lon":125.3425,"lat":-8.77611,"pop":0},{"id":8629709,"name":"Ducurai","lon":125.49065,"lat":-8.85522,"pop":0},{"id":1944593,"name":"Duhoho","lon":125.42,"lat":-8.83083,"pop":0},{"id":1944775,"name":"Duhoho","lon":125.41944,"lat":-8.88583,"pop":0},{"id":1943686,"name":"Dulibuti","lon":126.41167,"lat":-8.76,"pop":0},{"id":1942279,"name":"Durubasa","lon":125.37889,"lat":-8.61083,"pop":0},{"id":1944926,"name":"Duyung","lon":125.75333,"lat":-8.52861,"pop":0},{"id":1943649,"name":"Ecapo","lon":125.3725,"lat":-8.67833,"pop":0},{"id":8629629,"name":"Edi","lon":125.63858,"lat":-8.82371,"pop":0},{"id":1942796,"name":"Eduquele","lon":126.52194,"lat":-8.61722,"pop":0},{"id":1944470,"name":"Ejomenu","lon":124.30306,"lat":-9.44167,"pop":0},{"id":1945353,"name":"Enanice","lon":126.81167,"lat":-8.55056,"pop":0},{"id":1944005,"name":"Enelaran","lon":125.06611,"lat":-8.8275,"pop":0},{"id":1944331,"name":"Eonae","lon":124.38667,"lat":-9.2525,"pop":0},{"id":1944122,"name":"Eratoi","lon":125.48972,"lat":-8.83889,"pop":0},{"id":1943169,"name":"Eraulo","lon":125.51172,"lat":-8.66496,"pop":0},{"id":8629708,"name":"Eraulo","lon":125.45013,"lat":-8.79551,"pop":0},{"id":1944692,"name":"Erbean","lon":125.54056,"lat":-8.84917,"pop":0},{"id":1945080,"name":"Erelolo","lon":125.58778,"lat":-8.81639,"pop":0},{"id":1943733,"name":"Ergoa","lon":125.36472,"lat":-8.68333,"pop":0},{"id":1939697,"name":"Ergoi","lon":125.45028,"lat":-8.74,"pop":0},{"id":1944694,"name":"Erhetu","lon":125.52028,"lat":-8.83444,"pop":0},{"id":1943431,"name":"Erito","lon":125.17139,"lat":-8.6525,"pop":0},{"id":1944859,"name":"Ernaro","lon":125.57139,"lat":-8.92861,"pop":0},{"id":1945629,"name":"Ernaro","lon":125.66,"lat":-8.84194,"pop":0},{"id":1942777,"name":"Eroho","lon":125.38167,"lat":-8.73111,"pop":0},{"id":1943447,"name":"Esloso","lon":125.235,"lat":-8.6775,"pop":0},{"id":8629707,"name":"Estado","lon":125.42542,"lat":-8.7928,"pop":0},{"id":1945234,"name":"Etevata","lon":126.81222,"lat":-8.69583,"pop":0},{"id":8643352,"name":"Etimano","lon":125.37944,"lat":-8.86,"pop":0},{"id":1942983,"name":"Etipiti","lon":127.02389,"lat":-8.34139,"pop":0},{"id":8643082,"name":"Euquisi","lon":126.74722,"lat":-8.43222,"pop":0},{"id":1942909,"name":"Facua","lon":126.60194,"lat":-8.58389,"pop":0},{"id":1943132,"name":"Faculau","lon":125.73128,"lat":-8.66233,"pop":0},{"id":8629002,"name":"Fadabloco","lon":125.68749,"lat":-8.66954,"pop":0},{"id":1943643,"name":"Fahate","lon":125.34806,"lat":-8.66944,"pop":0},{"id":1942844,"name":"Fahikrin","lon":126.045,"lat":-8.97694,"pop":0},{"id":1944575,"name":"Fahilacor","lon":125.79694,"lat":-8.65417,"pop":0},{"id":1943359,"name":"Fahilain","lon":126.22333,"lat":-8.89444,"pop":0},{"id":8643027,"name":"Fahilebo","lon":125.4,"lat":-8.65,"pop":0},{"id":1945625,"name":"Fahilebu","lon":125.72,"lat":-8.84722,"pop":0},{"id":1944848,"name":"Fahiluhan","lon":125.62278,"lat":-8.93611,"pop":0},{"id":1945149,"name":"Fahiluhan","lon":125.62611,"lat":-8.93611,"pop":0},{"id":8629899,"name":"Fahinehan","lon":125.74111,"lat":-8.95806,"pop":0},{"id":8629977,"name":"Fahiria","lon":125.5,"lat":-8.71667,"pop":0},{"id":1943116,"name":"Fahisoi","lon":125.64333,"lat":-8.69194,"pop":0},{"id":8629003,"name":"Fahisoi","lon":125.6333,"lat":-8.65,"pop":0},{"id":1942381,"name":"Fahita","lon":125.46556,"lat":-8.62028,"pop":0},{"id":1944424,"name":"Faiteno","lon":124.35722,"lat":-9.26361,"pop":0},{"id":1943039,"name":"Falimano","lon":125.44361,"lat":-8.71222,"pop":0},{"id":1943972,"name":"Falohai","lon":125.075,"lat":-9.0025,"pop":0},{"id":1946098,"name":"Fanalolo","lon":126.68222,"lat":-8.56972,"pop":0},{"id":1945366,"name":"Fanice","lon":126.83722,"lat":-8.53917,"pop":0},{"id":1945641,"name":"Fanulelo","lon":125.745,"lat":-8.81917,"pop":0},{"id":8629326,"name":"Fanulolo","lon":126.68333,"lat":-8.56667,"pop":0},{"id":1942422,"name":"Farol","lon":125.56861,"lat":-8.55333,"pop":0},{"id":1943788,"name":"Fasili","lon":125.11444,"lat":-8.65972,"pop":0},{"id":1943037,"name":"Fatada","lon":125.43528,"lat":-8.70222,"pop":0},{"id":1943165,"name":"Fateran","lon":125.54228,"lat":-8.67685,"pop":0},{"id":8628954,"name":"Fatisi","lon":125.53333,"lat":-8.63333,"pop":0},{"id":1944422,"name":"Fatnuni","lon":124.3375,"lat":-9.26667,"pop":0},{"id":1943674,"name":"Fatoalas","lon":126.49139,"lat":-8.88056,"pop":0},{"id":1944556,"name":"Fatobalon","lon":125.97167,"lat":-8.91389,"pop":0},{"id":1944686,"name":"Fatobuti","lon":125.60361,"lat":-8.85667,"pop":0},{"id":1943185,"name":"Fatokkun","lon":125.61267,"lat":-8.63692,"pop":0},{"id":1942585,"name":"Fatometa","lon":125.54337,"lat":-8.58439,"pop":0},{"id":1944474,"name":"Fatsuba","lon":124.29917,"lat":-9.43694,"pop":0},{"id":1644800,"name":"Fatu Cuac","alt":["Fatoe Coeac"],"lon":125.73333,"lat":-9.03333,"pop":0},{"id":1644795,"name":"Fatu-Maquerec","alt":["Nova Caminha"],"lon":125.78333,"lat":-8.76667,"pop":0},{"id":1942653,"name":"Fatuahi","lon":125.63383,"lat":-8.5675,"pop":0},{"id":1944951,"name":"Fatualas","lon":125.65861,"lat":-9.11167,"pop":0},{"id":1942625,"name":"Fatubelar","lon":125.72277,"lat":-8.62145,"pop":0},{"id":1644805,"name":"Fatuberliu","alt":["Fatu Berlin","Fatu-Berlio","Hato-Berlio","Nova Anadia"],"lon":125.87028,"lat":-8.94833,"pop":0},{"id":1945555,"name":"Fatubese","alt":["Fatubesi"],"lon":125.9953,"lat":-9.03371,"pop":0},{"id":1944176,"name":"Fatubesi","lon":125.09611,"lat":-9.28833,"pop":0},{"id":1945050,"name":"Fatubesi","lon":125.51333,"lat":-8.81333,"pop":0},{"id":1644803,"name":"Fatubessi","alt":["Fatu Besi"],"lon":125.32611,"lat":-8.74833,"pop":0},{"id":1943719,"name":"Fatubessi","lon":125.21194,"lat":-8.79778,"pop":0},{"id":8629846,"name":"Fatubessi","lon":125.66417,"lat":-8.80306,"pop":0},{"id":1945191,"name":"Fatuboec","lon":125.99806,"lat":-9.03139,"pop":0},{"id":1944009,"name":"Fatubolo","lon":125.36833,"lat":-8.74944,"pop":0},{"id":8643417,"name":"Fatubosa","lon":125.56,"lat":-8.81,"pop":0},{"id":1945061,"name":"Fatubossa","lon":125.55583,"lat":-8.79889,"pop":0},{"id":1942866,"name":"Fatucado","lon":126.2,"lat":-8.8425,"pop":0},{"id":1945550,"name":"Fatucahi","lon":125.98677,"lat":-9.03514,"pop":0},{"id":8630067,"name":"Fatuco","lon":125.66667,"lat":-8.96667,"pop":0},{"id":8643607,"name":"Fatudere","lon":126.44944,"lat":-8.94417,"pop":0},{"id":1944871,"name":"Fatuha","lon":125.90833,"lat":-8.74056,"pop":0},{"id":1942415,"name":"Fatuhada","lon":125.55717,"lat":-8.55232,"pop":0},{"id":1943839,"name":"Fatuhosa","lon":126.27083,"lat":-8.96556,"pop":0},{"id":1943650,"name":"Fatuhou","lon":125.36861,"lat":-8.68222,"pop":0},{"id":1936797,"name":"Fatukabelak","lon":125.65719,"lat":-9.14568,"pop":0},{"id":1945517,"name":"Fatukabelak","lon":125.66222,"lat":-9.14806,"pop":0},{"id":1943386,"name":"Fatukakae","lon":125.02861,"lat":-8.96056,"pop":0},{"id":8629902,"name":"Fatukalo","lon":125.76472,"lat":-8.76306,"pop":0},{"id":1945287,"name":"Fatukao","lon":125.45431,"lat":-9.17489,"pop":0},{"id":1944159,"name":"Fatukbelak","lon":124.9814,"lat":-9.01748,"pop":0},{"id":1944184,"name":"Fatukbitiklaran","lon":125.09139,"lat":-9.28167,"pop":0},{"id":1944074,"name":"Fatuke","lon":124.46299,"lat":-9.17907,"pop":0},{"id":1944029,"name":"Fatukkabuarleten","lon":125.14528,"lat":-9.25,"pop":0},{"id":1943625,"name":"Fatuklaran","lon":125.05,"lat":-8.99111,"pop":0},{"id":1944174,"name":"Fatuklaran","lon":125.09306,"lat":-9.29417,"pop":0},{"id":1944189,"name":"Fatukledun","lon":125.06031,"lat":-9.26306,"pop":0},{"id":1944162,"name":"Fatukmetan","lon":125.09194,"lat":-9.34833,"pop":0},{"id":1943979,"name":"Fatukoan","lon":125.20306,"lat":-9.3425,"pop":0},{"id":1945092,"name":"Fatuku","lon":125.66222,"lat":-8.96972,"pop":0},{"id":1943384,"name":"Fatukuak","lon":125.04361,"lat":-8.97,"pop":0},{"id":1944020,"name":"Fatulagung","lon":125.10583,"lat":-8.79583,"pop":0},{"id":1944638,"name":"Fatulai","lon":125.47639,"lat":-8.79306,"pop":0},{"id":1944563,"name":"Fatulelo","lon":125.75333,"lat":-8.85667,"pop":0},{"id":8629796,"name":"Fatuleto","lon":125.39091,"lat":-9.05913,"pop":0},{"id":1943198,"name":"Fatulia","lon":126.36611,"lat":-8.64111,"pop":0},{"id":1942541,"name":"Fatuloda","lon":125.59139,"lat":-8.59972,"pop":0},{"id":1944033,"name":"Fatuloro","lon":125.17887,"lat":-9.22748,"pop":0},{"id":1943385,"name":"Fatululit","lon":125.03917,"lat":-8.97361,"pop":0},{"id":8692974,"name":"Fatumaca","lon":126.38559,"lat":-8.56587,"pop":0},{"id":1942638,"name":"Fatumanaro","lon":125.66627,"lat":-8.61776,"pop":0},{"id":8629100,"name":"Fatumasi","lon":125.38877,"lat":-8.61824,"pop":0},{"id":8629124,"name":"Fatumasse","lon":125.38333,"lat":-8.61667,"pop":0},{"id":1943690,"name":"Fatumea","lon":125.13694,"lat":-8.86028,"pop":0},{"id":8630039,"name":"Fatumea","lon":125.03333,"lat":-9.23333,"pop":0},{"id":1644793,"name":"Fatumean","alt":["Fatomean","Oliveira"],"lon":125.03583,"lat":-9.22917,"pop":0},{"id":1943105,"name":"Fatumering","lon":125.63742,"lat":-8.70779,"pop":0},{"id":1942424,"name":"Fatumeta","lon":125.55166,"lat":-8.5637,"pop":0},{"id":1945551,"name":"Fatumotin","lon":125.99322,"lat":-9.03496,"pop":0},{"id":1944475,"name":"Fatumtasa","lon":124.305,"lat":-9.43778,"pop":0},{"id":1944016,"name":"Fatumulih","lon":125.10139,"lat":-8.79417,"pop":0},{"id":1942517,"name":"Fatunaba","alt":["Fatonaba"],"lon":125.57916,"lat":-8.59461,"pop":0},{"id":1944205,"name":"Fatunababo","lon":124.23,"lat":-9.35778,"pop":0},{"id":1944994,"name":"Fatunapa","lon":125.34639,"lat":-8.81472,"pop":0},{"id":1943077,"name":"Fatuneso","lon":125.39861,"lat":-8.64472,"pop":0},{"id":1942376,"name":"Fatunia","lon":125.485,"lat":-8.58611,"pop":0},{"id":1943390,"name":"Fatunisin","lon":125.06472,"lat":-8.955,"pop":0},{"id":1944072,"name":"Fatuputi","lon":124.44053,"lat":-9.1697,"pop":0},{"id":8629118,"name":"Fatuquero","lon":125.43333,"lat":-8.7,"pop":0},{"id":8617845,"name":"Faturasa","lon":125.71667,"lat":-8.66667,"pop":0},{"id":1943875,"name":"Faturaseh","lon":125.15083,"lat":-8.80139,"pop":0},{"id":1945636,"name":"Faturedelau","lon":125.70472,"lat":-8.82528,"pop":0},{"id":8617842,"name":"Faturilau","lon":125.71667,"lat":-8.71667,"pop":0},{"id":1943646,"name":"Faturui","lon":125.07861,"lat":-8.93056,"pop":0},{"id":1944099,"name":"Fatusene","lon":124.34333,"lat":-9.23778,"pop":0},{"id":1943662,"name":"Fatuteke","lon":125.03444,"lat":-8.94917,"pop":0},{"id":1944512,"name":"Fatututa","lon":124.35,"lat":-9.38444,"pop":0},{"id":1944824,"name":"Fatuuk","lon":125.97611,"lat":-8.63972,"pop":0},{"id":8644075,"name":"Fatuwaque","lon":126.05889,"lat":-8.97167,"pop":0},{"id":1943634,"name":"Fauk","lon":125.07528,"lat":-8.97139,"pop":0},{"id":8643298,"name":"Faularan","lon":125.16569,"lat":-9.39972,"pop":0},{"id":1945504,"name":"Faulata","lon":125.53097,"lat":-9.07426,"pop":0},{"id":1944382,"name":"Faut","lon":124.34861,"lat":-9.30694,"pop":0},{"id":1944455,"name":"Fauteso","lon":124.32667,"lat":-9.46,"pop":0},{"id":1944504,"name":"Fauteso","lon":124.35667,"lat":-9.39972,"pop":0},{"id":1944476,"name":"Fautkabe","lon":124.30694,"lat":-9.43583,"pop":0},{"id":1944418,"name":"Fautmet","lon":124.35722,"lat":-9.26778,"pop":0},{"id":8629398,"name":"Fehuc Rin","lon":126.05,"lat":-8.98333,"pop":0},{"id":1943175,"name":"Fereleometa","lon":125.55127,"lat":-8.63757,"pop":0},{"id":1943629,"name":"Ferikatuas","lon":125.065,"lat":-8.99417,"pop":0},{"id":1945532,"name":"Feriksare","lon":125.78348,"lat":-9.10346,"pop":0},{"id":1942786,"name":"Festau","lon":126.51472,"lat":-8.54,"pop":0},{"id":1944636,"name":"Fisunia","lon":125.4775,"lat":-8.77306,"pop":0},{"id":1943393,"name":"Fiuren","lon":125.07917,"lat":-8.95472,"pop":0},{"id":1943864,"name":"Flarsirna","alt":["Flarsima"],"lon":125.10778,"lat":-8.70056,"pop":0},{"id":1944912,"name":"Flisac","lon":125.59583,"lat":-8.87778,"pop":0},{"id":8643416,"name":"Fo Liman ba Malu","lon":125.54,"lat":-8.7,"pop":0},{"id":1945032,"name":"Foelemea","lon":125.30139,"lat":-8.80278,"pop":0},{"id":1945031,"name":"Foetete","lon":125.30833,"lat":-8.80417,"pop":0},{"id":1944448,"name":"Fofe","lon":124.33083,"lat":-9.46778,"pop":0},{"id":8643673,"name":"Foho Ailico","lon":125.66667,"lat":-9.11667,"pop":0},{"id":8629996,"name":"Foho Rua","lon":125.23333,"lat":-9.3,"pop":0},{"id":8643611,"name":"Foho-Ai-Lico","lon":125.65,"lat":-9.11667,"pop":0},{"id":8629907,"name":"Foholau","lon":125.74917,"lat":-8.85194,"pop":0},{"id":1944171,"name":"Foholulik","lon":125.06651,"lat":-9.31403,"pop":0},{"id":1943259,"name":"Fohomano","lon":126.55444,"lat":-8.79861,"pop":0},{"id":1945637,"name":"Fohonaro","lon":125.72722,"lat":-8.83278,"pop":0},{"id":1944181,"name":"Fohorem","lon":125.08944,"lat":-9.28361,"pop":0},{"id":8630040,"name":"Fohoren","lon":125.08333,"lat":-9.28333,"pop":0},{"id":1944006,"name":"Fohorua","lon":125.23833,"lat":-9.2957,"pop":0},{"id":1945647,"name":"Fohua","lon":125.69806,"lat":-8.82083,"pop":0},{"id":8643273,"name":"Foin Kman","lon":125.55,"lat":-8.7083,"pop":0},{"id":1944866,"name":"Folete","lon":125.30583,"lat":-8.96917,"pop":0},{"id":1942406,"name":"Fomento","lon":125.53806,"lat":-8.55722,"pop":0},{"id":1944532,"name":"Fot","lon":124.34222,"lat":-9.46972,"pop":0},{"id":1944053,"name":"Fuabana","lon":124.20844,"lat":-9.24536,"pop":0},{"id":8643775,"name":"Fuabano","lon":124.20961,"lat":-9.28902,"pop":0},{"id":1944445,"name":"Fuames","lon":124.31417,"lat":-9.46694,"pop":0},{"id":1945259,"name":"Fuat","lon":126.83056,"lat":-8.70889,"pop":0},{"id":1644712,"name":"Fuiloro","alt":["Fwiloro","Vila de Avis","Vila de Aviz"],"lon":127.01667,"lat":-8.41667,"pop":0},{"id":1945439,"name":"Fuiloro","lon":126.99,"lat":-8.50833,"pop":0},{"id":1944084,"name":"Fuin","lon":124.26048,"lat":-9.23257,"pop":0},{"id":1944103,"name":"Fulolo","lon":124.33861,"lat":-9.21278,"pop":0},{"id":8617932,"name":"Funar","lon":125.9,"lat":-8.75332,"pop":0},{"id":1945622,"name":"Furaclau","lon":125.7175,"lat":-8.86611,"pop":0},{"id":1944158,"name":"Futatas","lon":124.99528,"lat":-9.02306,"pop":0},{"id":1945598,"name":"Futuisin","lon":125.28306,"lat":-9.32222,"pop":0},{"id":1937091,"name":"Futusin","lon":125.2825,"lat":-9.32194,"pop":0},{"id":1943750,"name":"Gaelema","lon":125.36361,"lat":-8.72972,"pop":0},{"id":1945101,"name":"Gaenoa","lon":125.36722,"lat":-8.77167,"pop":0},{"id":1945592,"name":"Gala","lon":125.35583,"lat":-9.13833,"pop":0},{"id":1944792,"name":"Galaimata","lon":125.38444,"lat":-8.88806,"pop":0},{"id":1945273,"name":"Galitas","lon":125.42389,"lat":-9.19583,"pop":0},{"id":1945169,"name":"Galitaz","lon":125.36233,"lat":-9.07374,"pop":0},{"id":1945252,"name":"Galusapulu","lon":125.25828,"lat":-9.01114,"pop":0},{"id":1942687,"name":"Gamana","lon":126.55763,"lat":-8.48476,"pop":0},{"id":1943616,"name":"Gariana","lon":125.29361,"lat":-8.66889,"pop":0},{"id":1942951,"name":"Gariuai","lon":126.41056,"lat":-8.54444,"pop":0},{"id":1944600,"name":"Gaulala","lon":125.45389,"lat":-8.81889,"pop":0},{"id":8643778,"name":"Genu Lai","lon":125.28333,"lat":-8.9,"pop":0},{"id":1943912,"name":"Genuhaan","lon":125.20167,"lat":-8.98833,"pop":0},{"id":1944727,"name":"Genutete","lon":125.39361,"lat":-8.93472,"pop":0},{"id":1945097,"name":"Geroboti","lon":125.35722,"lat":-8.78028,"pop":0},{"id":1942341,"name":"Gerohata","lon":125.44056,"lat":-8.56944,"pop":0},{"id":1944932,"name":"Gerotete","lon":125.26444,"lat":-8.88417,"pop":0},{"id":1945515,"name":"Gerudu","lon":125.51806,"lat":-9.0025,"pop":0},{"id":1943951,"name":"Gildapil","lon":125.21398,"lat":-9.12173,"pop":0},{"id":1943464,"name":"Glai","lon":125.20083,"lat":-8.73389,"pop":0},{"id":1942811,"name":"Gleno","alt":["Glenas"],"lon":125.43611,"lat":-8.72389,"pop":8133},{"id":1944979,"name":"Gnutur","lon":125.31444,"lat":-8.865,"pop":0},{"id":1942810,"name":"Gombei","lon":125.43417,"lat":-8.73278,"pop":0},{"id":1944657,"name":"Gomhaei","lon":125.37639,"lat":-8.78361,"pop":0},{"id":1943049,"name":"Gorema","lon":125.38556,"lat":-8.695,"pop":0},{"id":1943998,"name":"Goubin","lon":125.07389,"lat":-8.86889,"pop":0},{"id":1945486,"name":"Goulau","lon":125.58583,"lat":-9.11472,"pop":0},{"id":1943462,"name":"Goulete","lon":125.17972,"lat":-8.74306,"pop":0},{"id":1943874,"name":"Goulete","lon":125.14583,"lat":-8.80861,"pop":0},{"id":1944605,"name":"Goulolo","lon":125.42972,"lat":-8.80167,"pop":0},{"id":8643780,"name":"Goulolo","lon":125.28333,"lat":-8.91667,"pop":0},{"id":1944839,"name":"Goulora","lon":125.5675,"lat":-8.93722,"pop":0},{"id":8629252,"name":"Gricenfor","lon":125.58395,"lat":-8.55344,"pop":0},{"id":1937136,"name":"Groto","lon":125.62972,"lat":-9.11,"pop":0},{"id":1943751,"name":"Groto","lon":125.35222,"lat":-8.73528,"pop":0},{"id":1945483,"name":"Groto","lon":125.58861,"lat":-9.12111,"pop":0},{"id":1945248,"name":"Grotu","lon":125.33417,"lat":-9.01222,"pop":0},{"id":1945526,"name":"Grotu","lon":125.60056,"lat":-9.03361,"pop":0},{"id":1945586,"name":"Gudatas","lon":125.29759,"lat":-9.13651,"pop":0},{"id":8629993,"name":"Gudataz","lon":125.3,"lat":-9.13333,"pop":0},{"id":8643092,"name":"Guenu Lai","alt":["Guenolai","Guenulai"],"lon":125.27222,"lat":-8.91896,"pop":348},{"id":8629984,"name":"Guer-Udo","lon":125.51667,"lat":-9,"pop":0},{"id":8629103,"name":"Gugleur","lon":125.14835,"lat":-8.6467,"pop":0},{"id":1942907,"name":"Gugolai","lon":126.59972,"lat":-8.57833,"pop":0},{"id":1942690,"name":"Gugulai","lon":126.56253,"lat":-8.48305,"pop":0},{"id":8629120,"name":"Guico","lon":125.2,"lat":-8.68333,"pop":0},{"id":8629098,"name":"Guiso","lon":125.19608,"lat":-8.7156,"pop":0},{"id":1936784,"name":"Gulala","lon":125.66331,"lat":-9.17158,"pop":0},{"id":1945491,"name":"Gulala","lon":125.66167,"lat":-9.17583,"pop":0},{"id":1944557,"name":"Gulorlau","lon":125.50806,"lat":-8.95833,"pop":0},{"id":1944004,"name":"Gulumanu","lon":125.10528,"lat":-8.73,"pop":0},{"id":1945585,"name":"Gulumugun","lon":125.29472,"lat":-9.13833,"pop":0},{"id":1945247,"name":"Gumer","lon":125.34484,"lat":-9.01532,"pop":0},{"id":1945349,"name":"Gunung Dilarini","lon":126.82056,"lat":-8.60194,"pop":365},{"id":1943098,"name":"Guriqui","lon":125.65417,"lat":-8.71861,"pop":0},{"id":1942888,"name":"Guruca","lon":126.56472,"lat":-8.54306,"pop":0},{"id":1944867,"name":"Haareme","lon":125.29417,"lat":-8.96944,"pop":0},{"id":1942460,"name":"Habolale","lon":126.31783,"lat":-8.45361,"pop":0},{"id":8629771,"name":"Hae-Coni","lon":126.65211,"lat":-8.60784,"pop":0},{"id":1943500,"name":"Haebubo","lon":126.72361,"lat":-8.71889,"pop":0},{"id":1943306,"name":"Haeconi","lon":126.63333,"lat":-8.64972,"pop":0},{"id":1944052,"name":"Haeheu","lon":125.37278,"lat":-8.83167,"pop":0},{"id":1945619,"name":"Haemanu","alt":["Haemano"],"lon":125.34556,"lat":-9.25389,"pop":0},{"id":1945000,"name":"Hahihoho","lon":125.92222,"lat":-8.55222,"pop":0},{"id":1945630,"name":"Hahimau","lon":125.64833,"lat":-8.84389,"pop":0},{"id":1945618,"name":"Hahitali","lon":125.65972,"lat":-8.8625,"pop":0},{"id":1945421,"name":"Haitupuca","alt":["Hai Tupuca"],"lon":126.97333,"lat":-8.56333,"pop":0},{"id":8643279,"name":"Hakiak Moris","lon":125.5336,"lat":-8.7,"pop":0},{"id":1945356,"name":"Halaena","lon":126.83667,"lat":-8.54639,"pop":0},{"id":1943030,"name":"Halalmeta","lon":125.49056,"lat":-8.71833,"pop":0},{"id":1945219,"name":"Haleberliuk","lon":126.01278,"lat":-9.00583,"pop":0},{"id":1944190,"name":"Halilaran","lon":125.06056,"lat":-9.26,"pop":0},{"id":1944166,"name":"Halimea","lon":125.11185,"lat":-9.34219,"pop":0},{"id":1943795,"name":"Halimea Bawah","lon":125.14338,"lat":-9.40561,"pop":0},{"id":1942859,"name":"Halimean","lon":126.21278,"lat":-8.83944,"pop":0},{"id":1943947,"name":"Halimutin","lon":125.23861,"lat":-9.10111,"pop":0},{"id":1943254,"name":"Halinsana","lon":124.96556,"lat":-8.94972,"pop":0},{"id":1942857,"name":"Halioan","lon":126.21528,"lat":-8.83667,"pop":0},{"id":1943377,"name":"Haliren","lon":125.00611,"lat":-8.99389,"pop":0},{"id":1945262,"name":"Hamahun","lon":126.825,"lat":-8.64361,"pop":0},{"id":1944887,"name":"Haotio","lon":125.58472,"lat":-8.91056,"pop":0},{"id":1945249,"name":"Harare","lon":125.32944,"lat":-9.01056,"pop":0},{"id":1945278,"name":"Harekain","lon":125.48521,"lat":-9.18271,"pop":0},{"id":1943897,"name":"Harema","lon":125.22833,"lat":-8.88722,"pop":0},{"id":1943838,"name":"Hareoan","lon":126.27056,"lat":-8.96444,"pop":0},{"id":1945469,"name":"Harolata","lon":127.01528,"lat":-8.64389,"pop":0},{"id":1943799,"name":"Hasabut","lon":126.37194,"lat":-8.86806,"pop":0},{"id":1937080,"name":"Hasain","lon":125.30252,"lat":-9.26707,"pop":0},{"id":1945610,"name":"Hasain","lon":125.30278,"lat":-9.26806,"pop":0},{"id":1942407,"name":"Haslaran","lon":125.53778,"lat":-8.56222,"pop":0},{"id":1945217,"name":"Haslulucmodoc","lon":126.01139,"lat":-9.01056,"pop":0},{"id":1945159,"name":"Hastetuk","lon":125.68972,"lat":-8.92778,"pop":0},{"id":1944626,"name":"Hatali","lon":125.43333,"lat":-8.76889,"pop":0},{"id":1943022,"name":"Hataman","lon":126.85194,"lat":-8.3875,"pop":0},{"id":1943579,"name":"Hatarlema","lon":125.3175,"lat":-8.63167,"pop":0},{"id":1943576,"name":"Hataulete","lon":125.29444,"lat":-8.62778,"pop":0},{"id":8643563,"name":"Hataz","lon":125.18,"lat":-8.87278,"pop":0},{"id":1945099,"name":"Hatete","lon":125.36889,"lat":-8.77694,"pop":0},{"id":1945015,"name":"Hatobato","lon":125.32528,"lat":-8.81694,"pop":0},{"id":1944906,"name":"Hatobuilico","lon":125.51861,"lat":-8.89361,"pop":0},{"id":1944571,"name":"Hatobuti","lon":125.775,"lat":-8.62694,"pop":0},{"id":1945656,"name":"Hatokade","lon":125.68639,"lat":-8.78306,"pop":0},{"id":1944663,"name":"Hatolalan","lon":125.94111,"lat":-8.74889,"pop":0},{"id":1945040,"name":"Hatoleta","lon":125.59778,"lat":-8.81167,"pop":0},{"id":1643400,"name":"Hatolia","alt":["Hatolia Vila","Hatu Lia","Vila Celestino","Vila Celestino da Silva"],"lon":125.31833,"lat":-8.81139,"pop":0},{"id":1944660,"name":"Hatomalos","lon":125.93278,"lat":-8.75194,"pop":0},{"id":1944861,"name":"Hatomalos","lon":125.93528,"lat":-8.74639,"pop":0},{"id":1944639,"name":"Hatomanuc","lon":125.93111,"lat":-8.79167,"pop":0},{"id":1944970,"name":"Hatomera","lon":125.76444,"lat":-8.60694,"pop":0},{"id":1944606,"name":"Hatomotei","lon":125.42694,"lat":-8.8,"pop":0},{"id":1942780,"name":"Hatoposi","lon":125.38528,"lat":-8.72361,"pop":0},{"id":1944869,"name":"Hatoquero","lon":125.58056,"lat":-8.92944,"pop":0},{"id":1643272,"name":"Hatoudo","alt":["Hato-Udo","Hatu-Udo","Hotahudo","Nova Luca","Nova-Luso","Uato-Udo"],"lon":125.59183,"lat":-9.11946,"pop":0},{"id":8629319,"name":"Hatu-Builico","lon":125.51667,"lat":-8.9,"pop":0},{"id":1943701,"name":"Hatubou","lon":125.19889,"lat":-8.83472,"pop":0},{"id":1944933,"name":"Hatuconan","lon":125.82917,"lat":-8.56389,"pop":0},{"id":1944108,"name":"Hatugau","lon":125.3875,"lat":-8.8475,"pop":0},{"id":1944764,"name":"Hatugeo","lon":125.43083,"lat":-8.88917,"pop":0},{"id":1944120,"name":"Hatuhai","lon":125.48306,"lat":-8.84944,"pop":0},{"id":8629367,"name":"Hatuhei","lon":125.48333,"lat":-8.85,"pop":0},{"id":1944670,"name":"Hatuleta","lon":125.40889,"lat":-8.75472,"pop":0},{"id":1944118,"name":"Hatulete","lon":125.49444,"lat":-8.86333,"pop":0},{"id":1944763,"name":"Hatulete","lon":125.43528,"lat":-8.89028,"pop":0},{"id":1945655,"name":"Hatulete","lon":125.67972,"lat":-8.78694,"pop":0},{"id":8629077,"name":"Hatulia Villa","lon":125.31667,"lat":-8.81667,"pop":0},{"id":1943738,"name":"Hatulialete","lon":125.29861,"lat":-8.71778,"pop":0},{"id":1943595,"name":"Hatululi","lon":125.33694,"lat":-8.64361,"pop":0},{"id":1944684,"name":"Hatululi","lon":125.58722,"lat":-8.85361,"pop":0},{"id":1944000,"name":"Hatumaleha","lon":125.1,"lat":-8.85639,"pop":0},{"id":1943618,"name":"Hatumasi","lon":125.32417,"lat":-8.66694,"pop":0},{"id":1938448,"name":"Hatumede","lon":125.43472,"lat":-8.89278,"pop":0},{"id":1944555,"name":"Hatumetaudo","lon":125.50944,"lat":-8.96528,"pop":0},{"id":1943608,"name":"Hatunau","lon":125.28194,"lat":-8.64278,"pop":0},{"id":1943752,"name":"Hatupa","lon":125.35889,"lat":-8.74111,"pop":0},{"id":1944798,"name":"Hatupae","lon":125.59778,"lat":-8.83,"pop":0},{"id":1943601,"name":"Hatuqesilete","lon":125.32139,"lat":-8.645,"pop":0},{"id":8629122,"name":"Hatuquessi","lon":125.31667,"lat":-8.65,"pop":0},{"id":1945088,"name":"Haturae","lon":125.66556,"lat":-8.98778,"pop":0},{"id":8643564,"name":"Haturalan","lon":126.16222,"lat":-8.54111,"pop":0},{"id":1944608,"name":"Haturema","lon":125.42917,"lat":-8.78778,"pop":0},{"id":1944681,"name":"Hatusao","lon":125.55583,"lat":-8.86389,"pop":0},{"id":1943472,"name":"Hatusili","lon":126.14639,"lat":-8.60611,"pop":0},{"id":8643354,"name":"Hau Hei","lon":125.37278,"lat":-8.83167,"pop":0},{"id":1944366,"name":"Hauana","lon":124.32222,"lat":-9.33611,"pop":0},{"id":1944369,"name":"Hauana","lon":124.32472,"lat":-9.32444,"pop":0},{"id":8629065,"name":"Hauba","lon":125.38704,"lat":-8.99222,"pop":0},{"id":1943916,"name":"Haubai","lon":125.22917,"lat":-8.99333,"pop":0},{"id":1944594,"name":"Hauho","lon":125.40722,"lat":-8.82222,"pop":0},{"id":1942743,"name":"Haukeo","lon":125.71653,"lat":-8.57876,"pop":0},{"id":1944469,"name":"Hauknutu","lon":124.30056,"lat":-9.44556,"pop":0},{"id":1942342,"name":"Haunau","lon":126.335,"lat":-8.54056,"pop":0},{"id":8629710,"name":"Haupu","lon":125.42542,"lat":-8.84233,"pop":0},{"id":8643667,"name":"Haurobo","lon":126.43058,"lat":-8.45113,"pop":0},{"id":1942540,"name":"Haurobu","lon":126.4167,"lat":-8.44103,"pop":0},{"id":1944799,"name":"Hautato","lon":125.59194,"lat":-8.82611,"pop":0},{"id":1943096,"name":"Hautbiritalau","lon":125.65804,"lat":-8.72344,"pop":0},{"id":1945648,"name":"Hautei","lon":125.67667,"lat":-8.82139,"pop":0},{"id":1945633,"name":"Hautilo","lon":125.67944,"lat":-8.83944,"pop":0},{"id":8629001,"name":"Hautoho","lon":125.66869,"lat":-8.67638,"pop":0},{"id":1943716,"name":"Heda","lon":125.21889,"lat":-8.82139,"pop":0},{"id":1945010,"name":"Hedarmea","lon":125.32222,"lat":-8.82417,"pop":0},{"id":1943370,"name":"Hekar","lon":125.34083,"lat":-8.62167,"pop":0},{"id":1945174,"name":"Helikei","lon":125.36297,"lat":-9.07086,"pop":0},{"id":1943186,"name":"Henihuta","lon":126.37222,"lat":-8.68472,"pop":0},{"id":1643345,"name":"Hera","alt":["Herait"],"lon":125.68601,"lat":-8.53846,"pop":0},{"id":1944687,"name":"Herbau","lon":125.62139,"lat":-8.84444,"pop":0},{"id":8629990,"name":"Heu-Uai","lon":126.43333,"lat":-8.46667,"pop":0},{"id":1939572,"name":"Hi","lon":125.43361,"lat":-8.66,"pop":0},{"id":1944105,"name":"Hieotmano","lon":125.37944,"lat":-8.86,"pop":0},{"id":1944617,"name":"Hisuata","lon":125.93472,"lat":-8.86083,"pop":0},{"id":8617685,"name":"Hoholau","lon":125.5,"lat":-8.75,"pop":0},{"id":8642864,"name":"Hoholete","lon":125.55,"lat":-8.83333,"pop":0},{"id":1945016,"name":"Hohopu","lon":125.32028,"lat":-8.81528,"pop":0},{"id":1945038,"name":"Hohorai","lon":125.91194,"lat":-8.55722,"pop":0},{"id":1945056,"name":"Hohulo","lon":125.61,"lat":-8.80139,"pop":0},{"id":1944776,"name":"Hohulu","lon":125.41778,"lat":-8.88444,"pop":0},{"id":1942329,"name":"Hoinawai","lon":126.33944,"lat":-8.58528,"pop":0},{"id":8618037,"name":"Hoineno","lon":124.38333,"lat":-9.33333,"pop":0},{"id":1945582,"name":"Holak","lon":125.27538,"lat":-9.14236,"pop":0},{"id":1945089,"name":"Holarua","lon":125.65917,"lat":-8.98556,"pop":0},{"id":1937079,"name":"Holba","lon":125.32667,"lat":-9.26528,"pop":0},{"id":1945616,"name":"Holba","lon":125.32611,"lat":-9.26611,"pop":0},{"id":1937103,"name":"Holbelis","lon":125.28835,"lat":-9.30012,"pop":0},{"id":1945144,"name":"Holbese","lon":125.30056,"lat":-9.08778,"pop":0},{"id":1945275,"name":"Holgeda","lon":125.42816,"lat":-9.18951,"pop":0},{"id":1945220,"name":"Holgen","lon":125.28694,"lat":-9.02861,"pop":0},{"id":1945277,"name":"Holitol","lon":125.4975,"lat":-9.18778,"pop":0},{"id":1945142,"name":"Holmeser","lon":125.34181,"lat":-9.09138,"pop":0},{"id":1944034,"name":"Holpilat","lon":125.21491,"lat":-9.22199,"pop":0},{"id":8629063,"name":"Holsa","lon":125.21944,"lat":-8.9975,"pop":0},{"id":1945209,"name":"Holtal","lon":125.33207,"lat":-9.03738,"pop":0},{"id":1944036,"name":"Holuhan","lon":125.21044,"lat":-9.20996,"pop":0},{"id":1942804,"name":"Home","lon":126.96528,"lat":-8.49917,"pop":0},{"id":1943944,"name":"Hoololo","lon":125.19944,"lat":-9.08778,"pop":0},{"id":8629848,"name":"Horiauic","lon":125.52028,"lat":-8.85444,"pop":0},{"id":8643423,"name":"Hornai","lon":125.59,"lat":-8.61,"pop":0},{"id":1942819,"name":"Horooto","lon":126.93389,"lat":-8.46278,"pop":0},{"id":1943024,"name":"Hotklokat","lon":125.44639,"lat":-8.72889,"pop":0},{"id":1944460,"name":"Huaen","lon":124.33972,"lat":-9.4575,"pop":0},{"id":1942386,"name":"Hudilaran","lon":125.55887,"lat":-8.55663,"pop":0},{"id":1944463,"name":"Hueleo","lon":124.34694,"lat":-9.45528,"pop":0},{"id":1944251,"name":"Hueneno","lon":124.38778,"lat":-9.34056,"pop":0},{"id":1944535,"name":"Huiali","lon":125.83944,"lat":-8.48389,"pop":0},{"id":8643349,"name":"Hulorema","lon":125.38759,"lat":-8.76576,"pop":0},{"id":1943941,"name":"Huluatin","lon":125.18474,"lat":-9.01757,"pop":0},{"id":8629705,"name":"Humboe","lon":125.43022,"lat":-8.75853,"pop":0},{"id":1944631,"name":"Humeta","lon":125.47028,"lat":-8.7575,"pop":0},{"id":1943582,"name":"Hunahai","lon":125.35361,"lat":-8.635,"pop":0},{"id":1944112,"name":"Hunda","lon":125.39917,"lat":-8.835,"pop":0},{"id":1942370,"name":"Husbuk","lon":125.48639,"lat":-8.56333,"pop":0},{"id":1943025,"name":"Hutilarang","lon":125.44472,"lat":-8.72583,"pop":0},{"id":1936832,"name":"Hutseo","lon":125.58611,"lat":-9.1375,"pop":0},{"id":1936854,"name":"Hutseo","lon":125.57972,"lat":-9.15333,"pop":0},{"id":1945404,"name":"Hutseo 1","lon":125.58667,"lat":-9.13694,"pop":0},{"id":1945405,"name":"Hutseo 2","lon":125.58,"lat":-9.15333,"pop":0},{"id":8643499,"name":"Ia Sula","lon":126.69333,"lat":-8.51889,"pop":0},{"id":1944046,"name":"Ibuk","lon":125.20129,"lat":-9.14897,"pop":0},{"id":1945581,"name":"Ifililig","alt":["Itililig"],"lon":125.2622,"lat":-9.13996,"pop":0},{"id":8630052,"name":"IIat Kora","lon":125.38333,"lat":-8.93333,"pop":0},{"id":8629975,"name":"IIimano","lon":125.85,"lat":-8.48333,"pop":0},{"id":8630056,"name":"IIiomar I","lon":126.9,"lat":-8.71667,"pop":0},{"id":1943594,"name":"Ilalein","lon":126.56972,"lat":-8.69972,"pop":0},{"id":1938336,"name":"Ilat","lon":125.39639,"lat":-8.90556,"pop":0},{"id":8629061,"name":"Ilat-Laun","lon":125.33333,"lat":-8.98333,"pop":0},{"id":1944528,"name":"Ilate","lon":125.78139,"lat":-8.90083,"pop":0},{"id":1944738,"name":"Ilatkora","lon":125.38944,"lat":-8.92556,"pop":0},{"id":1944817,"name":"Ilatlau","lon":125.32889,"lat":-8.985,"pop":0},{"id":1945135,"name":"Ilhago","lon":125.32639,"lat":-9.11722,"pop":0},{"id":8630066,"name":"Ili-Mano","lon":125.85,"lat":-8.48333,"pop":0},{"id":1944153,"name":"Iliana","lon":125.60833,"lat":-8.15139,"pop":0},{"id":1945279,"name":"Ilicoa","lon":127.00444,"lat":-8.60861,"pop":0},{"id":8629132,"name":"Iliheu","lon":125.95,"lat":-8.53333,"pop":0},{"id":1945069,"name":"Ilihuli","lon":125.94611,"lat":-8.53889,"pop":0},{"id":1944490,"name":"Ililai","lon":126.73973,"lat":-8.41176,"pop":0},{"id":1945419,"name":"Ililapa","lon":126.98694,"lat":-8.57028,"pop":0},{"id":1944536,"name":"Ilimano","lon":125.85694,"lat":-8.47639,"pop":0},{"id":1944983,"name":"Ilimbaba","lon":125.90167,"lat":-8.52306,"pop":0},{"id":1944141,"name":"Ilinamu","lon":125.625,"lat":-8.19667,"pop":0},{"id":1643152,"name":"Iliomar","alt":["Elomar","Illiomar","Ilomar","Jliomar"],"lon":126.82833,"lat":-8.70917,"pop":0},{"id":8629862,"name":"Iliomar I","lon":126.89312,"lat":-8.71522,"pop":0},{"id":8629864,"name":"Iliomar II","lon":126.84213,"lat":-8.72833,"pop":0},{"id":1944050,"name":"Ilpo","lon":125.20722,"lat":-9.13528,"pop":0},{"id":1942992,"name":"Ioro","lon":127.25056,"lat":-8.39917,"pop":0},{"id":1945475,"name":"Iparira","lon":126.94,"lat":-8.35194,"pop":0},{"id":1942984,"name":"Iraara","lon":127.01806,"lat":-8.33889,"pop":0},{"id":1943337,"name":"Irabere","lon":126.70417,"lat":-8.69528,"pop":0},{"id":8643023,"name":"Irabin de Baixo","lon":126.69694,"lat":-8.74861,"pop":0},{"id":8643184,"name":"Irabin de Cima","lon":126.71204,"lat":-8.70101,"pop":0},{"id":1943487,"name":"Irabinhooli","lon":126.71056,"lat":-8.69833,"pop":0},{"id":1943496,"name":"Irabinleteria","lon":126.70222,"lat":-8.74722,"pop":0},{"id":1945242,"name":"Iradarate","lon":126.85944,"lat":-8.73944,"pop":0},{"id":1942826,"name":"Irafala","lon":126.88972,"lat":-8.45472,"pop":0},{"id":1943000,"name":"Iralafai","lon":127.04056,"lat":-8.42889,"pop":0},{"id":1945479,"name":"Iralafai","lon":126.98694,"lat":-8.34806,"pop":0},{"id":1945241,"name":"Iraluroto","lon":126.84583,"lat":-8.74472,"pop":0},{"id":1943831,"name":"Iramer","lon":126.25694,"lat":-8.93111,"pop":0},{"id":1942973,"name":"Iraono","lon":127.03472,"lat":-8.36611,"pop":0},{"id":1946119,"name":"Iraosso","lon":126.66556,"lat":-8.60056,"pop":0},{"id":1946135,"name":"Iraosso","lon":126.66389,"lat":-8.59889,"pop":0},{"id":1945300,"name":"Irara","lon":127.03806,"lat":-8.55083,"pop":0},{"id":1945315,"name":"Irara","lon":127.00694,"lat":-8.52167,"pop":0},{"id":1942842,"name":"Iratchau","lon":126.92444,"lat":-8.37583,"pop":0},{"id":1945312,"name":"Iratoi","lon":126.89194,"lat":-8.71472,"pop":0},{"id":1943461,"name":"Irlelo","lon":125.16694,"lat":-8.73222,"pop":0},{"id":8643562,"name":"Isadan","lon":125.96349,"lat":-8.93814,"pop":0},{"id":1944361,"name":"Isu","lon":124.25722,"lat":-9.33833,"pop":0},{"id":1944414,"name":"Itnan","lon":124.32556,"lat":-9.27389,"pop":0},{"id":1943292,"name":"Iun","lon":126.01583,"lat":-8.51389,"pop":0},{"id":1945071,"name":"Iun","lon":125.94306,"lat":-8.54333,"pop":0},{"id":1942691,"name":"Jembatankik","lon":125.67351,"lat":-8.54444,"pop":0},{"id":1945157,"name":"Jimelai","lon":125.26444,"lat":-9.08139,"pop":0},{"id":1944427,"name":"Jumati","lon":124.3225,"lat":-9.25222,"pop":0},{"id":1944055,"name":"Kabana","lon":124.21949,"lat":-9.24328,"pop":0},{"id":1943143,"name":"Kabasfalm","alt":["Kabasfatin"],"lon":125.56533,"lat":-8.7334,"pop":0},{"id":1944057,"name":"Kabukpele","lon":124.24425,"lat":-9.23738,"pop":0},{"id":1942606,"name":"Kabura","lon":125.73802,"lat":-8.53077,"pop":0},{"id":1943840,"name":"Kadilale","lon":126.65972,"lat":-8.7575,"pop":0},{"id":1944322,"name":"Kafun","lon":124.38861,"lat":-9.28694,"pop":0},{"id":1943441,"name":"Kaibair","lon":125.14389,"lat":-8.69194,"pop":0},{"id":1944610,"name":"Kaibui","lon":125.43944,"lat":-8.78278,"pop":0},{"id":1943490,"name":"Kaidaho","lon":126.71361,"lat":-8.70083,"pop":0},{"id":1943223,"name":"Kaihurulale","lon":126.39139,"lat":-8.64333,"pop":0},{"id":1943400,"name":"Kaikasa","lon":125.155,"lat":-8.64611,"pop":0},{"id":1943426,"name":"Kaikasa","lon":125.2125,"lat":-8.67028,"pop":0},{"id":1944695,"name":"Kaikasa","lon":125.53056,"lat":-8.83833,"pop":0},{"id":8643676,"name":"Kaikasa","lon":125.81667,"lat":-8.93333,"pop":0},{"id":1943446,"name":"Kaikasa Vou","lon":125.1975,"lat":-8.67639,"pop":0},{"id":1942700,"name":"Kaikasalan","alt":["Kaikasalari"],"lon":126.58508,"lat":-8.47791,"pop":0},{"id":8643635,"name":"Kaikoli","lon":125.16708,"lat":-9.38072,"pop":0},{"id":1943681,"name":"Kailatulale","lon":126.37806,"lat":-8.78167,"pop":0},{"id":1943371,"name":"Kailelilema","lon":125.35139,"lat":-8.62083,"pop":0},{"id":1943583,"name":"Kaileulema","lon":125.3625,"lat":-8.62944,"pop":0},{"id":1944109,"name":"Kailiti","lon":125.39083,"lat":-8.84778,"pop":0},{"id":1944597,"name":"Kailiti","lon":125.43222,"lat":-8.82,"pop":0},{"id":1943822,"name":"Kailoi","lon":126.2775,"lat":-8.91194,"pop":0},{"id":1943867,"name":"Kailokolaran","lon":125.09944,"lat":-8.74889,"pop":0},{"id":1943488,"name":"Kailoloho","lon":126.71,"lat":-8.69944,"pop":0},{"id":1944747,"name":"Kailulik","alt":["Cailulic"],"lon":125.40806,"lat":-8.91556,"pop":0},{"id":1942944,"name":"Kaimalehoo","lon":126.42056,"lat":-8.61306,"pop":0},{"id":8629906,"name":"Kaimauk","lon":125.69833,"lat":-8.8175,"pop":0},{"id":1943617,"name":"Kaimegoluli","lon":125.31,"lat":-8.67444,"pop":0},{"id":8692962,"name":"Kaimeni ulu","lon":126.36133,"lat":-8.49161,"pop":0},{"id":1943827,"name":"Kainunuk","lon":126.28056,"lat":-8.91639,"pop":0},{"id":1943111,"name":"Kairema","lon":125.70831,"lat":-8.71142,"pop":0},{"id":1944585,"name":"Kairia","lon":125.43056,"lat":-8.84194,"pop":0},{"id":1942932,"name":"Kairiri","lon":126.38028,"lat":-8.56611,"pop":0},{"id":1942936,"name":"Kairiri","lon":126.395,"lat":-8.56889,"pop":0},{"id":1937119,"name":"Kaisera","lon":125.68557,"lat":-9.09625,"pop":0},{"id":1944961,"name":"Kaisera","lon":125.68639,"lat":-9.09667,"pop":0},{"id":1945018,"name":"Kaitara","lon":125.61861,"lat":-8.8125,"pop":0},{"id":1943036,"name":"Kaitarahei","lon":125.44944,"lat":-8.69944,"pop":0},{"id":11856534,"name":"Kaitasu","lon":125.7391,"lat":-8.67172,"pop":0},{"id":1942338,"name":"Kaitcho","lon":125.42583,"lat":-8.56611,"pop":0},{"id":1943679,"name":"Kaitulai","lon":126.37556,"lat":-8.78389,"pop":0},{"id":1945086,"name":"Kakai","lon":125.72972,"lat":-8.9975,"pop":0},{"id":1943730,"name":"Kakamata","lon":125.20111,"lat":-8.77111,"pop":0},{"id":1942426,"name":"Kakaulidung","lon":125.55547,"lat":-8.56701,"pop":0},{"id":1942570,"name":"Kalae","lon":125.60705,"lat":-8.61281,"pop":0},{"id":1944658,"name":"Kalohan","lon":125.92722,"lat":-8.75667,"pop":0},{"id":1943058,"name":"Kamal Pun","lon":125.42917,"lat":-8.66889,"pop":0},{"id":1943056,"name":"Kamal Raihei","lon":125.41972,"lat":-8.67694,"pop":0},{"id":1943374,"name":"Kamalehou","lon":125.35806,"lat":-8.6075,"pop":0},{"id":1943397,"name":"Kamileten","lon":125.08194,"lat":-8.96417,"pop":0},{"id":8643750,"name":"Kampung Alor","lon":125.56139,"lat":-8.55222,"pop":0},{"id":1943545,"name":"Kampung Baru","lon":126.16028,"lat":-8.505,"pop":0},{"id":1942350,"name":"Kampungbaru","lon":125.4475,"lat":-8.57222,"pop":0},{"id":1942362,"name":"Kampungbaru","lon":125.48306,"lat":-8.57444,"pop":0},{"id":1942384,"name":"Kampungbaru","lon":125.525,"lat":-8.55611,"pop":0},{"id":1945319,"name":"Kampungcina","lon":126.99972,"lat":-8.5225,"pop":0},{"id":1945323,"name":"Kampungpeternakan","lon":127.00222,"lat":-8.51389,"pop":0},{"id":1944377,"name":"Kanael","lon":124.26556,"lat":-9.30306,"pop":0},{"id":1944101,"name":"Kanete","lon":124.35278,"lat":-9.23694,"pop":0},{"id":1944683,"name":"Kanurema","lon":125.57639,"lat":-8.85444,"pop":0},{"id":1942839,"name":"Kaporo","lon":126.91389,"lat":-8.39167,"pop":0},{"id":1943813,"name":"Kapuas","lon":126.65861,"lat":-8.75861,"pop":0},{"id":1942451,"name":"Karabela","lon":126.27818,"lat":-8.48164,"pop":0},