[{"id":162099,"name":"Abadan","alt":["Abadanskij ehtrap","Bezmein","Buezmeyin","Büzmeýin","Абаданский этрап","Безмеин"],"lon":58.19721,"lat":38.05415,"pop":39481},{"id":12233915,"name":"Abdalýap","alt":["Abdalyap"],"lon":59.97902,"lat":41.85533,"pop":0},{"id":9007762,"name":"Achkyariz","alt":["Achkjariz","Ачкяриз"],"lon":57.83007,"lat":38.20317,"pop":0},{"id":162250,"name":"Adzhikui","alt":["Adzhi-Kuyu"],"lon":54.98333,"lat":39.76667,"pop":0},{"id":410786,"name":"Agach-Arvat","alt":["Агач-Арват"],"lon":54.78339,"lat":37.70119,"pop":0},{"id":12233783,"name":"Agaltyn","lon":59.79423,"lat":42.19302,"pop":0},{"id":1219987,"name":"Agar","lon":65.4,"lat":37.66667,"pop":0},{"id":12233946,"name":"Ägem","alt":["Agem"],"lon":64.13132,"lat":38.46847,"pop":0},{"id":162121,"name":"Ahal","alt":["Birleshik Pervyj","Birleshik Pervyy","Birlyashik","Birlyashik Pervyy","Orta-Yaylya","Бирлешик Первый"],"lon":58.01605,"lat":38.21978,"pop":0},{"id":7045185,"name":"Ahal","alt":["Sovkhoz Kushka"],"lon":62.59289,"lat":35.68014,"pop":0},{"id":12233967,"name":"Ajyguýy","alt":["Ajyguyy"],"lon":62.83751,"lat":36.56117,"pop":0},{"id":162245,"name":"Ajyýap","alt":["Admi-Yab","Adzhiyab","Adzhyjab","Adzhyyab","Ajyyap","Аджыяб"],"lon":54.15833,"lat":37.41972,"pop":0},{"id":162239,"name":"Ak","lon":56.11489,"lat":38.14505,"pop":0},{"id":601787,"name":"Ak-Altyn","lon":58.67668,"lat":42.14077,"pop":0},{"id":1219975,"name":"Ak-Bay","lon":61.77218,"lat":37.72214,"pop":0},{"id":1219973,"name":"Ak-Bulak","lon":66.33333,"lat":37.51667,"pop":0},{"id":1219969,"name":"Ak-Dashayak","lon":60.31667,"lat":37.58333,"pop":0},{"id":162233,"name":"Ak-Gaudan","lon":57.75,"lat":38.25,"pop":0},{"id":162223,"name":"Ak-Kaya","lon":56.47341,"lat":38.31367,"pop":0},{"id":1219955,"name":"Ak-Kum","lon":65.75,"lat":37.6,"pop":0},{"id":1219952,"name":"Ak-Kungur","lon":60.3,"lat":37.66667,"pop":0},{"id":1219949,"name":"Ak-Mechet","lon":63.01667,"lat":39.28333,"pop":0},{"id":1219944,"name":"Ak-Rabat","lon":62.99141,"lat":39.52977,"pop":0},{"id":1219943,"name":"Ak-Say","lon":66.41667,"lat":37.88333,"pop":0},{"id":1219936,"name":"Ak-Teri","lon":64.9,"lat":38.08333,"pop":0},{"id":1219934,"name":"Ak-Tugay","lon":62.68333,"lat":39.65,"pop":0},{"id":162237,"name":"Akbogaz","lon":55.48333,"lat":39.36667,"pop":0},{"id":12226652,"name":"Akdaş","alt":["Akdas"],"lon":53.12608,"lat":40.04222,"pop":0},{"id":601784,"name":"Akdash","alt":["Акдаш"],"lon":53.16667,"lat":40.11667,"pop":0},{"id":162234,"name":"Akdepe","alt":["Ak-Tepe","Aktepe","Акдепе","Актепе"],"lon":57.59088,"lat":38.31088,"pop":0},{"id":601551,"name":"Akdepe","alt":["Ak-Tepe","Ak-Tyube","Leninsk","Акдепе"],"lon":59.37877,"lat":42.05513,"pop":14177},{"id":1219964,"name":"Akdz̄adepe","alt":["Akchadepe","Akdzadepe","Akhcha-Tepe","Akhchadepe"],"lon":60.47195,"lat":36.75594,"pop":0},{"id":12226640,"name":"Akgala","lon":59.15692,"lat":42.31298,"pop":0},{"id":12233787,"name":"Akgaş","alt":["Akgas"],"lon":59.47556,"lat":41.98103,"pop":0},{"id":601782,"name":"Akguýy","alt":["Ak-Kuyu","Akguyy","Akkui"],"lon":54.35707,"lat":40.15683,"pop":0},{"id":162230,"name":"Akhchaguyma","alt":["Akhcha-Kuyma"],"lon":55.16656,"lat":39.34892,"pop":0},{"id":1219960,"name":"Akhtash-Ovliya","lon":61.21667,"lat":36.28333,"pop":0},{"id":12226625,"name":"Akjadepe","lon":58.71683,"lat":42.28045,"pop":0},{"id":1219958,"name":"Akkala","lon":63.6,"lat":39,"pop":0},{"id":1219953,"name":"Akkumulam","alt":["Akkumulyam","Ulyam"],"lon":65.87046,"lat":37.53717,"pop":0},{"id":12233927,"name":"Akmolla","lon":59.95372,"lat":39.57896,"pop":0},{"id":12233920,"name":"Aköý","alt":["Akoey"],"lon":59.94729,"lat":41.69545,"pop":0},{"id":1219945,"name":"Akrabat","lon":61.71032,"lat":35.47824,"pop":0},{"id":410549,"name":"Aktash","lon":58.44194,"lat":37.92889,"pop":0},{"id":410470,"name":"Aktepe","alt":["Актепе"],"lon":58.1537,"lat":38.00736,"pop":0},{"id":1219938,"name":"Aktepe","alt":["Ak-Tere"],"lon":66.2659,"lat":37.38106,"pop":0},{"id":162216,"name":"Akyayla","alt":["Ak'yayla","Ak’yayla"],"lon":54.69111,"lat":37.48889,"pop":0},{"id":12233933,"name":"Alagöz","alt":["Alagoz"],"lon":63.5227,"lat":39.02422,"pop":0},{"id":162213,"name":"Alaja","alt":["Aladzha"],"lon":53.21222,"lat":39.35694,"pop":0},{"id":1219098,"name":"Alam","alt":["Karaman Vtoroy"],"lon":61.12879,"lat":36.75937,"pop":0},{"id":442585,"name":"Alangyrtly","lon":54.35417,"lat":38.46528,"pop":0},{"id":410399,"name":"Alibek","alt":["Алибек"],"lon":58.16818,"lat":37.9031,"pop":0},{"id":12233789,"name":"Alili","lon":59.63528,"lat":41.98248,"pop":0},{"id":1219919,"name":"Alla-Sakal","lon":61.65,"lat":37.68333,"pop":0},{"id":162211,"name":"Allatepe","lon":52.98333,"lat":39.83333,"pop":0},{"id":9199736,"name":"Almaadzhyk","alt":["Almaadzhik","Алмааджик"],"lon":57.32084,"lat":38.30224,"pop":0},{"id":12233923,"name":"Almaatyşan","alt":["Almaatysan"],"lon":59.92498,"lat":41.57087,"pop":0},{"id":1219916,"name":"Almysh","lon":62.3,"lat":37.3,"pop":0},{"id":1219915,"name":"Alnysh","alt":["Almysh"],"lon":62.38501,"lat":37.26089,"pop":0},{"id":1219914,"name":"Alpan","lon":63.8,"lat":38.86667,"pop":0},{"id":442581,"name":"Altykui","lon":54.2125,"lat":38.60889,"pop":0},{"id":12226634,"name":"Alýan","alt":["Alyan"],"lon":58.81527,"lat":42.45923,"pop":0},{"id":1219905,"name":"Alyandor","lon":63.53333,"lat":39.23333,"pop":0},{"id":1219904,"name":"Aman","lon":60.55,"lat":37.65,"pop":0},{"id":601775,"name":"Amandor","lon":52.83333,"lat":41.48333,"pop":0},{"id":162203,"name":"Amannazar","lon":55.45,"lat":38.85,"pop":0},{"id":1219899,"name":"Amansha","lon":61.9,"lat":37.63333,"pop":0},{"id":1219898,"name":"Amansha-Kapan","alt":["Amasha Kapan","Amasha-Kapin"],"lon":60.38333,"lat":37.43333,"pop":0},{"id":162202,"name":"Ammanazar","lon":55.4,"lat":38.85,"pop":0},{"id":1475425,"name":"Amudar’ya","alt":["Amudar'ya"],"lon":65.57757,"lat":37.58944,"pop":0},{"id":1219896,"name":"Amyderya","alt":["Amu-Dar'ya","Amu-Dar’ya","Amyderýa","Samsonovo"],"lon":65.24484,"lat":37.89099,"pop":0},{"id":162199,"name":"Änew","alt":["Anau","Anew","Annau","Enev","ab nw","Аннау","آب نو"],"lon":58.51596,"lat":37.88754,"pop":27526},{"id":1219893,"name":"Angat","lon":60.1,"lat":37.78333,"pop":0},{"id":8600583,"name":"Annagur","lon":61.30913,"lat":36.51326,"pop":0},{"id":8600342,"name":"Annakhan-Ishan","lon":61.18755,"lat":36.40943,"pop":0},{"id":1219886,"name":"Annamurat","alt":["Anvamurat","Islam"],"lon":64.31667,"lat":38.35,"pop":0},{"id":1217867,"name":"Arab","alt":["Aryab"],"lon":63.18333,"lat":39.35,"pop":0},{"id":1219879,"name":"Arab-Khana","lon":63.08333,"lat":39.25,"pop":0},{"id":8707482,"name":"Arabata","alt":["Арабата"],"lon":56.43853,"lat":38.42929,"pop":0},{"id":1219875,"name":"Araki","lon":63.55,"lat":39.18333,"pop":0},{"id":1514811,"name":"Arap","lon":61.7,"lat":40.65,"pop":0},{"id":162196,"name":"Arapchuk","alt":["Arap-Kala","Арапчук"],"lon":56.46966,"lat":38.43202,"pop":0},{"id":162197,"name":"Arapgala","alt":["Arab-Kala","Arabkala","Arap-Kala","Арабкала"],"lon":59.52993,"lat":37.34566,"pop":0},{"id":1219874,"name":"Araplar","alt":["Arapkhana"],"lon":63.69713,"lat":39.02593,"pop":0},{"id":161983,"name":"Arçabil","alt":["Arcabil","Firjuza","Firyuza","Pewrize","Фирюза"],"lon":58.08987,"lat":37.915,"pop":3000},{"id":1219871,"name":"Archin","alt":["Apchin Camp"],"lon":60.28333,"lat":37.55,"pop":0},{"id":1219872,"name":"Archin","lon":60.33333,"lat":37.46667,"pop":0},{"id":162193,"name":"Archin’yak","alt":["Archin'yak","Archin'yan","Archin’yan"],"lon":59.61134,"lat":37.16358,"pop":0},{"id":9199657,"name":"Archmanata","alt":["Арчманата"],"lon":57.17825,"lat":38.51763,"pop":0},{"id":9199656,"name":"Archmanoba","alt":["Арчманоба"],"lon":57.1299,"lat":38.59069,"pop":0},{"id":162192,"name":"Arçman","alt":["Archman","Arcman","Арчман"],"lon":57.15784,"lat":38.54279,"pop":0},{"id":8751646,"name":"Arman-Sagad","alt":["Armansagat","Арман-Сагад"],"lon":59.79059,"lat":37.24931,"pop":0},{"id":162189,"name":"Arpaklen","alt":["Arpaklon"],"lon":56.58333,"lat":38.35,"pop":0},{"id":162187,"name":"Artyk","alt":["Артык"],"lon":59.32617,"lat":37.55364,"pop":0},{"id":9643372,"name":"Artykhoja","alt":["Artykkhodzha","Артыкходжа"],"lon":58.34489,"lat":38.22395,"pop":0},{"id":601774,"name":"Arychagyl","lon":58.71667,"lat":42.55,"pop":0},{"id":601773,"name":"Arykagyl","lon":58.73333,"lat":42.53333,"pop":0},{"id":410547,"name":"Arzuv","lon":58.44472,"lat":37.95111,"pop":0},{"id":1218898,"name":"Aşgabat","alt":["Asgabat","Kichaga","Kichaga Vtoraya","Kichi-Aga Vtoraya","Kichiaga Vtoroy","Kichiga Vtoraya"],"lon":61.26932,"lat":36.56679,"pop":0},{"id":162183,"name":"Ashgabat","alt":["ASB","Achgabat","Achkhabad","Aschabad","Aschabadas","Aschchabad","Aschgabat","Asgabat","Asgabata","Asgabate","Asgabato","Ashabad","Ashabat","Ashgabad","Ashkabad","Ashkhabad","Ashkhabad osh","Ashkˌobod","Ashqabad","Ashxabad","Ashxobod","Asjabad","Asjchabad","Asjchabat","Asjkhabad","Askabad","Askabat","Askhabad","Asnkampat","Asqabad","Asxabad","Aszchabad","Aŝgabato","Aşgabat","Aşkabat","Aşqabad","Aşğabat","Ašchabad","Ašchabadas","Ašgabat","Ašgabata","Ašhabad","Așgabat","GIashkuabad","Poltoratsk","a shen ha ba de","acukapat","asagabata","asakhabada","asgabad","asgabada","asgabat","ashigabato","ashk abad","ashkhabadi","asigabateu","asqabada","asyuhabateu","xa chka bat","yashkhabad","ʼsgbʼt","ʿەshqabad","Ασγκαμπάτ","Ашгабад","Ашгабат","Ашкабад","Ашхабад","Ашхабад ош","Ашқобод","ГІашкъабад","Աշխաբադ","אשגאבאט","אשגבאט","ئاشخاباد","اشک آباد","عاشق‌آباد","عشق آباد","عشق اباد","عشق‌آباد","عەشقاباد","अश्क़ाबाद","अश्गाबाद","আশখাবাদ","ਅਸ਼ਗ਼ਾਬਾਤ","அசுகாபாத்","ಅಶ್ಗಾಬಾತ್","അഷ്ഗാബാദ്","อาชกาบัต","ཨ་ཧྲི་ཁ་པད།","აშხაბადი","አሽጋባት","アシガバート","阿什哈巴德","아슈하바트","아시가바트"],"lon":58.38333,"lat":37.95,"pop":727700},{"id":1219855,"name":"Astanababa","lon":65.08333,"lat":37.91667,"pop":0},{"id":1219854,"name":"Ata","alt":["Kochev'ye Ata","Kochev’ye Ata"],"lon":61.0654,"lat":36.82894,"pop":0},{"id":1219846,"name":"Ata-Yab","alt":["Ata"],"lon":61.17544,"lat":36.68209,"pop":0},{"id":12226677,"name":"Atabeg","lon":57.50645,"lat":39.64837,"pop":0},{"id":12226664,"name":"Ataguýy","alt":["Ataguyy"],"lon":57.99095,"lat":40.09372,"pop":0},{"id":1219847,"name":"Atatlyk","lon":63.93273,"lat":38.7007,"pop":0},{"id":601682,"name":"Ataýap","alt":["Atayap","Imeni Tel'mana","Imeni Tel’mana"],"lon":59.41667,"lat":42,"pop":0},{"id":1219835,"name":"Aul Geok-Che","lon":61.56667,"lat":37.75,"pop":0},{"id":1219834,"name":"Aul Nomer Pyat’desyat Vtoroy","alt":["Aul Nomer Pyat'desyat Vtoroy","Settlement Number Fifty-two"],"lon":62.35,"lat":37.61667,"pop":0},{"id":1219833,"name":"Aul Nomer Shestoy","lon":62.38333,"lat":37.46667,"pop":0},{"id":1219832,"name":"Aul Urazaly","lon":62.8,"lat":35.96667,"pop":0},{"id":601768,"name":"Auliye","lon":59.81667,"lat":41.51667,"pop":0},{"id":1219829,"name":"Avchi","alt":["Auchi"],"lon":63.90933,"lat":38.83732,"pop":0},{"id":601538,"name":"Awlamyş","alt":["Awlamys","Oglamish","Oglamysh"],"lon":55.20529,"lat":40.64246,"pop":0},{"id":1219826,"name":"Ayak","lon":63.01667,"lat":39.3,"pop":0},{"id":12226635,"name":"Aýböwür","alt":["Ayboewuer"],"lon":58.6772,"lat":42.71499,"pop":0},{"id":162167,"name":"Aydere","alt":["Nizhnij Ajdere","Nizhniy Aydere","Нижний Айдере"],"lon":56.74856,"lat":38.40046,"pop":0},{"id":162166,"name":"Aydin","lon":54.81667,"lat":39.35,"pop":0},{"id":1219999,"name":"Azady","alt":["Aadzi","Adzhi","Ajy","Uch-Adzhi"],"lon":64.84238,"lat":38.07919,"pop":0},{"id":1219812,"name":"Babadaýhan","alt":["Babadayhan","Kirovsk"],"lon":60.39372,"lat":37.68887,"pop":0},{"id":1219811,"name":"Babadaykhan","alt":["Baba-Deykhan","Baba-Deykhan Vtoroy","Baba-Deykhan-Pervyy","Babadaykhan Vtoroy"],"lon":60.43333,"lat":37.68333,"pop":0},{"id":162163,"name":"Babadurmaz","alt":["Baba-Durmaz","Баба-Дурмаз"],"lon":59.15327,"lat":37.64693,"pop":0},{"id":162161,"name":"Babakhodzha","lon":54.2,"lat":39.35,"pop":0},{"id":162160,"name":"Babarap","alt":["Baba-Arab","Babarabkala","Баба-Араб"],"lon":58.11237,"lat":38.09577,"pop":0},{"id":12226662,"name":"Bada","lon":56.94242,"lat":40.37143,"pop":0},{"id":161897,"name":"Bagabat","alt":["Kalinikskiy","Kalininskij","Kalininskiy","Калининский"],"lon":58.52849,"lat":37.79843,"pop":0},{"id":601765,"name":"Bagadzha","lon":58.35,"lat":40.01667,"pop":0},{"id":1219803,"name":"Bagarka","alt":["Bagadzha"],"lon":61.73333,"lat":37.6,"pop":0},{"id":1219801,"name":"Bagt","lon":62.18333,"lat":37.66667,"pop":0},{"id":162159,"name":"Bagyr","alt":["Bagir","Багир"],"lon":58.21283,"lat":37.96577,"pop":0},{"id":162158,"name":"Baharly","alt":["Baherden","Bakharden","Bäherden","Бахарден"],"lon":57.43158,"lat":38.43624,"pop":22991},{"id":9199754,"name":"Bakhardenskiy Kar’yer","alt":["Bakhardenskij Kar'er","Bakhardenskiy Kar'yer","Бахарденский Карьер"],"lon":57.50551,"lat":38.34752,"pop":0},{"id":1219797,"name":"Bakhshi","alt":["Bakhshi-Mirish"],"lon":60.28333,"lat":37.63333,"pop":0},{"id":1219796,"name":"Bakhshimarish","alt":["Bagshimirish","Bakshi-Marish","Chetyrnadtsat' Let Oktyabrya","Chetyrnadtsat’ Let Oktyabrya"],"lon":60.43333,"lat":37.46667,"pop":0},{"id":161616,"name":"Balkanabat","alt":["BKN","Balkanabad","Balkanabatas","Bolqonobod","Nebit-Dag","Nebitdag","Neftedag","ba er kan na ba de","balaqanabata","balkanabateu","barukanabato","blkhan abad","Балканабат","Небит-Даг","بلخان آباد","بلخان‌آباد","बलक़ानाबात","ბალკანაბადი","バルカナバート","巴尔坎纳巴德","발카나바트"],"lon":54.36713,"lat":39.51075,"pop":87822},{"id":442588,"name":"Balkui","lon":54.47972,"lat":38.38944,"pop":0},{"id":162150,"name":"Balla-Ishem","alt":["Bala-Ishem"],"lon":54.48333,"lat":39.43333,"pop":0},{"id":162149,"name":"Bamy","alt":["Bami","Бами"],"lon":56.80028,"lat":38.73327,"pop":0},{"id":1219788,"name":"Bangil’dy","lon":63.63333,"lat":39.01667,"pop":0},{"id":1219787,"name":"Banysh","lon":64.05,"lat":38.61667,"pop":0},{"id":1219785,"name":"Baragiz","lon":63.23333,"lat":39.2,"pop":0},{"id":162148,"name":"Barsli","lon":55.21667,"lat":39.11667,"pop":0},{"id":1219698,"name":"Basaga","alt":["Bassaga","Bosaga","Bosage","Bossaga"],"lon":65.70076,"lat":37.53971,"pop":0},{"id":1219782,"name":"Basaga","lon":65.66667,"lat":37.58333,"pop":0},{"id":1219781,"name":"Başbeden","alt":["Basbeden","Bashbeden","Beden"],"lon":63.1719,"lat":35.72092,"pop":0},{"id":1219778,"name":"Bashvak","lon":64.43333,"lat":38.38333,"pop":0},{"id":1219777,"name":"Bassar-Kish","lon":66.45,"lat":37.9,"pop":0},{"id":1219775,"name":"Bataş","alt":["Batas","Batash","Sardoba Batali","Sardoba Batash"],"lon":65.56297,"lat":38.00264,"pop":0},{"id":1219776,"name":"Batash","lon":65.3,"lat":37.85,"pop":0},{"id":1514808,"name":"Batyrkent","alt":["Bederkent","Kirpichli"],"lon":59.99687,"lat":41.5523,"pop":0},{"id":1219771,"name":"Bay","lon":64.36667,"lat":38.43333,"pop":0},{"id":1219765,"name":"Bay-Kabyl’","lon":62,"lat":37.43333,"pop":0},{"id":1219764,"name":"Bay-Kishlak","lon":64.22778,"lat":38.42222,"pop":0},{"id":1219769,"name":"Bayat","lon":63.26667,"lat":39.15,"pop":0},{"id":162146,"name":"Bayat-Khadzhi","lon":54.78333,"lat":37.63333,"pop":0},{"id":1219768,"name":"Baygushli","lon":62.36667,"lat":37.98333,"pop":0},{"id":1219762,"name":"Bayramaly","alt":["Bahram Ali","Bahrām Ali","Bairam Ali","Bajramali","Bayram-Ali","Baýramaly","Байрамали"],"lon":62.16715,"lat":37.61852,"pop":75797},{"id":601762,"name":"Bayramtogan","alt":["Bayramtogana"],"lon":58.91667,"lat":42.33333,"pop":0},{"id":410651,"name":"Bazar","lon":53.89306,"lat":37.59306,"pop":0},{"id":1219760,"name":"Bazar","alt":["Kizyl-Ayak"],"lon":64.78669,"lat":38.11541,"pop":0},{"id":1219757,"name":"Bazar-Sakhe","lon":63.61667,"lat":39.01667,"pop":0},{"id":1219759,"name":"Bazardepe","alt":["Bazar-Tepe","Bazar-Tyube"],"lon":66.39721,"lat":37.80599,"pop":0},{"id":1219756,"name":"Beden","alt":["Uchastok Imeni Pervogo Maya"],"lon":63.04184,"lat":35.89805,"pop":0},{"id":1219752,"name":"Begi-Sakar","lon":61.35,"lat":36.53333,"pop":0},{"id":162123,"name":"Bekibent","alt":["Bikebend","Бекибент"],"lon":55.18878,"lat":38.62342,"pop":0},{"id":162141,"name":"Belek","alt":["Belek-Turkmenskiy"],"lon":53.8425,"lat":39.92917,"pop":0},{"id":162139,"name":"Bendesen","lon":56.60187,"lat":38.637,"pop":0},{"id":1219745,"name":"Bendi-Nadir","lon":63.01667,"lat":35.91667,"pop":0},{"id":1475098,"name":"Berdelyk","lon":66.29758,"lat":37.34739,"pop":0},{"id":162136,"name":"Bere","lon":58.1,"lat":39.78333,"pop":0},{"id":161974,"name":"Bereket","alt":["Gazandzhyk","Gazanjyk","Kasandshik","Kazandzhik","Kazanjik","Газанджык"],"lon":55.51536,"lat":39.24463,"pop":24500},{"id":1219736,"name":"Bereket","alt":["Imeni Voroshilova"],"lon":61.6,"lat":37.83333,"pop":0},{"id":12226632,"name":"Bereketli","lon":58.59391,"lat":42.5042,"pop":0},{"id":1219735,"name":"Berenchi-Kara-Yab","lon":61.7,"lat":37.68333,"pop":0},{"id":1219734,"name":"Beriket","alt":["Bereket","Imeni Voroshilova","Qurumuştəpə","Берикет"],"lon":61.62173,"lat":37.82112,"pop":0},{"id":1219784,"name":"Berzeň","alt":["Bardzan","Berzen"],"lon":63.38942,"lat":39.19028,"pop":0},{"id":410585,"name":"Berzengi","alt":["Берзенги"],"lon":58.37379,"lat":37.88527,"pop":0},{"id":1514806,"name":"Besh-Aryk","lon":60.01667,"lat":41.73333,"pop":0},{"id":1219729,"name":"Besheur","lon":62.3,"lat":37.6,"pop":0},{"id":1219728,"name":"Besheuray","alt":["Besheurchi"],"lon":62.31667,"lat":37.7,"pop":0},{"id":162130,"name":"Beuradzhi","lon":55.13333,"lat":39.61667,"pop":0},{"id":410519,"name":"Bikrava","alt":["Bikrova","Бикрава"],"lon":58.28901,"lat":37.9284,"pop":0},{"id":1219717,"name":"Bikuri","lon":61.55,"lat":38.05,"pop":0},{"id":1514801,"name":"Birata","alt":["Darganata","Darganatinskiy","Дарганата"],"lon":62.1586,"lat":40.48204,"pop":0},{"id":1514810,"name":"Birata","alt":["Ata"],"lon":62.15652,"lat":40.48166,"pop":0},{"id":1514805,"name":"Birinchi-Chandyr","alt":["Chandyr"],"lon":62.16667,"lat":40.43333,"pop":0},{"id":601753,"name":"Birinchiboy","alt":["Krepost' Agronak","Krepost’ Agronak"],"lon":59.7,"lat":41.75,"pop":0},{"id":1475416,"name":"Birleshik","lon":65.5242,"lat":37.63526,"pop":0},{"id":1219713,"name":"Bitik","alt":["Bittik"],"lon":63.6,"lat":39.2,"pop":0},{"id":162120,"name":"Bki","lon":55.7,"lat":38.93333,"pop":0},{"id":162118,"name":"Bokurdak","alt":["Bakhardok","Bokhurdok"],"lon":58.49269,"lat":38.76307,"pop":0},{"id":601751,"name":"Bol’shevik","lon":58.78333,"lat":42.31667,"pop":0},{"id":601752,"name":"Bol’shevik","lon":59.66625,"lat":41.85492,"pop":0},{"id":1219701,"name":"Bol’shevik","lon":63.34793,"lat":39.22073,"pop":0},{"id":1219702,"name":"Bol’shevik","lon":63.35,"lat":39.23333,"pop":0},{"id":1219703,"name":"Bol’shevik","lon":64.84843,"lat":38.178,"pop":0},{"id":1219704,"name":"Bol’shevik","lon":62.13828,"lat":37.59138,"pop":0},{"id":1219705,"name":"Bol’shevik","lon":62.33333,"lat":37.46667,"pop":0},{"id":1219706,"name":"Bol’shevik","lon":60.53333,"lat":37.4,"pop":0},{"id":1219707,"name":"Bol’shevik","alt":["Bol'shevik"],"lon":60.96772,"lat":36.91277,"pop":0},{"id":9642266,"name":"Bol’shevik","alt":["Bol'shevik","Большевик"],"lon":57.96935,"lat":38.23456,"pop":0},{"id":601661,"name":"Boldumsaz","alt":["Kalinin","Kalininsk","Porsu","Porsy","Болдумсаз"],"lon":59.67101,"lat":42.12824,"pop":21159},{"id":12226674,"name":"Bön","alt":["Bon"],"lon":58.1038,"lat":39.79308,"pop":0},{"id":1219699,"name":"Boraşly","alt":["Borasly","Boroshly"],"lon":64.70269,"lat":38.24242,"pop":0},{"id":12233989,"name":"Börikalp","alt":["Borikalp"],"lon":62.34175,"lat":39.00441,"pop":0},{"id":162126,"name":"Börme","alt":["Beurma","Beurme","Borme","Bsurma","Беурме"],"lon":56.90955,"lat":38.65405,"pop":0},{"id":162113,"name":"Bovart","lon":59.53333,"lat":37.36667,"pop":0},{"id":12233926,"name":"Böwrideşik","alt":["Bowridesik"],"lon":59.68542,"lat":39.75668,"pop":0},{"id":601750,"name":"Boy Pervyy","lon":59.93333,"lat":41.75,"pop":0},{"id":162112,"name":"Boydag","lon":54.58333,"lat":39.11667,"pop":0},{"id":12233994,"name":"Boýunbaş","alt":["Boyunbas"],"lon":59.78543,"lat":41.73023,"pop":0},{"id":162110,"name":"Bozogoli","lon":57.25,"lat":38.63333,"pop":0},{"id":1219691,"name":"Budzhak","lon":63.86667,"lat":38.83333,"pop":0},{"id":162106,"name":"Bugdaýly","alt":["Bugdayli","Bugdayly"],"lon":54.37565,"lat":38.49765,"pop":0},{"id":162143,"name":"Bükri","alt":["Bekuri","Bukri"],"lon":58.80424,"lat":39.95209,"pop":0},{"id":12233937,"name":"Bükriolen","alt":["Bukriolen"],"lon":59.50434,"lat":38.12819,"pop":0},{"id":1219688,"name":"Burdalyk","alt":["Burdalik"],"lon":64.37514,"lat":38.45272,"pop":0},{"id":1219687,"name":"Burguchi","lon":65.41271,"lat":37.73174,"pop":0},{"id":12226682,"name":"Burgun","lon":55.90528,"lat":39.89816,"pop":0},{"id":162102,"name":"Burk","lon":57.21667,"lat":38.51667,"pop":0},{"id":1219682,"name":"Buyrabab","alt":["Bairobab","Bayrobab","Boyrabab","Boyrabad"],"lon":63.63667,"lat":39.05917,"pop":0},{"id":1219681,"name":"Byr-Koz","lon":61.86667,"lat":37.51667,"pop":0},{"id":162098,"name":"Byurgyutli","alt":["Imeni Voroshilova","Voroshilova"],"lon":55.51667,"lat":38.16667,"pop":0},{"id":601744,"name":"Çagyl","alt":["Cagyl","Chagyl"],"lon":55.38065,"lat":40.78447,"pop":0},{"id":12233977,"name":"Çakmak","alt":["Cakmak"],"lon":64.00623,"lat":38.5655,"pop":0},{"id":162094,"name":"Çaloyuk","alt":["Caloyuk","Chalayuk","Chaloyuk"],"lon":54.32652,"lat":37.41078,"pop":0},{"id":1219659,"name":"Çaltut","alt":["Caltut","Chaltut","Charpali","Churpali","Nurpali"],"lon":63.69136,"lat":38.97653,"pop":0},{"id":12233921,"name":"Çaňlyýap","alt":["Canlyyap"],"lon":59.85299,"lat":41.65446,"pop":0},{"id":12233934,"name":"Çarmerde","alt":["Carmerde"],"lon":63.59911,"lat":39.20311,"pop":0},{"id":12233993,"name":"Çarwadar","alt":["Carwadar"],"lon":61.9792,"lat":40.85694,"pop":0},{"id":12233949,"name":"Çekiç","alt":["Cekic","Urochishche Chekich","uroshichche Chekich","урошичче Чекич"],"lon":64.40108,"lat":38.42959,"pop":0},{"id":162081,"name":"Çekişler","alt":["Cekisler","Chekichler","Chekishler","Chikishlyar"],"lon":53.89858,"lat":37.57339,"pop":0},{"id":162079,"name":"Çeleken","alt":["Celeken","Cheleken"],"lon":53.12832,"lat":39.40632,"pop":0},{"id":1219609,"name":"Çemenebit","alt":["Cemenebit","Cemenibit","Chemen-i-Bid","Chemenibit","Çemenibit"],"lon":62.39583,"lat":35.44889,"pop":0},{"id":162073,"name":"Çemenli","alt":["Cemenli","Chemeli","Chemelli","Чемелли"],"lon":56.4164,"lat":38.83747,"pop":0},{"id":12233964,"name":"Çemenlik","alt":["Cemenlik"],"lon":62.48874,"lat":36.76466,"pop":0},{"id":162072,"name":"Çerkezli","alt":["Cerkezli","Cherkezli","Cherkezly"],"lon":56.26719,"lat":39.35071,"pop":0},{"id":410774,"name":"Çetli","alt":["Cetli","Jasy-Depe","Yasy-Depe","Ясы-Депе"],"lon":54.73953,"lat":37.52375,"pop":0},{"id":1219679,"name":"Chaacha","alt":["Cace","Kolkhoz Pravda","Çäçe"],"lon":60.55747,"lat":36.77338,"pop":0},{"id":1475414,"name":"Chagaguzar","lon":65.48675,"lat":37.6431,"pop":0},{"id":601745,"name":"Chagali","alt":["Chagala","Chagaln","Chagaly","Chagyla","Promsel Chagala"],"lon":53.66667,"lat":42.18333,"pop":0},{"id":1219673,"name":"Chagpata","alt":["Chakhpata","Chokh-Petta"],"lon":65.00611,"lat":37.98028,"pop":0},{"id":1219672,"name":"Chagyl","lon":62.76667,"lat":38.01667,"pop":0},{"id":1219670,"name":"Chakal","alt":["Chanal"],"lon":62.93333,"lat":39.35,"pop":0},{"id":1219668,"name":"Chakich","lon":63.98333,"lat":38.61667,"pop":0},{"id":1219667,"name":"Chakmaklychanga","lon":61.45058,"lat":35.60247,"pop":0},{"id":1219664,"name":"Chakyr","alt":["Chakir","Chekir","Chekyr"],"lon":65.19063,"lat":37.83179,"pop":0},{"id":1219662,"name":"Chalapkuyu","lon":62.86667,"lat":38.01667,"pop":0},{"id":162093,"name":"Chalsu","lon":56.21668,"lat":38.83335,"pop":0},{"id":1219658,"name":"Chalysh","lon":64.43333,"lat":38.4,"pop":0},{"id":1219656,"name":"Chamchakly","lon":63.1,"lat":37.93333,"pop":0},{"id":8750758,"name":"Charlyk","alt":["Чарлык"],"lon":59.82304,"lat":37.16255,"pop":0},{"id":1219644,"name":"Chartma","lon":64.78333,"lat":38.13333,"pop":0},{"id":1219643,"name":"Charvadar","lon":63.67667,"lat":38.94528,"pop":0},{"id":1219642,"name":"Charvak","lon":63.65,"lat":38.98333,"pop":0},{"id":601742,"name":"Charvan-Kala","alt":["Shirvan-Kala"],"lon":58.63333,"lat":42.25,"pop":0},{"id":1219640,"name":"Charyy","lon":62.3,"lat":37.61667,"pop":0},{"id":1219639,"name":"Chash","alt":["Chash-Tepe"],"lon":62.01667,"lat":37.53333,"pop":0},{"id":1514804,"name":"Chash-Kala","alt":["Kala"],"lon":62.02905,"lat":40.96685,"pop":0},{"id":1219637,"name":"Chashkent","alt":["Chashkan"],"lon":61.33333,"lat":37.95,"pop":0},{"id":1219638,"name":"Chashkent","lon":61.53333,"lat":37.8,"pop":0},{"id":162086,"name":"Chat","alt":["Chat-i-Atrek","Chate-Atrek"],"lon":55.26528,"lat":38.00196,"pop":0},{"id":410793,"name":"Chat","alt":["Чат"],"lon":55.22696,"lat":38.02513,"pop":0},{"id":162085,"name":"Chatli","alt":["Chatly"],"lon":55.28333,"lat":39.35,"pop":0},{"id":1219633,"name":"Chatrak","lon":64.78333,"lat":38.13333,"pop":0},{"id":1219631,"name":"Chatryak","alt":["Chatrak","Chatryat"],"lon":64.73333,"lat":38.21667,"pop":0},{"id":1219628,"name":"Chaudur","alt":["Chavdur","Choudur","Chovdur"],"lon":63.89416,"lat":38.73763,"pop":0},{"id":410334,"name":"Chayek","alt":["Chaek","Чаек"],"lon":57.96394,"lat":37.89373,"pop":0},{"id":7041908,"name":"Chaynakhash","lon":62.74289,"lat":35.52016,"pop":0},{"id":1219618,"name":"Chegez","lon":63.26667,"lat":39.2,"pop":0},{"id":1219615,"name":"Chekich","lon":63.85,"lat":38.8,"pop":0},{"id":1219616,"name":"Chekich","alt":["Chenich","Chenick"],"lon":63.93333,"lat":38.7,"pop":0},{"id":1219614,"name":"Chekmen","lon":65.25,"lat":37.65,"pop":0},{"id":162080,"name":"Chekur-Yurt","alt":["Chekun-Yurt","Chukur-Jurt","Chukur-Yurt","Чукур-Юрт"],"lon":56.89027,"lat":38.22822,"pop":0},{"id":162075,"name":"Cheltek","lon":58.26667,"lat":38.2,"pop":0},{"id":1219611,"name":"Chemche","alt":["Chechme"],"lon":62.8,"lat":35.96667,"pop":0},{"id":1219608,"name":"Chenen","alt":["Cheken"],"lon":60.08333,"lat":37.88333,"pop":0},{"id":1219606,"name":"Chepek","lon":62.08333,"lat":37.7,"pop":0},{"id":1219603,"name":"Cherenga","lon":63.7,"lat":38.91667,"pop":0},{"id":1219601,"name":"Cherkez","lon":61.41667,"lat":37.93333,"pop":0},{"id":162068,"name":"Cheshme","alt":["Poselok Nomer Pyat'","Posjolok Nomer Pjat'","Posëlok Nomer Pyat’","Посёлок Номер Пять"],"lon":56.78333,"lat":38.5,"pop":0},{"id":1219595,"name":"Cheshme Vtoroy","alt":["Cheshme"],"lon":61.16839,"lat":38.65724,"pop":0},{"id":162065,"name":"Chil’gez","alt":["Chil'gez","Чильгез"],"lon":59.54092,"lat":37.25123,"pop":0},{"id":162061,"name":"Choganly","lon":58.41111,"lat":38.01056,"pop":0},{"id":162055,"name":"Chukur-Kala","lon":59.38333,"lat":37.5,"pop":0},{"id":162052,"name":"Chuli","alt":["Чули"],"lon":58.01817,"lat":37.97246,"pop":0},{"id":1219570,"name":"Chupli","lon":63.53333,"lat":39.06667,"pop":0},{"id":1219569,"name":"Churga","lon":64.11667,"lat":38.63333,"pop":0},{"id":8755561,"name":"Çörli","alt":["Corli"],"lon":58.86855,"lat":38.20654,"pop":0},{"id":12233941,"name":"Çowdur","alt":["Cowdur"],"lon":63.91054,"lat":38.74546,"pop":0},{"id":162054,"name":"Çukur","alt":["Chukhur-Kala","Chukur","Chukurkala","Cukur","Imeni Stalina","Stalina","Чукур"],"lon":56.46354,"lat":38.68365,"pop":0},{"id":12226700,"name":"Çurçury","alt":["Curcury"],"lon":59.15244,"lat":38.96132,"pop":0},{"id":12226697,"name":"Çyrla","alt":["Cyrla"],"lon":58.09933,"lat":38.7073,"pop":0},{"id":1219564,"name":"Dada-Ogly","alt":["Dedogly"],"lon":62.76667,"lat":36.03333,"pop":0},{"id":1219563,"name":"Dadedogli","alt":["Didedogly"],"lon":62.85,"lat":35.93333,"pop":0},{"id":1219560,"name":"Dag-Sakhkary","lon":63.76667,"lat":38.91667,"pop":0},{"id":162047,"name":"Dagadzhik","lon":53.28333,"lat":39.48333,"pop":0},{"id":1219561,"name":"Dagarkishlak","lon":66.28333,"lat":37.61667,"pop":0},{"id":12226665,"name":"Damla","lon":59.22727,"lat":40.02026,"pop":0},{"id":601737,"name":"Damzak","lon":52.73344,"lat":40.44781,"pop":0},{"id":12233952,"name":"Dänajy","alt":["Danajy"],"lon":64.5319,"lat":38.29338,"pop":0},{"id":162045,"name":"Däneata","alt":["Danata","Daneata"],"lon":55.14879,"lat":39.11123,"pop":0},{"id":1514802,"name":"Danisher","alt":["Danishen","Danisherkala"],"lon":61.91777,"lat":41.0568,"pop":0},{"id":162044,"name":"Dardali","lon":56.03333,"lat":38.15,"pop":0},{"id":1514800,"name":"Dargan-Ata","lon":61.97888,"lat":40.85744,"pop":0},{"id":162041,"name":"Darganakala","alt":["Dargana","Dargana-Kala","Дарганакала"],"lon":59.49169,"lat":37.44254,"pop":0},{"id":601733,"name":"Dashkuduk","alt":["Tashkuduk","Дашкудук"],"lon":52.89802,"lat":40.60372,"pop":0},{"id":1218271,"name":"Daşköpri","alt":["Daskopri","Tash-Kiroi","Tashkepri","Tashkepristroy"],"lon":62.64946,"lat":36.27408,"pop":0},{"id":601734,"name":"Daşoguz","alt":["Dashaguz","Dashhowuz","Dashkhovuz","Dashoguz","Dashowuz","Dasoguz","Dasoguzas","Daszoguz","Daşoğuz","Dašhowuz","Dašoguz","Dašoguzas","Dașoguz","TAZ","Tashauz","Tasjauz","Toshhovuz","da sha gu ci","dash awghwz","dashoguzi","dashoguzu","dashwghwz","dasoguza","dasyogujeu","Дашагуз","Дашогуз","داش اوغوز","داشوغوز","داش‌اغوز","दाशोग़ुज़","დაშოგუზი","ダショグズ","达沙古兹","다쇼구즈"],"lon":59.96661,"lat":41.83625,"pop":166500},{"id":162038,"name":"Daulet","lon":56.63333,"lat":39.05,"pop":0},{"id":1219541,"name":"Dautly","lon":64.41667,"lat":38.43333,"pop":0},{"id":1219538,"name":"Davlet","alt":["Yegir-Kainski"],"lon":62.3,"lat":37.48333,"pop":0},{"id":1514798,"name":"Dayakhatyn","lon":62.36667,"lat":40.08333,"pop":0},{"id":162037,"name":"Dayne","alt":["Daniyeh","Dānīyeh"],"lon":57.00984,"lat":38.19023,"pop":0},{"id":1219536,"name":"Daz","lon":61.33546,"lat":36.55588,"pop":0},{"id":162033,"name":"Dekel’-Dash","lon":56.76667,"lat":38.26667,"pop":0},{"id":601727,"name":"Denglikopry","lon":59.08333,"lat":42.38333,"pop":0},{"id":12226642,"name":"Derekli","lon":59.15142,"lat":42.12255,"pop":0},{"id":1219528,"name":"Dervezekem","lon":64.3,"lat":36.3,"pop":0},{"id":601736,"name":"Derweze","alt":["Darvaza"],"lon":58.40849,"lat":40.17536,"pop":0},{"id":12226641,"name":"Derýalyk","alt":["Deryalyk"],"lon":59.08161,"lat":42.22875,"pop":0},{"id":162028,"name":"Deşt","alt":["Desht","Dest","Дешт"],"lon":56.8293,"lat":38.5111,"pop":0},{"id":162027,"name":"Deycha","alt":["Dejcha","Derbend-Deycha","Дейча"],"lon":59.77527,"lat":37.19965,"pop":0},{"id":12226671,"name":"Diňli","alt":["Dinli"],"lon":58.21343,"lat":39.44531,"pop":0},{"id":12226698,"name":"Diňli","alt":["Dinli"],"lon":58.80763,"lat":38.82905,"pop":0},{"id":1514795,"name":"Donguz-Tugay","alt":["Dunguz Tugai"],"lon":62.41667,"lat":40.03333,"pop":0},{"id":12226694,"name":"Dördajy","alt":["Dordajy"],"lon":58.24938,"lat":38.41154,"pop":0},{"id":1219513,"name":"Dostluk","alt":["Yuzhnyy","Достлук"],"lon":65.33761,"lat":37.74548,"pop":0},{"id":12233987,"name":"Dostluk","lon":63.15273,"lat":39.26957,"pop":0},{"id":162016,"name":"Dou-Kala","alt":["Devkala","Djovkala","Dëvkala","Дёвкала"],"lon":57.61618,"lat":38.29413,"pop":0},{"id":8600344,"name":"Doulyatabad","lon":61.16499,"lat":36.38238,"pop":0},{"id":8708310,"name":"Dovletkhan","alt":["Довлетхан"],"lon":56.74184,"lat":38.37869,"pop":0},{"id":12226621,"name":"Döwkesen","alt":["Dowkesen"],"lon":58.3423,"lat":42.2684,"pop":0},{"id":8599350,"name":"Döwletabat","alt":["Dowletabat","Sovetabad"],"lon":61.43337,"lat":36.47442,"pop":0},{"id":162013,"name":"Doyran","lon":56.11667,"lat":38.48333,"pop":0},{"id":1219510,"name":"Dukdrushtum","alt":["Duyadrushtum"],"lon":63.91667,"lat":38.91667,"pop":0},{"id":8599221,"name":"Dumanly","alt":["Tedzhenstroy Pervyy"],"lon":60.87665,"lat":36.9053,"pop":0},{"id":1219504,"name":"Durdy","alt":["Churuk","Uchruk"],"lon":61.78333,"lat":37.61667,"pop":0},{"id":162011,"name":"Durdykhan","alt":["Дурдыхан"],"lon":56.73769,"lat":38.38291,"pop":0},{"id":1218930,"name":"Durdyýew Adyndaky","alt":["Durdyyew Adyndaky","Imeni Kirova","Khodzhali","Kolkhoz Imeni Kirova","Meruchak"],"lon":63.10547,"lat":35.80099,"pop":0},{"id":162009,"name":"Durun","alt":["Дурун"],"lon":57.46908,"lat":38.39587,"pop":0},{"id":162010,"name":"Durun","lon":57.43333,"lat":38.36667,"pop":0},{"id":1219501,"name":"Duşak","alt":["Dusak","Duschak","Dushak"],"lon":60.02469,"lat":37.19518,"pop":0},{"id":162006,"name":"Düwünçi","alt":["Duunchi","Duwunci"],"lon":55.11981,"lat":39.7283,"pop":0},{"id":162005,"name":"Duzlydepe","alt":["Duzul-Tepe","Nikol'skiy","Nikol’skiy"],"lon":56.74529,"lat":38.30159,"pop":0},{"id":1219496,"name":"Dvadtsatiletiye Turkmenskoy Sovetskoy Sotsialisticheskoy Respubliki","lon":61.78333,"lat":37.63333,"pop":0},{"id":1514794,"name":"Dyuyeboyun","alt":["Tuya Mayun","Tuya-Muyun","Tykya Myan"],"lon":61.42347,"lat":41.20338,"pop":0},{"id":601722,"name":"Dzhafar","alt":["Dzhafara"],"lon":52.71344,"lat":40.33768,"pop":0},{"id":1219491,"name":"Dzhapar","lon":60.46667,"lat":37.66667,"pop":0},{"id":1219489,"name":"Dzharguzar","lon":66.42512,"lat":37.36247,"pop":0},{"id":161996,"name":"Dzhedzhirs","alt":["Dzhi-Dzhirt","Proletariy","Джеджирс"],"lon":56.49853,"lat":38.70821,"pop":0},{"id":1219481,"name":"Dzhengel’","lon":63.77987,"lat":38.96074,"pop":0},{"id":1514793,"name":"Dzhigerbent","alt":["Dzhigir-Bend","Dzhigirbent","Dzhikyrbent"],"lon":61.97184,"lat":40.7705,"pop":0},{"id":1475412,"name":"Dzhingilkhatab","lon":65.45844,"lat":37.65956,"pop":0},{"id":1219478,"name":"Dzhity-Kuduk","alt":["Dzhety-Kuduk"],"lon":65.7,"lat":37.91667,"pop":0},{"id":161993,"name":"Dzhoyruk","alt":["Dzhoyryk"],"lon":55.26667,"lat":39.65,"pop":0},{"id":1219474,"name":"Dzhuma","alt":["Bazar Dzhuma"],"lon":64.73333,"lat":38.25,"pop":0},{"id":1219472,"name":"Dzhuma-Bazar","lon":64.46667,"lat":38.23333,"pop":0},{"id":1219462,"name":"Dzhuppy","lon":62.31667,"lat":37.86667,"pop":0},{"id":161991,"name":"Dzhuvaldy","alt":["Razvaliny Dzhuvazli","Развалины Джувазли"],"lon":56.58333,"lat":38.6,"pop":0},{"id":8999377,"name":"Ediagach","alt":["Ehdiagach","Эдиагач"],"lon":57.79355,"lat":38.24644,"pop":0},{"id":1219458,"name":"Edrug","lon":65.11667,"lat":38.03333,"pop":0},{"id":1219454,"name":"Egri-Guzar","lon":61.78413,"lat":37.66166,"pop":0},{"id":1219452,"name":"Egriyagyr","alt":["Egri","Yagyr"],"lon":65.13333,"lat":38.01667,"pop":0},{"id":161597,"name":"Ekerem","alt":["Okarem"],"lon":53.83848,"lat":38.07039,"pop":0},{"id":1219354,"name":"El’jik","alt":["El'dzhik","El'dzhin","El'jik","El’dzhik","El’dzhin","Il'dzhik","Iljik","Il’dzhik"],"lon":62.98762,"lat":39.4143,"pop":0},{"id":1465200,"name":"Ene-Kuliyevo","lon":62.99454,"lat":39.31749,"pop":0},{"id":1219446,"name":"Energetik","lon":62.71667,"lat":37.58333,"pop":0},{"id":1219445,"name":"Epo","lon":61.15,"lat":36.68333,"pop":0},{"id":1219444,"name":"Erdel’","lon":63.35,"lat":39.23333,"pop":0},{"id":12233968,"name":"Erden","lon":62.76795,"lat":36.00109,"pop":0},{"id":161371,"name":"Esenguly","alt":["Aul Gassan-Kuli","Gasan-Kuli","Gassan-Kuli","Hasan Quili","Hasan-Kuli","Гасан-Кули"],"lon":53.97256,"lat":37.46461,"pop":0},{"id":1219442,"name":"Esenmengli","alt":["Isem Menli","Isen-Menli"],"lon":64.72001,"lat":38.12871,"pop":0},{"id":1219441,"name":"Eski","lon":63.86667,"lat":38.81667,"pop":0},{"id":1219440,"name":"Eski-Narazym","lon":64.00472,"lat":38.81917,"pop":0},{"id":1219438,"name":"Etbaş","alt":["Etbas","Etbash","Etbashi"],"lon":64.47004,"lat":38.23447,"pop":0},{"id":8999963,"name":"Etimblir","alt":["Ehtimblir","Этимблир"],"lon":58.54104,"lat":37.80514,"pop":0},{"id":161370,"name":"Etrek","alt":["Bayat-Khadzhi","Gyzyletrek","Kizel-Atrek","Kizil-Atrek","Kizyl-Atrek","Kyzyl-Atrek","Kyzylay"],"lon":54.76645,"lat":37.66114,"pop":0},{"id":1219431,"name":"Farap","alt":["Farab","Фарап"],"lon":63.61165,"lat":39.17037,"pop":14503},{"id":410471,"name":"Firyuzinskoye Ushchel’ye","alt":["Firjuzinskoe Ushhel'e","Firyuzinskoye Ushchel'ye","Фирюзинское Ущелье"],"lon":58.18162,"lat":38.01077,"pop":0},{"id":1219429,"name":"Gabakly","alt":["Kabakli","Kabakly","Kavakhly"],"lon":62.54332,"lat":39.77305,"pop":0},{"id":1219428,"name":"Gaburdy","lon":64.68333,"lat":38.21667,"pop":0},{"id":1219426,"name":"Gadyn","lon":63.30395,"lat":39.32243,"pop":0},{"id":12233928,"name":"Gagarin","lon":61.35691,"lat":39.86438,"pop":0},{"id":1219183,"name":"Galaýmor","alt":["Galaymor","Kala-I-Mor","Kalaymor","Kalaýmor"],"lon":62.55614,"lat":35.65397,"pop":0},{"id":1219525,"name":"Galkynyş","alt":["Danew","Deinach","Deinau","Deynau","Dänew","Galkynys"],"lon":63.18429,"lat":39.26284,"pop":0},{"id":12226666,"name":"Gamyşly","alt":["Gamysly"],"lon":59.04566,"lat":39.73497,"pop":0},{"id":442580,"name":"Gamyşlyja","alt":["Gamyshlydzha","Gamyshlyja","Gamyslyja","Kamyshaldzhar","Kamyshlydzha"],"lon":54.0154,"lat":38.39359,"pop":0},{"id":12233962,"name":"Ganlybaş","alt":["Ganlybas"],"lon":62.49829,"lat":36.93481,"pop":0},{"id":1218243,"name":"Gaňňaly","alt":["Gannaly","Tedzhenstroy"],"lon":60.79656,"lat":37.03417,"pop":0},{"id":12226658,"name":"Garaaýman","alt":["Garaayman"],"lon":55.99478,"lat":40.74685,"pop":0},{"id":601758,"name":"Garabogaz","alt":["Bek-Dafh","Bekdash","Bik-Dafh","Bik-Dash","Karabogaz","Бекдаш"],"lon":52.57344,"lat":41.54013,"pop":0},{"id":12226681,"name":"Garabogaz","lon":56.46039,"lat":39.28151,"pop":0},{"id":601717,"name":"Garabogazköl","alt":["Garabogazkoel","Garabogazkol","Kara-Bogaz","Kara-Bogaz-Gol","Kara-Bugas-Gol","Kara-Bugaz","Кара-Богаз-Гол"],"lon":52.92582,"lat":41.04608,"pop":0},{"id":12226675,"name":"Garaçulga","alt":["Garaculga"],"lon":58.42974,"lat":39.96768,"pop":0},{"id":161883,"name":"Garadegish","alt":["Karadegish","Karadetish"],"lon":54.4997,"lat":37.44359,"pop":0},{"id":442578,"name":"Garadepe","alt":["Karadepe","Карадепе"],"lon":54.03556,"lat":38.03222,"pop":0},{"id":161878,"name":"Garagan","alt":["Karagan","Караган"],"lon":57.49572,"lat":38.37061,"pop":0},{"id":161877,"name":"Garagöl","alt":["Garagol","Karagel","Karagel'","Karagël’","Karakel","Karakël","Qura Gel"],"lon":53.17342,"lat":39.37982,"pop":0},{"id":9642279,"name":"Garagum","alt":["Uchastok Pobeda","Участок Победа"],"lon":57.98525,"lat":38.16278,"pop":0},{"id":161866,"name":"Garahan","alt":["Karakhan","Карахан"],"lon":59.77331,"lat":37.30366,"pop":0},{"id":8991373,"name":"Garahan","alt":["Karakhan","Карахан"],"lon":55.81233,"lat":38.21128,"pop":0},{"id":12233788,"name":"Garaja","lon":59.52067,"lat":41.96587,"pop":0},{"id":410763,"name":"Garajabatyr","alt":["Karadzha-Batyr","Караджа-Батыр"],"lon":54.42278,"lat":37.64639,"pop":0},{"id":12233982,"name":"Garajaowlak","lon":59.80932,"lat":38.42109,"pop":0},{"id":12233963,"name":"Garaköl","alt":["Garakol"],"lon":62.47731,"lat":36.84757,"pop":0},{"id":1219096,"name":"Garamätnyýaz","alt":["Garamatnyyaz","Karamet-Niyaz"],"lon":64.55583,"lat":37.74116,"pop":0},{"id":1219093,"name":"Garamyş","alt":["Garamys","Karamysh"],"lon":63.55077,"lat":39.21979,"pop":0},{"id":601644,"name":"Garaporsaň","alt":["Garaporsan","Karaparsan"],"lon":59.76649,"lat":41.80153,"pop":0},{"id":161852,"name":"Garawul","alt":["Karaul","Karavul","Каравул"],"lon":57.03606,"lat":38.38764,"pop":0},{"id":12226626,"name":"Garawulgala","lon":58.74372,"lat":42.30909,"pop":0},{"id":12226661,"name":"Garaýylgyn","alt":["Garayylgyn"],"lon":55.44373,"lat":40.11321,"pop":0},{"id":8707480,"name":"Garkel","alt":["Kara-Kel'","Kara-Kel’","Кара-Кель"],"lon":56.33366,"lat":38.43052,"pop":0},{"id":1219056,"name":"Garlyk","alt":["Karlyuk","Karlyukski"],"lon":66.34031,"lat":37.59327,"pop":0},{"id":1219419,"name":"Garrychyrla","alt":["Kara-Chirla","Karrychirla","Kary-Chirla"],"lon":60.05,"lat":37.55,"pop":0},{"id":12226699,"name":"Garryçyrla","alt":["Garrycyrla"],"lon":58.93622,"lat":38.73607,"pop":0},{"id":12233958,"name":"Garrygala","lon":66.00584,"lat":37.87707,"pop":0},{"id":12226647,"name":"Garşy","alt":["Garsy"],"lon":52.85702,"lat":40.71981,"pop":0},{"id":12226669,"name":"Gatydüýp","alt":["Gatydueyp"],"lon":58.11003,"lat":39.29335,"pop":0},{"id":161957,"name":"Gäwers","alt":["Gawers","Gevers","Gjaurs","Gyaurs","Гяурс"],"lon":58.72767,"lat":37.7941,"pop":0},{"id":12226630,"name":"Gazakdegiş","alt":["Gazakdegis"],"lon":58.4677,"lat":42.45322,"pop":0},{"id":1514792,"name":"Gazojak","alt":["Gaz-Achak"],"lon":61.4036,"lat":41.18746,"pop":21021},{"id":12226702,"name":"Gazykly","lon":59.0661,"lat":38.63472,"pop":0},{"id":161970,"name":"Gekcha","alt":["Kumbet-Ayla","Kumbet-Yaylya"],"lon":58.06667,"lat":38.21667,"pop":0},{"id":601714,"name":"Gëksay","alt":["Geksay","Kok-Say"],"lon":53.48333,"lat":42.11667,"pop":0},{"id":161963,"name":"Geok-Tepe Nomer Pervyy","alt":["Geok-Tepe-Pervyy"],"lon":57.96992,"lat":38.24371,"pop":0},{"id":161962,"name":"Geok-Tepe Nomer Tretiy","alt":["Geok-Tepe-Tretiy"],"lon":57.86667,"lat":38.15,"pop":0},{"id":410475,"name":"Geokcha","alt":["Геокча"],"lon":58.25146,"lat":37.98082,"pop":0},{"id":9007763,"name":"Geokdepe","alt":["Геокдепе"],"lon":57.86088,"lat":38.16238,"pop":0},{"id":161958,"name":"Germaw","alt":["Germab","Germao","Germob","Mikhaylovskiy","Гермаб"],"lon":57.74257,"lat":38.01414,"pop":0},{"id":12233938,"name":"Getin","lon":60.30459,"lat":38.0714,"pop":0},{"id":9013506,"name":"Gievdzhik","alt":["Гиевджик"],"lon":57.76242,"lat":38.23374,"pop":0},{"id":1219401,"name":"Gil’-Abad","alt":["Gil'-Abad"],"lon":61.18333,"lat":36.4,"pop":0},{"id":8738651,"name":"Gindere","alt":["Гиндере"],"lon":59.59424,"lat":37.32809,"pop":0},{"id":1219400,"name":"Gindukush","alt":["Imeni Kuybysheva"],"lon":62.34666,"lat":37.32195,"pop":0},{"id":12226692,"name":"Göbekli","alt":["Gobekli"],"lon":58.66163,"lat":38.41926,"pop":0},{"id":12233781,"name":"Göbeklioy","alt":["Gobeklioy"],"lon":59.65662,"lat":42.24773,"pop":0},{"id":161749,"name":"Goç","alt":["Goc","Koch","Kodsh","Kodzh","Kodzha","Sovkhoz Imeni Frolova","Совхоз Имени Фролова"],"lon":56.59591,"lat":38.81636,"pop":0},{"id":442582,"name":"Gögerendag","alt":["Gagrandag","Gogerendag"],"lon":54.33161,"lat":38.88317,"pop":0},{"id":1218929,"name":"Gojaly","alt":["Khodzhali","Uchastok Krasnaya Armiya"],"lon":63.13696,"lat":35.74071,"pop":0},{"id":1219397,"name":"Gokcha","lon":61.98333,"lat":37.56667,"pop":0},{"id":161950,"name":"Gökdepe","alt":["Geok-Tepe","Gokdepe","Геок-Тепе"],"lon":57.96072,"lat":38.15863,"pop":0},{"id":12226660,"name":"Gökdere","alt":["Gokdere"],"lon":55.52475,"lat":40.35199,"pop":0},{"id":1475166,"name":"Gökje","alt":["Gokcha","Gokje"],"lon":64.76954,"lat":37.16048,"pop":0},{"id":601712,"name":"Goklenkuyu","lon":56.33333,"lat":41.01667,"pop":0},{"id":12226633,"name":"Goler","lon":58.72432,"lat":42.46171,"pop":0},{"id":1219395,"name":"Golovnoye","lon":65.64535,"lat":37.56323,"pop":0},{"id":1475368,"name":"Golovnoye Staroye","lon":65.6109,"lat":37.58743,"pop":0},{"id":1514791,"name":"Gorel’de","lon":62.34182,"lat":40.28473,"pop":0},{"id":161741,"name":"Gorjaw","alt":["Kordzhou","Korzhou","Коржоу"],"lon":58.08884,"lat":38.07928,"pop":0},{"id":12226670,"name":"Gorýa","alt":["Gorya"],"lon":58.15031,"lat":39.45899,"pop":0},{"id":601603,"name":"Goşaoba","alt":["Gosaoba","Koshoba","Kumbetli-Koshoba"],"lon":54.22758,"lat":40.33134,"pop":0},{"id":12226667,"name":"Goşatakyr","alt":["Gosatakyr"],"lon":58.26253,"lat":39.30571,"pop":0},{"id":12233979,"name":"Goşdepe","alt":["Gosdepe"],"lon":63.74595,"lat":38.88757,"pop":0},{"id":161368,"name":"Goturdepe","alt":["Kotor Tepp","Kotur-Tepe","Koturdepe"],"lon":53.716,"lat":39.46699,"pop":0},{"id":161844,"name":"Gowşak-Gyzyltakyr","alt":["Gowsak-Gyzyltakyr","Kaushek-Kyzyltakyr","Koushok-Kyzyl-Takyr"],"lon":58.82455,"lat":39.27495,"pop":0},{"id":161843,"name":"Gowşut","alt":["Gowsut","Kaushut","Kaushut-Bent","Каушут"],"lon":59.48091,"lat":37.45707,"pop":0},{"id":1219392,"name":"Gowurdak","alt":["Gaurdak","Gaurdakstroy","Gaurdstroi","Gaurdstroy"],"lon":66.04656,"lat":37.81244,"pop":34745},{"id":12226659,"name":"Goýmat","alt":["Goymat"],"lon":55.85903,"lat":40.44929,"pop":0},{"id":12233988,"name":"Göýnük","alt":["Goeynuek"],"lon":63.02545,"lat":39.30442,"pop":0},{"id":7046373,"name":"Goýunly","alt":["Goyunly","Kulanly"],"lon":62.33328,"lat":35.71071,"pop":0},{"id":161836,"name":"Gozgan","alt":["Kazgankala","Kozgan-Kala","Казганкала"],"lon":59.43572,"lat":37.36788,"pop":0},{"id":1219391,"name":"Grodekovskiy","alt":["Gordikovskiy"],"lon":62.18333,"lat":37.55,"pop":0},{"id":601460,"name":"Gubadag","alt":["Imeni Tel'mana","Imeni Tel’mana","Tel'mansk","Tel’mansk"],"lon":59.94964,"lat":42.07948,"pop":0},{"id":161947,"name":"Güdürolum","alt":["Gudriolum","Gudurolum","Guri-Olum"],"lon":54.65193,"lat":37.47385,"pop":0},{"id":1514790,"name":"Gugerdzhengli","alt":["Gugurdzhli"],"lon":62.36667,"lat":40.3,"pop":0},{"id":12226644,"name":"Gulaçýap","alt":["Gulacyap"],"lon":59.15554,"lat":42.19513,"pop":0},{"id":8770087,"name":"Gulangurlan","lon":58.90847,"lat":37.92576,"pop":0},{"id":1465090,"name":"Gulanly","lon":61.08586,"lat":37.31924,"pop":0},{"id":12233936,"name":"Gularyk","lon":63.64418,"lat":39.04608,"pop":0},{"id":601708,"name":"Gulastan","alt":["Gul'stan","Gul’stan"],"lon":59.66667,"lat":41.76667,"pop":0},{"id":7026829,"name":"Gulja","alt":["Kolkhoz Imeni Dvadtsat' Vtorogo Partsyezda","Kolkhoz Imeni Dvadtsat’ Vtorogo Parts”yezda"],"lon":62.96353,"lat":35.93041,"pop":0},{"id":1219571,"name":"Güljar","alt":["Chungurli","Guljar"],"lon":61.25849,"lat":38.35877,"pop":0},{"id":12226686,"name":"Gulmaç","alt":["Gulmac"],"lon":55.9379,"lat":39.05729,"pop":0},{"id":12233948,"name":"Gultak","lon":64.29034,"lat":38.50641,"pop":0},{"id":161943,"name":"Gumdag","alt":["Gumdage","Khudaidag","Khuday-Dag","Kum-Dag","Гумдаге"],"lon":54.59056,"lat":39.20611,"pop":24312},{"id":12226636,"name":"Gumgaçy","alt":["Gumgacy"],"lon":58.93058,"lat":42.406,"pop":0},{"id":1219383,"name":"Gunesh","lon":64.73333,"lat":38.18333,"pop":0},{"id":1218780,"name":"Gunjak","alt":["Kundzhak"],"lon":66.42197,"lat":37.56329,"pop":0},{"id":161708,"name":"Gurgulab","alt":["Dmitriyevskiy","Kurkulab","Куркулаб"],"lon":57.66731,"lat":38.03113,"pop":0},{"id":12226656,"name":"Gürje","alt":["Gurje"],"lon":54.35782,"lat":40.29575,"pop":0},{"id":9534489,"name":"Gurruk","lon":54.07406,"lat":37.68025,"pop":0},{"id":1218327,"name":"Gurşunmagdan Kärhanasy","alt":["Gursunmagdan Karhanasy","Kugi-Tang","Kugitang-Tau","Kukhitang","Kuki-tang","Svinsoviy Rudnik Koni","Svintsovyy Rudnik"],"lon":66.44112,"lat":37.87,"pop":0},{"id":1219381,"name":"Gurum-Say","lon":66.43333,"lat":37.88333,"pop":0},{"id":1219380,"name":"Gurumsay","lon":66.46667,"lat":37.88333,"pop":0},{"id":601571,"name":"Guwlymaýak","alt":["Guwlymayak","Kuli-Mayak","Kuuli-Majak","Kuuli-Mayak","Куули-Маяк"],"lon":52.74151,"lat":40.2443,"pop":0},{"id":12233779,"name":"Guýanagyz","alt":["Guyanagyz"],"lon":59.5865,"lat":42.27754,"pop":0},{"id":12233950,"name":"Güýçbirleşik","alt":["Gueycbirlesik"],"lon":64.66028,"lat":38.14442,"pop":0},{"id":161940,"name":"Gyami","alt":["Gami","Geami","Gämi","Геами"],"lon":58.47039,"lat":37.90735,"pop":0},{"id":161938,"name":"Gyaur","alt":["Gyar"],"lon":56.18333,"lat":39.36667,"pop":0},{"id":161939,"name":"Gyaur","lon":55.93333,"lat":39.05,"pop":0},{"id":1219370,"name":"Gyurmush-Tepe","lon":61.6,"lat":37.91667,"pop":0},{"id":12233978,"name":"Gyzan","lon":63.81229,"lat":38.86191,"pop":0},{"id":161678,"name":"Gyzyl","alt":["Imeni Vos'mogo Marta","Imeni Vos’mogo Marta","Kizil","Kyzyl","Vos'mogo Marta","Vos’mogo Marta"],"lon":56.20506,"lat":38.42992,"pop":0},{"id":12233790,"name":"Gyzyl","lon":59.7459,"lat":41.92824,"pop":0},{"id":12233957,"name":"Gyzylaý","alt":["Gyzylay"],"lon":66.53345,"lat":37.93745,"pop":0},{"id":161538,"name":"Gyzylbaýyr","alt":["Gyzylbayyr","Sharlauk","Sharlavuk","Sharlawuk","Sharlouk","Shorlouk","Шарлоук"],"lon":55.6507,"lat":38.21968,"pop":0},{"id":601705,"name":"Gyzylgaya","alt":["Kizyl-Kaya"],"lon":55.46537,"lat":40.6219,"pop":0},{"id":12233939,"name":"Gyzylgaýa","alt":["Gyzylgaya"],"lon":63.9164,"lat":38.79561,"pop":0},{"id":12226701,"name":"Gyzyljagala","lon":59.33855,"lat":38.86402,"pop":0},{"id":161669,"name":"Gyzylsakgal","alt":["Kyzyl-Sakal"],"lon":58.75159,"lat":38.92309,"pop":0},{"id":161754,"name":"Gyzylsuw","alt":["Gyzyl-Suv","Kizil-Su","Kizyl-Su","Kyzylsu","Mys It-Balyk"],"lon":53.01361,"lat":39.79901,"pop":0},{"id":12226622,"name":"Gyzyltam","lon":58.62765,"lat":42.15599,"pop":0},{"id":161672,"name":"Gyzylymam","alt":["Kizyl-Iman","Kyzyl-Imam","Кызыл-Имам"],"lon":56.04003,"lat":38.14648,"pop":0},{"id":12233961,"name":"Gyzylýyldyz","alt":["Gyzylyyldyz"],"lon":62.48317,"lat":36.94704,"pop":0},{"id":161779,"name":"Hajyölen","alt":["Hajyolen","Khodzhaolen","Khodzhavlan"],"lon":57.31541,"lat":38.74329,"pop":0},{"id":1218987,"name":"Halaç","alt":["Halac","Khalach"],"lon":64.87938,"lat":38.07201,"pop":0},{"id":12233990,"name":"Halkabad","lon":62.37501,"lat":40.07801,"pop":0},{"id":1218976,"name":"Hanguýy","alt":["Hanguyy","Khankui"],"lon":60.63898,"lat":38.68991,"pop":0},{"id":1219369,"name":"Hanhowuz","alt":["Khauz-Khan"],"lon":61.24515,"lat":37.23499,"pop":0},{"id":1218347,"name":"Hanýap","alt":["Hanyap","Khan-Yab","Sovetyab","Sovetyap","Sovet-Yab","Sovet”yab","Sovet”yap","Sowetyap"],"lon":61.24341,"lat":36.43796,"pop":0},{"id":12233945,"name":"Haryn","lon":64.12859,"lat":38.48504,"pop":0},{"id":12226650,"name":"Hasan","lon":53.53361,"lat":40.18094,"pop":0},{"id":401214,"name":"Hasan Kuli","lon":53.97944,"lat":37.46444,"pop":0},{"id":161976,"name":"Hawdan","alt":["Gaudan","Goudan","Gowdan","Гаудан"],"lon":58.40406,"lat":37.65123,"pop":0},{"id":410524,"name":"Hawdan","alt":["Gaudan"],"lon":58.41528,"lat":37.91417,"pop":0},{"id":12226695,"name":"Haýyar","alt":["Hayyar"],"lon":58.25404,"lat":38.57151,"pop":0},{"id":9165700,"name":"Hazar","lon":53.11486,"lat":39.44508,"pop":0},{"id":161383,"name":"Herrikgala","alt":["Ehrikkala","Erikkala","Errik-Kala","Kherrikkala","Yerrikkala","Yerryk-Kata","Эриккала"],"lon":58.23057,"lat":38.02444,"pop":0},{"id":410472,"name":"Herrikgala","alt":["Erikkala","Kherrikkala"],"lon":58.235,"lat":38.02556,"pop":0},{"id":161784,"name":"Hojagala","alt":["Khodzha-Kalay Pervyy","Khodzhakala","Khoja-Kala","Ходжакала"],"lon":56.33832,"lat":38.71127,"pop":0},{"id":161785,"name":"Hojagala","alt":["Khodzhakala"],"lon":56.80981,"lat":38.25261,"pop":0},{"id":1463708,"name":"Hojagürlük","alt":["Hojagurluk","Khadzhykulluk"],"lon":65.68898,"lat":38.06345,"pop":0},{"id":12233960,"name":"Hojak","lon":66.35757,"lat":37.60886,"pop":0},{"id":1218934,"name":"Hojakenepsi","alt":["Khodzha-Kakepsi","Khodzha-Kekepsi","Khodzha-Kenepsi","Khodzha-Kyanyansi","Khodzhakanapsi"],"lon":63.06123,"lat":39.39703,"pop":0},{"id":12233992,"name":"Hojalyk","lon":62.21377,"lat":40.46653,"pop":0},{"id":1218928,"name":"Hojambaz","alt":["Khodzhambas","Khodzhambass"],"lon":65.00347,"lat":38.11635,"pop":0},{"id":12233959,"name":"Hojaşulluk","alt":["Hojasulluk"],"lon":66.13391,"lat":37.73859,"pop":0},{"id":1218943,"name":"Hojeýpil","alt":["Hojeypil","Imeni Stalina","Khodzhai-Fil'ata","Khodzhai-Fil’ata","Khodzhapil'","Khodzhapil’","Khodzhay-Fil'-Ata","Khodzhay-Fil’-Ata","Xo`jaypil","Xo‘jaypil"],"lon":66.64303,"lat":37.9475,"pop":0},{"id":7047753,"name":"Hopbuk","alt":["Kalan-Mor Nomer Odin Ferma Sovkhoza"],"lon":62.40065,"lat":35.89327,"pop":0},{"id":12233972,"name":"Howdan","lon":61.52459,"lat":35.86864,"pop":0},{"id":161773,"name":"Hudaýberdi","alt":["Hudayberdi","Khudayberdy"],"lon":54.78217,"lat":39.94198,"pop":0},{"id":1218906,"name":"Hüjüm","alt":["Hujum","Khudzhum","Moskva"],"lon":62.47063,"lat":36.99562,"pop":0},{"id":161772,"name":"Hurmantgökje","alt":["Hurmantgokje","Khurman-Kala","Khurmangeokcha","Khurmat-Kala","Хурмангеокча"],"lon":58.01733,"lat":38.07254,"pop":0},{"id":1219359,"name":"Il’chik","lon":62.98333,"lat":39.38333,"pop":0},{"id":1219353,"name":"Il’mak","lon":63,"lat":39.36667,"pop":0},{"id":161928,"name":"Ilek","alt":["Ilen"],"lon":58.20713,"lat":38.77989,"pop":0},{"id":161925,"name":"Ilidzha","alt":["Llidzha","Илиджа"],"lon":55.43048,"lat":38.1111,"pop":0},{"id":1219352,"name":"Ilyach","lon":65.03333,"lat":38.08333,"pop":0},{"id":1219349,"name":"Ilyari","lon":62.45,"lat":37.06667,"pop":0},{"id":1219348,"name":"Imambaba","alt":["Iman Baba"],"lon":62.44215,"lat":36.71608,"pop":0},{"id":601702,"name":"Imeni Andreyeva","lon":59.3,"lat":42.33333,"pop":0},{"id":1219342,"name":"Imeni Andreyeva","alt":["Ogam"],"lon":64.1474,"lat":38.47836,"pop":0},{"id":1219343,"name":"Imeni Andreyeva","lon":62.16667,"lat":37.5,"pop":0},{"id":1219344,"name":"Imeni Andreyeva","lon":62.13333,"lat":37.4,"pop":0},{"id":1219345,"name":"Imeni Andreyeva","lon":62.38333,"lat":37.26667,"pop":0},{"id":601701,"name":"Imeni Budënnogo","lon":58.85,"lat":42.4,"pop":0},{"id":1219341,"name":"Imeni Budënnogo","lon":62.05,"lat":37.43333,"pop":0},{"id":601700,"name":"Imeni Chapayeva","alt":["Mantik Ui","Mantyk"],"lon":59.18682,"lat":42.14662,"pop":0},{"id":1219340,"name":"Imeni Chapayeva","lon":62.45886,"lat":36.71678,"pop":0},{"id":601699,"name":"Imeni Chkalova","lon":58.98333,"lat":42.26667,"pop":0},{"id":1219339,"name":"Imeni Chkalova","alt":["Teodzhyan"],"lon":62.88333,"lat":35.95,"pop":0},{"id":1514787,"name":"Imeni Chkalova","lon":60.02359,"lat":41.8405,"pop":0},{"id":1219338,"name":"Imeni Chubina","alt":["Khodzha-Nazar","Kyzyl-Khodzha-Nazar"],"lon":62.47905,"lat":37.06377,"pop":0},{"id":601698,"name":"Imeni Dimitrova","lon":59.88333,"lat":42.2,"pop":0},{"id":161923,"name":"Imeni Dvadtsati Shesti Bakinskikh Komissarov","alt":["Imeni-Bakinshikh Komissarov"],"lon":54.55,"lat":39.76667,"pop":0},{"id":161924,"name":"Imeni Dvadtsati Shesti Bakinskikh Komissarov","alt":["Vyshka","Vyshzha"],"lon":54.16806,"lat":39.34222,"pop":0},{"id":1219336,"name":"Imeni Dzerzhinskogo","lon":60.33333,"lat":37.73333,"pop":0},{"id":1219334,"name":"Imeni Engel’sa","lon":62.15,"lat":37.51667,"pop":0},{"id":601697,"name":"Imeni Gor’kogo","lon":59.4,"lat":42.28333,"pop":0},{"id":1219331,"name":"Imeni Gor’kogo","lon":63.73333,"lat":38.93333,"pop":0},{"id":1219332,"name":"Imeni Gorel’de","alt":["Imeni Gorel'de","Kochev'ye Uchinchi-Kara-Yab","Kochev’yë Uchinchi-Kara-Yab","Moskva"],"lon":61.63267,"lat":37.73975,"pop":0},{"id":1219333,"name":"Imeni Gorel’de","alt":["Gorel'de","Gorel’de","Imeni Gorel'de"],"lon":61.95,"lat":37.63333,"pop":0},{"id":161396,"name":"Imeni Guvancha-Orazava","alt":["Jasman-Salyk","Yasman","Yasman-Salyk","Имени Гуванча-Оразава","Ясман-Салык"],"lon":58.22117,"lat":38.04887,"pop":0},{"id":1219330,"name":"Imeni Il’icha","alt":["Imeni Il'icha","Imeni Lenina","Kyzak","Kyzan"],"lon":63.80833,"lat":38.86222,"pop":0},{"id":1219326,"name":"Imeni Kaganovicha","lon":61.89475,"lat":37.56263,"pop":0},{"id":1219327,"name":"Imeni Kaganovicha","lon":62,"lat":37.55,"pop":0},{"id":1219328,"name":"Imeni Kaganovicha","lon":62.48333,"lat":37.08333,"pop":0},{"id":1219329,"name":"Imeni Kaganovicha","lon":62.71667,"lat":36.05,"pop":0},{"id":161922,"name":"Imeni Kalinina","alt":["Kalinina"],"lon":55.55,"lat":39.43333,"pop":0},{"id":601695,"name":"Imeni Kalinina","lon":59.98333,"lat":42.05,"pop":0},{"id":601696,"name":"Imeni Kalinina","lon":59.76667,"lat":42,"pop":0},{"id":1219314,"name":"Imeni Kalinina","alt":["Siyady"],"lon":63.8,"lat":38.91667,"pop":0},{"id":1219315,"name":"Imeni Kalinina","lon":64.28784,"lat":38.50816,"pop":0},{"id":1219316,"name":"Imeni Kalinina","alt":["Bazar Charshambe","Kommunizm"],"lon":64.2465,"lat":38.42487,"pop":0},{"id":1219317,"name":"Imeni Kalinina","alt":["Chakych","Chakyeh"],"lon":64.22377,"lat":38.4405,"pop":0},{"id":1219318,"name":"Imeni Kalinina","lon":64.25,"lat":38.4,"pop":0},{"id":1219319,"name":"Imeni Kalinina","alt":["Imeni Andreyeva"],"lon":61.70067,"lat":37.79443,"pop":0},{"id":1219320,"name":"Imeni Kalinina","lon":61.69441,"lat":37.61383,"pop":0},{"id":1219321,"name":"Imeni Kalinina","lon":62.41667,"lat":37.58333,"pop":0},{"id":1219322,"name":"Imeni Kalinina","alt":["Baba-Deykhan","Baba-Deykhan Pervyy","Babadaykhan Pervyy","Kochev'ye Baba-Daykhan","Kochev’ye Baba-Daykhan"],"lon":60.48504,"lat":37.61307,"pop":0},{"id":1219323,"name":"Imeni Kalinina","lon":62.45,"lat":37.08333,"pop":0},{"id":1219324,"name":"Imeni Kalinina","alt":["Kyzyl"],"lon":62.46667,"lat":37.03333,"pop":0},{"id":1219325,"name":"Imeni Kalinina","alt":["Aul Kul'dzha","Aul Kul’dzha"],"lon":62.94833,"lat":35.93833,"pop":0},{"id":1219307,"name":"Imeni Karla Marksa","lon":63.62397,"lat":39.00539,"pop":0},{"id":1219308,"name":"Imeni Karla Marksa","lon":63.88063,"lat":38.87285,"pop":0},{"id":1219309,"name":"Imeni Karla Marksa","lon":64.34562,"lat":38.43858,"pop":0},{"id":1219310,"name":"Imeni Karla Marksa","alt":["Pal'bart","Pal'vart","Pal’bart","Pal’vart"],"lon":64.57217,"lat":38.1795,"pop":0},{"id":1219311,"name":"Imeni Karla Marksa","lon":61.91667,"lat":37.58333,"pop":0},{"id":1219312,"name":"Imeni Karla Marksa","alt":["Kara-Akhmet"],"lon":61.93344,"lat":37.4555,"pop":0},{"id":1219313,"name":"Imeni Karla Marksa","lon":62.18333,"lat":37.35,"pop":0},{"id":601694,"name":"Imeni Kirova","lon":59.8,"lat":42.25,"pop":0},{"id":1219301,"name":"Imeni Kirova","alt":["Kabakly-Kurgan","Kavakhly-Kurgan","Kavakly-Kurgan"],"lon":62.52306,"lat":39.815,"pop":0},{"id":1219302,"name":"Imeni Kirova","alt":["Berut"],"lon":64.03763,"lat":38.5837,"pop":0},{"id":1219303,"name":"Imeni Kirova","alt":["Imeni Lenina","Islam"],"lon":64.39968,"lat":38.42807,"pop":0},{"id":1219304,"name":"Imeni Kirova","lon":61.6417,"lat":37.71145,"pop":0},{"id":1219305,"name":"Imeni Kirova","lon":60.46902,"lat":37.47564,"pop":0},{"id":1219306,"name":"Imeni Kirova","lon":63.1,"lat":35.86667,"pop":0},{"id":1514786,"name":"Imeni Kirova","lon":60.03333,"lat":41.78333,"pop":0},{"id":1219299,"name":"Imeni Komsomola","alt":["Bol'shevik","Bol’shevik","Mamash"],"lon":64.42611,"lat":38.36333,"pop":0},{"id":601693,"name":"Imeni Kuybysheva","lon":58.8,"lat":42.4,"pop":0},{"id":1219295,"name":"Imeni Kuybysheva","lon":63.38078,"lat":39.19552,"pop":0},{"id":1219296,"name":"Imeni Kuybysheva","lon":63.50789,"lat":39.10352,"pop":0},{"id":1219297,"name":"Imeni Kuybysheva","alt":["El'mek","El’mek","Yelmek"],"lon":63.75085,"lat":38.97933,"pop":0},{"id":1219298,"name":"Imeni Kuybysheva","alt":["Kuybysheva","Talkhatan-Baba"],"lon":62.15744,"lat":37.40035,"pop":0},{"id":1514785,"name":"Imeni Kuybysheva","lon":60.07539,"lat":41.57624,"pop":0},{"id":161920,"name":"Imeni Lenina","lon":54.85,"lat":38.08333,"pop":0},{"id":601691,"name":"Imeni Lenina","lon":59.71667,"lat":42.08333,"pop":0},{"id":601692,"name":"Imeni Lenina","alt":["Deregli","Derekli"],"lon":59.80606,"lat":41.65742,"pop":0},{"id":1219281,"name":"Imeni Lenina","lon":63.23757,"lat":39.18668,"pop":0},{"id":1219282,"name":"Imeni Lenina","lon":63.83333,"lat":38.81667,"pop":0},{"id":1219283,"name":"Imeni Lenina","alt":["Chokmak"],"lon":64.00968,"lat":38.56386,"pop":0},{"id":1219284,"name":"Imeni Lenina","lon":61.69554,"lat":37.76849,"pop":0},{"id":1219285,"name":"Imeni Lenina","lon":61.71667,"lat":37.75,"pop":0},{"id":1219286,"name":"Imeni Lenina","alt":["Egri Guzar","Leninizm","Yegra-Guzar"],"lon":61.81059,"lat":37.66886,"pop":0},{"id":1219287,"name":"Imeni Lenina","lon":62.03142,"lat":37.66395,"pop":0},{"id":1219288,"name":"Imeni Lenina","lon":62.0951,"lat":37.61424,"pop":0},{"id":1219289,"name":"Imeni Lenina","lon":62.31717,"lat":37.51762,"pop":0},{"id":1219290,"name":"Imeni Lenina","alt":["Kabyl'","Kabyl’","Kyzyl-Koshun"],"lon":62.04239,"lat":37.50327,"pop":0},{"id":1219291,"name":"Imeni Lenina","lon":62.31667,"lat":37.31667,"pop":0},{"id":1219292,"name":"Imeni Lenina","lon":61.25347,"lat":36.45379,"pop":0},{"id":1219293,"name":"Imeni Lenina","lon":62.65,"lat":36.43333,"pop":0},{"id":1219294,"name":"Imeni Lenina","alt":["Dvadtsat' Let Oktyabrya","Dvadtsat’ Let Oktyabrya","Imeni Molotova","Yerden"],"lon":62.77035,"lat":36.00035,"pop":0},{"id":1217241,"name":"Imeni Maksima Gor’kogo","alt":["Imeni Maksima Gor'kogo"],"lon":62.35,"lat":37.6,"pop":0},{"id":1219275,"name":"Imeni Malenkova","lon":63.26667,"lat":39.25,"pop":0},{"id":1219276,"name":"Imeni Malenkova","lon":64.98333,"lat":38.15,"pop":0},{"id":1219277,"name":"Imeni Malenkova","lon":61.9,"lat":37.55,"pop":0},{"id":1219278,"name":"Imeni Malenkova","lon":61.85,"lat":37.53333,"pop":0},{"id":1219279,"name":"Imeni Malenkova","lon":62.23333,"lat":37.2,"pop":0},{"id":601689,"name":"Imeni Mikoyana","lon":59.53333,"lat":42.26667,"pop":0},{"id":601690,"name":"Imeni Mikoyana","lon":59.91667,"lat":42.11667,"pop":0},{"id":161919,"name":"Imeni Molotova","alt":["Molotova"],"lon":54.6,"lat":39.75,"pop":0},{"id":601688,"name":"Imeni Molotova","alt":["Baba-Ishak"],"lon":58.4,"lat":42.26667,"pop":0},{"id":1219264,"name":"Imeni Molotova","lon":63.61667,"lat":39.06667,"pop":0},{"id":1219265,"name":"Imeni Molotova","alt":["Shaalyk"],"lon":64.06667,"lat":38.5,"pop":0},{"id":1219266,"name":"Imeni Molotova","lon":62,"lat":37.7,"pop":0},{"id":1219267,"name":"Imeni Molotova","lon":61.66667,"lat":37.65,"pop":0},{"id":1219268,"name":"Imeni Molotova","lon":62.01667,"lat":37.63333,"pop":0},{"id":1219269,"name":"Imeni Molotova","lon":62.23333,"lat":37.45,"pop":0},{"id":1219270,"name":"Imeni Molotova","lon":62.21667,"lat":37.43333,"pop":0},{"id":1219271,"name":"Imeni Molotova","lon":61.96667,"lat":37.43333,"pop":0},{"id":1219272,"name":"Imeni Molotova","alt":["Allan-Tepe"],"lon":62.4,"lat":37.3,"pop":0},{"id":1219273,"name":"Imeni Molotova","lon":60.44342,"lat":36.90029,"pop":0},{"id":1219274,"name":"Imeni Molotova","lon":62.51667,"lat":36.6,"pop":0},{"id":1219263,"name":"Imeni Ordzhonikidze","lon":62.26667,"lat":37.55,"pop":0},{"id":1219262,"name":"Imeni Poltoratskogo","lon":61.93242,"lat":37.60601,"pop":0},{"id":1219261,"name":"Imeni Revolyutsii","lon":62.65,"lat":36.33333,"pop":0},{"id":1219260,"name":"Imeni Shvernika","lon":62.11667,"lat":37.65,"pop":0},{"id":601686,"name":"Imeni Stakhanova","lon":59,"lat":42.26667,"pop":0},{"id":601687,"name":"Imeni Stakhanova","lon":59.85,"lat":42.2,"pop":0},{"id":1219259,"name":"Imeni Stakhanova","lon":62.4,"lat":37.51667,"pop":0},{"id":601684,"name":"Imeni Stalina","lon":59.46667,"lat":41.98333,"pop":0},{"id":601685,"name":"Imeni Stalina","lon":59.91667,"lat":41.93333,"pop":0},{"id":1219243,"name":"Imeni Stalina","lon":63.28333,"lat":39.21667,"pop":0},{"id":1219244,"name":"Imeni Stalina","alt":["Farab","Iski-Farab"],"lon":63.66667,"lat":39.13333,"pop":0},{"id":1219245,"name":"Imeni Stalina","alt":["Ina-Bek"],"lon":63.71667,"lat":38.9,"pop":0},{"id":1219246,"name":"Imeni Stalina","lon":63.9,"lat":38.75,"pop":0},{"id":1219247,"name":"Imeni Stalina","lon":64.01667,"lat":38.61667,"pop":0},{"id":1219248,"name":"Imeni Stalina","alt":["Yerli"],"lon":64.03333,"lat":38.51667,"pop":0},{"id":1219249,"name":"Imeni Stalina","alt":["Bayat"],"lon":64.35,"lat":38.46667,"pop":0},{"id":1219250,"name":"Imeni Stalina","lon":61.75,"lat":37.73333,"pop":0},{"id":1219251,"name":"Imeni Stalina","lon":61.58333,"lat":37.71667,"pop":0},{"id":1219252,"name":"Imeni Stalina","alt":["Shakhsin-Togolok"],"lon":61.88333,"lat":37.63333,"pop":0},{"id":1219253,"name":"Imeni Stalina","lon":62.16667,"lat":37.5,"pop":0},{"id":1219254,"name":"Imeni Stalina","lon":60.41667,"lat":37.46667,"pop":0},{"id":1219255,"name":"Imeni Stalina","lon":62.25,"lat":37.18333,"pop":0},{"id":1219256,"name":"Imeni Stalina","lon":60.35839,"lat":36.85525,"pop":0},{"id":1219257,"name":"Imeni Stalina","lon":62.53333,"lat":36.58333,"pop":0},{"id":1219258,"name":"Imeni Stalina","alt":["Kizyl"],"lon":62.92417,"lat":35.94861,"pop":0},{"id":601680,"name":"Imeni Tel’mana","lon":58.96667,"lat":42.33333,"pop":0},{"id":601681,"name":"Imeni Tel’mana","lon":59.91667,"lat":42.26667,"pop":0},{"id":601683,"name":"Imeni Tel’mana","lon":59.98333,"lat":41.53333,"pop":0},{"id":1219242,"name":"Imeni Tel’mana","alt":["Imeni Tel'mana","Kosh-Tepe"],"lon":63.74472,"lat":38.88944,"pop":0},{"id":601678,"name":"Imeni Voroshilova","lon":58.83333,"lat":42.36667,"pop":0},{"id":601679,"name":"Imeni Voroshilova","lon":59.98333,"lat":41.91667,"pop":0},{"id":1219232,"name":"Imeni Voroshilova","lon":63.33497,"lat":39.17522,"pop":0},{"id":1219233,"name":"Imeni Voroshilova","lon":63.61667,"lat":39.15,"pop":0},{"id":1219234,"name":"Imeni Voroshilova","alt":["Dzhuma-Bazar"],"lon":64.00242,"lat":38.5434,"pop":0},{"id":1219235,"name":"Imeni Voroshilova","alt":["Kultak"],"lon":64.33071,"lat":38.49126,"pop":0},{"id":1219236,"name":"Imeni Voroshilova","lon":60.18333,"lat":37.81667,"pop":0},{"id":1219237,"name":"Imeni Voroshilova","alt":["Sotsialism"],"lon":60.3,"lat":37.8,"pop":0},{"id":1219238,"name":"Imeni Voroshilova","alt":["Kochev'ye Charykh","Kochev’ye Charykh"],"lon":61.64359,"lat":37.78236,"pop":0},{"id":1219239,"name":"Imeni Voroshilova","alt":["Iyuz"],"lon":62.25,"lat":37.7,"pop":0},{"id":1219240,"name":"Imeni Voroshilova","lon":61.76454,"lat":37.62009,"pop":0},{"id":1219241,"name":"Imeni Voroshilova","lon":62.25,"lat":37.36667,"pop":0},{"id":601677,"name":"Imeni Vyshinskogo","alt":["Oguz"],"lon":59.38333,"lat":41.93333,"pop":0},{"id":601675,"name":"Imeni Zhdanova","lon":59,"lat":42.4,"pop":0},{"id":601676,"name":"Imeni Zhdanova","lon":59.93333,"lat":42.16667,"pop":0},{"id":1219228,"name":"Imeni Zhdanova","lon":63.4637,"lat":39.064,"pop":0},{"id":1219229,"name":"Imeni Zhdanova","lon":64.71787,"lat":38.13038,"pop":0},{"id":1219230,"name":"Imeni Zhdanova","lon":61.72122,"lat":37.66148,"pop":0},{"id":1219231,"name":"Imeni Zhdanova","lon":61.72309,"lat":37.67131,"pop":0},{"id":9199739,"name":"Indzhereva","alt":["Инджерева"],"lon":57.50795,"lat":38.31631,"pop":0},{"id":1219223,"name":"Inkylap","alt":["Inklab"],"lon":61.69478,"lat":37.78771,"pop":0},{"id":1219224,"name":"Inkylap","alt":["Samsyk"],"lon":61.91667,"lat":37.5,"pop":0},{"id":1219225,"name":"Inkylap","alt":["Inklab"],"lon":60.7,"lat":37.21667,"pop":0},{"id":1219219,"name":"Internatsional","lon":64.31139,"lat":38.35056,"pop":0},{"id":1219220,"name":"Internatsional","alt":["Pal'bart","Pal'vart","Pal’bart","Pal’vart"],"lon":64.55326,"lat":38.1879,"pop":0},{"id":1219221,"name":"Internatsional","lon":60.05,"lat":37.23333,"pop":0},{"id":1219222,"name":"Internatsional","lon":63.01667,"lat":35.9,"pop":0},{"id":161914,"name":"Intush","lon":57.46667,"lat":38.4,"pop":0},{"id":8708309,"name":"Inzhar","alt":["Инжар"],"lon":56.7442,"lat":38.3866,"pop":0},{"id":9130132,"name":"Ipaykala","alt":["Ipajkala","Ипайкала"],"lon":57.13609,"lat":38.33891,"pop":0},{"id":601674,"name":"Irikli","alt":["Irkli"],"lon":54.30411,"lat":40.16759,"pop":0},{"id":1219214,"name":"Isamli","lon":64.32806,"lat":38.49083,"pop":0},{"id":12226668,"name":"Işan","alt":["Isan"],"lon":58.13691,"lat":39.32851,"pop":0},{"id":1219202,"name":"Isbaz","alt":["Ispas","Ispaz","Ispos","Ist Pas"],"lon":62.90425,"lat":39.5578,"pop":0},{"id":12226687,"name":"Isgender","lon":55.93178,"lat":39.07946,"pop":0},{"id":601669,"name":"Ishik-Bay","alt":["Ish-Bay","Ishikhbay"],"lon":59.55,"lat":41.91667,"pop":0},{"id":601668,"name":"Iskra","lon":58.95,"lat":42.4,"pop":0},{"id":1219205,"name":"Iskra","lon":61.80731,"lat":37.6197,"pop":0},{"id":1219204,"name":"Islim-Cheshme","lon":62.16676,"lat":35.38262,"pop":0},{"id":12233924,"name":"Işmaltapan","alt":["Ismaltapan"],"lon":60.01403,"lat":41.58844,"pop":0},{"id":601666,"name":"Isrikkala","lon":59.83333,"lat":41.85,"pop":0},{"id":8599724,"name":"Issydepe","lon":60.99857,"lat":36.641,"pop":0},{"id":1219201,"name":"Itbash","lon":65.21667,"lat":37.78333,"pop":0},{"id":161999,"name":"Janahyr","alt":["Dzhanakhir","Dzhanakhyr","Janakhor","Джанахыр"],"lon":56.22742,"lat":38.97276,"pop":0},{"id":601665,"name":"Jangnga","alt":["Dzhanga","Джанга"],"lon":53.11179,"lat":40.01131,"pop":0},{"id":449424,"name":"Jashan","lon":55.56667,"lat":39.68333,"pop":0},{"id":161997,"name":"Jebel","alt":["Dzhebel"],"lon":54.23053,"lat":39.63415,"pop":0},{"id":12226679,"name":"Jemal","lon":56.07843,"lat":39.90457,"pop":0},{"id":12233935,"name":"Jendi","lon":63.6252,"lat":39.14737,"pop":0},{"id":1219433,"name":"Jeýhun","alt":["Dzheykhun","Farab-Pristan'","Farab-Pristan’","Jeyhun"],"lon":63.57718,"lat":39.14729,"pop":0},{"id":12233970,"name":"Jumajyk","lon":61.3698,"lat":35.92498,"pop":0},{"id":1219196,"name":"Kabasakal","lon":65.15,"lat":37.86667,"pop":0},{"id":601663,"name":"Kabyl","alt":["Kabil'","Kabil’"],"lon":53.06667,"lat":40.33333,"pop":0},{"id":161901,"name":"Kaka","alt":["Chaacha","Kaakcha","Kaakhka","Каахка","Кака"],"lon":59.61431,"lat":37.34821,"pop":18545},{"id":161900,"name":"Kala","lon":57,"lat":38.75,"pop":0},{"id":161898,"name":"Kalankui","alt":["Kalan Kuyu"],"lon":55.25,"lat":39.6,"pop":0},{"id":1219177,"name":"Kalyam","lon":65.15,"lat":37.98333,"pop":0},{"id":601659,"name":"Kamyshdzhik","alt":["Aymyr"],"lon":59.33333,"lat":42.25,"pop":0},{"id":161892,"name":"Kanav","lon":55.43333,"lat":39.21667,"pop":0},{"id":1219168,"name":"Kandak","lon":63.46667,"lat":39.26667,"pop":0},{"id":1219161,"name":"Kanshar","lon":65.88333,"lat":37.75,"pop":0},{"id":1219159,"name":"Kapakly","lon":62.51694,"lat":38.70472,"pop":0},{"id":9643013,"name":"Kaplan-Ilerki","alt":["Kaplan-Ilehrki","Каплан-Илэрки"],"lon":58.65644,"lat":38.09762,"pop":0},{"id":161891,"name":"Kaplanli","lon":55.68588,"lat":39.45444,"pop":0},{"id":442596,"name":"Kara-Agach","alt":["Garaagac","Garaagaç","Кара-Агач"],"lon":55.34089,"lat":38.09088,"pop":0},{"id":1219155,"name":"Kara-Agach","lon":66.41667,"lat":37.85,"pop":0},{"id":1219152,"name":"Kara-Bashlyk","lon":64.41667,"lat":38.26667,"pop":0},{"id":1219144,"name":"Kara-Boyen","lon":62.83333,"lat":35.93333,"pop":0},{"id":1219137,"name":"Kara-Chapan","lon":61.6,"lat":37.96667,"pop":0},{"id":161879,"name":"Kara-Dzhin","alt":["Kara-Dzhik"],"lon":56.41667,"lat":38.38333,"pop":0},{"id":161873,"name":"Kara-Govok","alt":["Kora-Govok"],"lon":56.63333,"lat":38.6,"pop":0},{"id":161869,"name":"Kara-Kala","lon":56.73333,"lat":38.56667,"pop":0},{"id":1219108,"name":"Kara-Kuli","lon":63.66667,"lat":39.03333,"pop":0},{"id":601645,"name":"Kara-Nuri","alt":["Kara-Kuri"],"lon":59.65,"lat":42.2,"pop":0},{"id":601642,"name":"Kara-Sukut","lon":52.81667,"lat":41.48333,"pop":0},{"id":1219080,"name":"Kara-Tepe","lon":62.28333,"lat":35.26667,"pop":0},{"id":1219071,"name":"Kara-Vakil’ Pervyy","alt":["Kara-Vakil' Pervyy","Karavikil' Pervyy","Karavikil’ Pervyy"],"lon":60.35,"lat":37.88333,"pop":0},{"id":1219070,"name":"Kara-Vakil’ Vtoroy","alt":["Kara-Vakil' Vtoroy","Karavikil' Vtory","Karavikil’ Vtory"],"lon":60.35,"lat":37.75,"pop":0},{"id":1219069,"name":"Kara-Yab Pervyy","lon":61.86667,"lat":37.68333,"pop":0},{"id":1219068,"name":"Kara-Yab Tretiy","lon":61.65,"lat":37.73333,"pop":0},{"id":1219067,"name":"Kara-Yab Vtoroy","lon":61.75,"lat":37.66667,"pop":0},{"id":161890,"name":"Karaadzhi","lon":58.5,"lat":38.91667,"pop":0},{"id":1219154,"name":"Karaba-Akhun","lon":61.81667,"lat":37.51667,"pop":0},{"id":601655,"name":"Karabagadzhe","alt":["Karabagadzha"],"lon":57.58333,"lat":40.05,"pop":0},{"id":161887,"name":"Karabakshi","lon":57.36667,"lat":39.2,"pop":0},{"id":1219148,"name":"Karabekaul","lon":64.15149,"lat":38.48457,"pop":0},{"id":8734815,"name":"Karabugra","alt":["Карабугра"],"lon":56.67938,"lat":38.67944,"pop":0},{"id":1219143,"name":"Karabulak","lon":66.35286,"lat":37.60804,"pop":0},{"id":161854,"name":"Karadamak","alt":["Karatamak","Karatomak","Карадамак"],"lon":58.37027,"lat":37.90369,"pop":0},{"id":601652,"name":"Karadashli","lon":59.78333,"lat":41.98333,"pop":0},{"id":161882,"name":"Karadepe","lon":54.58333,"lat":39.28333,"pop":0},{"id":1219132,"name":"Karadzha","lon":64.66667,"lat":38.25,"pop":0},{"id":1219133,"name":"Karadzha","lon":62.06667,"lat":37.66667,"pop":0},{"id":601651,"name":"Karadzhary","lon":53.98333,"lat":41.83333,"pop":0},{"id":161875,"name":"Karagëz","lon":55.41667,"lat":38.95,"pop":0},{"id":9180944,"name":"Karagyl’","alt":["Karagyl'","Карагыль"],"lon":57.18715,"lat":38.52189,"pop":0},{"id":410590,"name":"Karakhandere","alt":["Карахандере"],"lon":58.4709,"lat":37.79707,"pop":0},{"id":1475426,"name":"Karakhauz","lon":65.80237,"lat":37.57165,"pop":0},{"id":601649,"name":"Karakhodzha","lon":59.48333,"lat":41.9,"pop":0},{"id":1219120,"name":"Karakhodzha","lon":63.05,"lat":39.26667,"pop":0},{"id":1219114,"name":"Karakongur","alt":["Kara-Kungur","Kara-Nungur"],"lon":60.33333,"lat":37.63333,"pop":0},{"id":1219110,"name":"Karakul’","lon":62.76667,"lat":36.65,"pop":0},{"id":1219101,"name":"Karamakhmud","lon":63.7232,"lat":38.93333,"pop":0},{"id":1219099,"name":"Karaman","alt":["Karaman Pervyy"],"lon":61.20421,"lat":36.51571,"pop":0},{"id":410558,"name":"Karanki","alt":["Каранки"],"lon":58.31043,"lat":37.83439,"pop":0},{"id":1219086,"name":"Kararyk","alt":["Kyrarak"],"lon":63.68333,"lat":38.96667,"pop":0},{"id":161857,"name":"Karasengir","alt":["Kara-Singer"],"lon":56.61667,"lat":38.95,"pop":0},{"id":8738652,"name":"Karatan","alt":["Каратан"],"lon":59.65628,"lat":37.33205,"pop":0},{"id":1219081,"name":"Karatekyan","alt":["Karategyan"],"lon":60.30284,"lat":36.85683,"pop":0},{"id":1219077,"name":"Karaul","lon":63.5,"lat":39.03333,"pop":0},{"id":1219073,"name":"Karaul-Kuyu","lon":63.33333,"lat":38.75,"pop":0},{"id":601638,"name":"Karaulak","lon":59.76772,"lat":41.63188,"pop":0},{"id":12233969,"name":"Käriz","alt":["Kariz"],"lon":61.35979,"lat":35.99188,"pop":0},{"id":1219061,"name":"Karkin","lon":63.86222,"lat":38.80083,"pop":0},{"id":1219062,"name":"Karkin","lon":64.98333,"lat":37.98333,"pop":0},{"id":1219058,"name":"Karkinadzhi","lon":63.7,"lat":38.48333,"pop":0},{"id":161849,"name":"Karnas","lon":56.01667,"lat":38.13333,"pop":0},{"id":1219053,"name":"Karnas","lon":64.56667,"lat":38.26667,"pop":0},{"id":1219054,"name":"Karnas","lon":65.93938,"lat":37.52058,"pop":0},{"id":1219052,"name":"Karry Bent","alt":["Kary-Bent"],"lon":60.68333,"lat":37.21667,"pop":0},{"id":161848,"name":"Karry-Cherlya","lon":58.93333,"lat":38.71667,"pop":0},{"id":161867,"name":"Karrykyariz","alt":["Kara-Ker","Karrykjariz","Каррыкяриз"],"lon":57.81066,"lat":38.21904,"pop":0},{"id":601637,"name":"Karshi","alt":["Карши"],"lon":52.85609,"lat":40.72165,"pop":0},{"id":1219047,"name":"Kary-Khodzha-Ata","alt":["Kary-Khodzha"],"lon":63.11667,"lat":39.23333,"pop":0},{"id":1219041,"name":"Kashgarskiy","alt":["Kashtarskiy"],"lon":62.28333,"lat":37.48333,"pop":0},{"id":8755560,"name":"Kasy","alt":["Gysy","Касы"],"lon":58.95002,"lat":38.00909,"pop":0},{"id":1219036,"name":"Kata-kara-Tut","alt":["Kara-Tut"],"lon":63.45,"lat":39.16667,"pop":0},{"id":1219033,"name":"Katta-Sopiyab","lon":63.15,"lat":39.23333,"pop":0},{"id":1219030,"name":"Kausy","lon":65.4,"lat":37.73333,"pop":0},{"id":1219028,"name":"Kayli","alt":["Kochev'ye Kayli","Kochev’ye Kayli"],"lon":60.13333,"lat":37.91667,"pop":0},{"id":161839,"name":"Kayrayuz","alt":["Gayrayuz"],"lon":53.18639,"lat":39.53778,"pop":0},{"id":8709899,"name":"Kaytpuli","alt":["Kajtpuli","Кайтпули"],"lon":56.70053,"lat":38.57616,"pop":0},{"id":161838,"name":"Kazandzhi","lon":56.8,"lat":38.7,"pop":0},{"id":1475427,"name":"Kazarma","lon":65.93487,"lat":37.79059,"pop":0},{"id":1475439,"name":"Kazarma","lon":65.53302,"lat":37.70692,"pop":0},{"id":161835,"name":"Kazy","lon":57.49795,"lat":39.21869,"pop":0},{"id":1219026,"name":"Kazylyar","alt":["Kochev'ye Kozylyar","Kochev’ye Kozylyar"],"lon":60.21667,"lat":37.5,"pop":0},{"id":12233944,"name":"Kekreli","lon":64.00392,"lat":38.54187,"pop":0},{"id":9199749,"name":"Kel’","alt":["Kel'","Кель"],"lon":57.40691,"lat":38.48507,"pop":0},{"id":1219022,"name":"Kel’-Bash","lon":64.5,"lat":38.28333,"pop":0},{"id":8599726,"name":"Kël’khauz","alt":["Kel'khauz"],"lon":60.79681,"lat":36.67133,"pop":0},{"id":1219011,"name":"Kel’teshor","lon":64.48333,"lat":37.76667,"pop":0},{"id":161825,"name":"Keledzhar","alt":["Keladzhar","Keleyazhar","Kelyazyar","Келеджар"],"lon":58.04961,"lat":38.09477,"pop":0},{"id":601629,"name":"Keleli Vtoroy","alt":["Dauda","Davdan","Kel'dy","Kel’dy"],"lon":59.94876,"lat":41.71423,"pop":0},{"id":1219017,"name":"Kelif","alt":["Keleft","Келиф"],"lon":66.30998,"lat":37.36118,"pop":0},{"id":1219008,"name":"Kelyadzhi","lon":62.05,"lat":38.36667,"pop":0},{"id":161826,"name":"Kelyata","alt":["Keljata","Kepyata","Kolyata","Келята"],"lon":57.70278,"lat":38.28568,"pop":0},{"id":12226651,"name":"Kenar","lon":53.07121,"lat":40.00317,"pop":0},{"id":601627,"name":"Kepekli","lon":59.41667,"lat":41.9,"pop":0},{"id":8701627,"name":"Kergeli","alt":["Кергели"],"lon":56.8384,"lat":38.24004,"pop":0},{"id":601626,"name":"Kergochemen","lon":59.5,"lat":41.85,"pop":0},{"id":1219002,"name":"Kerki","alt":["Atamurat","Atamyrat","KEA","Qarki","Qārki","Zamm","atamulateu","ke er ji","keruki","krky","Κέρκι","Атамырат","Керки","Керкі","کرکی","ケルキ","克爾基","아타무라트"],"lon":65.21058,"lat":37.83573,"pop":33242},{"id":1219001,"name":"Kerki-Aryk","lon":65.21667,"lat":37.91667,"pop":0},{"id":1219000,"name":"Kerkiçi","alt":["Keikchi","Kerkichi","Kerkici"],"lon":65.2379,"lat":37.85359,"pop":0},{"id":12233925,"name":"Kerpiçli","alt":["Kerpicli"],"lon":61.05451,"lat":40.0528,"pop":0},{"id":161813,"name":"Kert-Yakha","alt":["Sevrny"],"lon":53.2,"lat":39.51667,"pop":0},{"id":601624,"name":"Keseklik","lon":58.63333,"lat":42.58333,"pop":0},{"id":161808,"name":"Keshi","alt":["Кеши"],"lon":58.33857,"lat":37.96551,"pop":0},{"id":1218992,"name":"Keske","lon":62.7,"lat":37.8,"pop":0},{"id":1218990,"name":"Kessyr","lon":65.13333,"lat":37.98333,"pop":0},{"id":12226643,"name":"Ketgenli","lon":59.21528,"lat":42.11716,"pop":0},{"id":161806,"name":"Keyikkodana","alt":["Key-Kodona","Key-Kodozh"],"lon":56.21911,"lat":38.15323,"pop":0},{"id":1218946,"name":"Khadzhibulan","alt":["Khodzha-Bulak","Khodzha-Bulan"],"lon":60.11075,"lat":37.01232,"pop":0},{"id":1218938,"name":"Khadzhikaraul","alt":["Khodzha-Karaul"],"lon":66.37149,"lat":37.74669,"pop":0},{"id":1218984,"name":"Khalil’-Bukry","lon":62.01667,"lat":37.66667,"pop":0},{"id":1218982,"name":"Khalyal’chilim","alt":["Khalyal'chilim"],"lon":61.2,"lat":36.45,"pop":0},{"id":601623,"name":"Khamay","lon":59.66917,"lat":42.08718,"pop":0},{"id":1218979,"name":"Khandak","lon":63.48333,"lat":39.25,"pop":0},{"id":1218980,"name":"Khandak","lon":63.45,"lat":39.18333,"pop":0},{"id":1218978,"name":"Khandakli","lon":63.30409,"lat":39.18143,"pop":0},{"id":161800,"name":"Khankyariz","alt":["Khan-Kyariz","Khankjariz","Ханкяриз"],"lon":57.6,"lat":38.30693,"pop":0},{"id":1218969,"name":"Khar-Bala","lon":63.36667,"lat":39.16667,"pop":0},{"id":161799,"name":"Khasar-Kala","lon":59.39236,"lat":37.43755,"pop":0},{"id":1218965,"name":"Khasyn","alt":["Khassyn"],"lon":60.43333,"lat":37.53333,"pop":0},{"id":1218963,"name":"Khatab","alt":["Chamakchi"],"lon":65.48311,"lat":37.72323,"pop":0},{"id":1218964,"name":"Khatab","alt":["Khatap"],"lon":65.52889,"lat":37.62336,"pop":0},{"id":161793,"name":"Kheleulen","lon":56.46667,"lat":39.5,"pop":0},{"id":601621,"name":"Khellen","lon":59.91667,"lat":41.83333,"pop":0},{"id":1218951,"name":"Khilak","lon":62.43333,"lat":38.05,"pop":0},{"id":161789,"name":"Khivabad","alt":["Khiva-Abad","Khiveabad"],"lon":59.55286,"lat":37.19095,"pop":0},{"id":8738653,"name":"Khlopzavod","alt":["Хлопзавод"],"lon":59.63381,"lat":37.32552,"pop":0},{"id":1218947,"name":"Khodzha-Ali","lon":62.88333,"lat":35.96667,"pop":0},{"id":1218941,"name":"Khodzha-Irat","lon":66.48333,"lat":37.91667,"pop":0},{"id":1218923,"name":"Khodzha-Mrasan","lon":63.58333,"lat":39.05,"pop":0},{"id":410617,"name":"Khodzhadere","alt":["Ходжадере"],"lon":58.47616,"lat":37.77733,"pop":0},{"id":161787,"name":"Khodzhaguyma","alt":["Khodzha-Kuyma","Khodzhi-Kuyma"],"lon":56.06667,"lat":39.36667,"pop":0},{"id":161786,"name":"Khodzhakala","alt":["Khoja-Kala","Ходжакала"],"lon":59.52194,"lat":37.42219,"pop":0},{"id":1218940,"name":"Khodzhakala","lon":63.43333,"lat":39.13333,"pop":0},{"id":1218939,"name":"Khodzhakaraul","lon":66.35,"lat":37.75,"pop":0},{"id":1218933,"name":"Khodzhakishlak","lon":66.369,"lat":37.59549,"pop":0},{"id":601620,"name":"Khodzhakumbet","alt":["Khodzha-Gumbez","Khodzha-Kumbez","Khodzhakumbet Vtoroy"],"lon":59.84784,"lat":41.68131,"pop":0},{"id":1218925,"name":"Khodzhameshed","lon":63.56667,"lat":39.01667,"pop":0},{"id":1218921,"name":"Khodzhara","lon":63.64583,"lat":39.03361,"pop":0},{"id":601618,"name":"Khodzhasu","alt":["Khadzhi-Su"],"lon":54.63333,"lat":41.16667,"pop":0},{"id":8600350,"name":"Khorkhorstroy","lon":61.32305,"lat":36.48187,"pop":0},{"id":161776,"name":"Khorodzhokh-Kala","lon":58.1,"lat":38.1,"pop":0},{"id":161775,"name":"Khoudandzhik","lon":56.5,"lat":38.78333,"pop":0},{"id":1218913,"name":"Khozarek","lon":63.71667,"lat":38.9,"pop":0},{"id":1218912,"name":"Khudayberdy","lon":64.83333,"lat":38.4,"pop":0},{"id":601617,"name":"Kianly","alt":["Kiyanly","Kochevka Keinli","Kochevka Keinly"],"lon":52.75638,"lat":40.19801,"pop":0},{"id":1218899,"name":"Kiçiaga","alt":["Kichaga Pervaya","Kichi-Aga Pervaya","Kichiaga","Kichiaga Pervyy","Kichiga Pervaya","Kiciaga"],"lon":61.22767,"lat":36.54922,"pop":0},{"id":12226683,"name":"Kiçijikýazy","alt":["Kicijikyazy"],"lon":55.25448,"lat":39.73017,"pop":0},{"id":1218896,"name":"Kiikchi","lon":65.28333,"lat":37.85,"pop":0},{"id":161771,"name":"Kirpichli","lon":57.4,"lat":39.4,"pop":0},{"id":12233922,"name":"Kirpiçli","alt":["Kirpicli"],"lon":59.89693,"lat":41.60926,"pop":0},{"id":161770,"name":"Kirpili","lon":57.23333,"lat":39.58333,"pop":0},{"id":12226628,"name":"Kirşenoy","alt":["Kirsenoy"],"lon":58.89447,"lat":42.3886,"pop":0},{"id":1218891,"name":"Kishtivan","alt":["Kyshtuvan"],"lon":63.55,"lat":39.1,"pop":0},{"id":9643349,"name":"Kissikburun","alt":["Киссикбурун"],"lon":58.47998,"lat":38.02312,"pop":0},{"id":8999647,"name":"Kizilgoz","alt":["Кизилгоз"],"lon":58.66601,"lat":37.96729,"pop":0},{"id":1218888,"name":"Kizyl-Ayak","alt":["Kizil-Ayak","Kizyldzha","Kyzyl Ayak"],"lon":65.32157,"lat":37.66851,"pop":0},{"id":161761,"name":"Kizyl-Cherek","lon":56.04237,"lat":38.14565,"pop":0},{"id":1218885,"name":"Kizyl-Ishchi","alt":["Kyzyl-Ishchi"],"lon":60.28333,"lat":37.53333,"pop":0},{"id":1218884,"name":"Kizyl-Murad","lon":62.88333,"lat":35.93333,"pop":0},{"id":161755,"name":"Kizyl-Oktyabr’","alt":["Kizyl-Oktyabr'"],"lon":58.35,"lat":38.1,"pop":0},{"id":1218882,"name":"Kizyl-Turkmenistan","alt":["Khargali"],"lon":65.30882,"lat":37.78549,"pop":0},{"id":1218868,"name":"Kokmiyar","lon":66.14167,"lat":38.025,"pop":0},{"id":1219335,"name":"Kolkhoz Imeni Engel’sa","alt":["Bayrach","Imeni Engel'sa","Imeni Engel’sa","Kolkhoz Imeni Engel'sa"],"lon":62.86833,"lat":35.98763,"pop":0},{"id":7026803,"name":"Kolkhoz Imeni Lenina","lon":62.77381,"lat":35.99453,"pop":0},{"id":1475107,"name":"Kolkhozabag","lon":66.3136,"lat":37.40795,"pop":0},{"id":1219839,"name":"Kolodets Attadzhan","lon":61.73333,"lat":37.16667,"pop":0},{"id":7042121,"name":"Kolodets Tezekuy","lon":62.22404,"lat":35.64383,"pop":0},{"id":11249378,"name":"Komarovka","alt":["Комаровка"],"lon":58.5419,"lat":37.73309,"pop":0},{"id":8999964,"name":"Komarovskiy","alt":["Komarovskij","Комаровский"],"lon":58.5475,"lat":37.75184,"pop":0},{"id":12226672,"name":"Kömek","alt":["Komek"],"lon":58.09782,"lat":39.53143,"pop":0},{"id":601612,"name":"Kommuna","lon":59.82424,"lat":41.58371,"pop":0},{"id":1218862,"name":"Kommuna","lon":60.55238,"lat":37.49521,"pop":0},{"id":1218863,"name":"Kommuna","lon":60.56667,"lat":37.46667,"pop":0},{"id":1218859,"name":"Kommunist","alt":["Bekauli-Teki"],"lon":64.10889,"lat":38.48139,"pop":0},{"id":1218860,"name":"Kommunist","lon":61.81315,"lat":37.58474,"pop":0},{"id":601610,"name":"Kommunizm","lon":59.56667,"lat":42.05,"pop":0},{"id":601611,"name":"Kommunizm","lon":59.63333,"lat":41.91667,"pop":0},{"id":1218854,"name":"Kommunizm","alt":["Umar"],"lon":65.10399,"lat":37.92786,"pop":0},{"id":1218855,"name":"Kommunizm","alt":["Kommuna"],"lon":60.31177,"lat":37.64588,"pop":0},{"id":1218856,"name":"Kommunizm","alt":["Amansha","Anansha"],"lon":61.92482,"lat":37.61185,"pop":0},{"id":1218857,"name":"Kommunizm","alt":["Khuzeye-Beden"],"lon":62.23189,"lat":37.51515,"pop":0},{"id":1218858,"name":"Kommunizm","lon":63.0805,"lat":35.87779,"pop":0},{"id":1514773,"name":"Kommunizm","lon":60.10893,"lat":41.82711,"pop":0},{"id":601609,"name":"Komsomol","alt":["Burkut"],"lon":59.53554,"lat":42.16114,"pop":0},{"id":1218852,"name":"Komsomol","alt":["Yel-Bars"],"lon":62.09627,"lat":37.46986,"pop":0},{"id":1218853,"name":"Komsomol","lon":60.4349,"lat":37.39188,"pop":0},{"id":8739233,"name":"Komsomol","alt":["Комсомол"],"lon":59.6094,"lat":37.35438,"pop":0},{"id":1218851,"name":"Komsomol’sk","alt":["Charjui","Chārjūi","Kaganovichesk","Komsomol'sk","Staryy Chardzhuy"],"lon":63.59583,"lat":39.03417,"pop":0},{"id":161745,"name":"Kone-Borme","alt":["Kene-Beurme","Kjone-Beurme","Kone-Berme","Këne-Beurme","Кёне-Беурме"],"lon":56.96706,"lat":38.64247,"pop":0},{"id":161820,"name":"Könekesir","alt":["Kenekesir","Kenekesyr","Koinya-Kasyr","Konekesir","Koynya-Kasyr","Kënekesir","Kënekesyr"],"lon":56.92502,"lat":38.21935,"pop":0},{"id":601608,"name":"Köneürgench","alt":["Koeneuergenc","Koneurgench","Konye-Urgench","Kounia-Ourguentch","Kuhna Gurganj","Kuhna Gurgānj","Kunja-Urgench","Kunja-Urgentj","Kunya-Urgen","Kunya-Urgench","Köneürgenç","khnh‌grganj","kone-uleugenchi","Куня-Ургенч","کهنه‌گرگانج","코네우르겐치"],"lon":59.15442,"lat":42.32773,"pop":30000},{"id":1218846,"name":"Kopak-Chalak","lon":63.45,"lat":39.11667,"pop":0},{"id":8999374,"name":"Kopetdag","alt":["Копетдаг"],"lon":57.80392,"lat":38.25614,"pop":0},{"id":12226637,"name":"Körgala","alt":["Korgala"],"lon":59.16009,"lat":42.49948,"pop":0},{"id":12233955,"name":"Körkak","alt":["Korkak"],"lon":65.71656,"lat":38.01773,"pop":0},{"id":161737,"name":"Koshagyr","lon":54.60021,"lat":39.79658,"pop":0},{"id":161736,"name":"Koshakak","lon":57.78785,"lat":38.80095,"pop":0},{"id":601604,"name":"Koshanda","alt":["Koshadzha","Koshakda","Kozhandy"],"lon":59.36667,"lat":42.2,"pop":0},{"id":161733,"name":"Koshkin","lon":53.15,"lat":39.45,"pop":0},{"id":161732,"name":"Koshtemir","alt":["Koshdemir","Кошдемир"],"lon":56.68143,"lat":38.42529,"pop":0},{"id":161730,"name":"Koyno-Kumbez","alt":["Kene-Kumbez","Kjone-Kumbez","Këne-Kumbez","Кёне-Кумбез"],"lon":56.95922,"lat":38.3868,"pop":0},{"id":11244798,"name":"Köýten","alt":["Koeyten","Koyten"],"lon":66.47937,"lat":37.91401,"pop":0},{"id":1219647,"name":"Koytendag","alt":["Carsanny","Charshanga","Charshangngy","Charshangu","Charshangy","Tscharschanga","Çarşaňňy"],"lon":66.01358,"lat":37.509,"pop":0},{"id":1218825,"name":"Kozelkovskiy","lon":62.16667,"lat":37.51667,"pop":0},{"id":1218824,"name":"Kozhe","lon":60.08333,"lat":37.95,"pop":0},{"id":1218822,"name":"Krach","lon":63.40306,"lat":39.29528,"pop":0},{"id":1218819,"name":"Krasnoye Znamya","alt":["Krasnoye Zunamya"],"lon":62.47738,"lat":36.84339,"pop":0},{"id":1218820,"name":"Krasnoye Znamya","lon":62.5,"lat":36.96667,"pop":0},{"id":1218818,"name":"Krasnyy Oktyabr’","lon":62.34888,"lat":37.39594,"pop":0},{"id":1218817,"name":"Krasnyy Turkmenistan","lon":65.36667,"lat":37.7,"pop":0},{"id":1218816,"name":"Krestovskiy","lon":62.23333,"lat":37.46667,"pop":0},{"id":1218813,"name":"Kuchuk","lon":60.51667,"lat":37.43333,"pop":0},{"id":161720,"name":"Kui-Dzhuk","lon":53.86667,"lat":37.7,"pop":0},{"id":12226676,"name":"Kükürtli","alt":["Kukurtli"],"lon":58.82871,"lat":39.98805,"pop":0},{"id":1218801,"name":"Kul’dzha","lon":63.11667,"lat":35.78333,"pop":0},{"id":1218793,"name":"Kul’tura","alt":["Bakauli","Bekauli","Imeni Kalinina","Kul'tura"],"lon":64.25319,"lat":38.52466,"pop":0},{"id":1218794,"name":"Kul’tura","alt":["Aul-Alnysh","Imeni Malenkova","Kul'tura"],"lon":62.33333,"lat":37.31667,"pop":0},{"id":1218807,"name":"Kulanbay","lon":62.63944,"lat":36.88333,"pop":0},{"id":1218806,"name":"Kulandzhi","lon":63.03333,"lat":39.3,"pop":0},{"id":1218805,"name":"Kularyk","lon":64.06194,"lat":38.56694,"pop":0},{"id":1218804,"name":"Kulayanchi","lon":63.77972,"lat":38.975,"pop":0},{"id":12233930,"name":"Kulyýewa Adyndaky","alt":["Kulyyewa Adyndaky"],"lon":62.93833,"lat":39.36314,"pop":0},{"id":12233983,"name":"Kümeli","alt":["Kumeli"],"lon":59.43549,"lat":38.7689,"pop":0},{"id":1218787,"name":"Kumpete","lon":66.115,"lat":37.46543,"pop":0},{"id":601582,"name":"Kunya-Yarmysh","lon":59.85,"lat":41.88333,"pop":0},{"id":601581,"name":"Kupakli","alt":["Kopekli"],"lon":59.5,"lat":41.8,"pop":0},{"id":1218775,"name":"Kuraish","alt":["Kurashi"],"lon":64.35444,"lat":38.47389,"pop":0},{"id":1218776,"name":"Kuraish","lon":64.2,"lat":38.45,"pop":0},{"id":1218771,"name":"Kurbanek","lon":60.1,"lat":37.53333,"pop":0},{"id":161713,"name":"Kurbanseyid","lon":54.74773,"lat":38.13578,"pop":0},{"id":1218765,"name":"Kurdzhukly","alt":["Kurdzhukli"],"lon":62.4,"lat":37.23333,"pop":0},{"id":1218763,"name":"Kurgunuk","alt":["Kurgundzh"],"lon":60.05,"lat":37.56667,"pop":0},{"id":1475181,"name":"Kurlugun","lon":65.08578,"lat":37.32408,"pop":0},{"id":161707,"name":"Kursagir","alt":["Imeni Politotdela","Kersagyr","Kërsagyr","Курсагир"],"lon":57.94868,"lat":38.19902,"pop":0},{"id":161704,"name":"Kurtli","alt":["Kurtile","Куртли"],"lon":58.31827,"lat":37.98818,"pop":0},{"id":410584,"name":"Kurtusu","alt":["Куртусу"],"lon":58.38463,"lat":37.74066,"pop":0},{"id":1218748,"name":"Kuruksay","lon":66.3,"lat":37.68333,"pop":0},{"id":161701,"name":"Kuruždeý","alt":["Kuruzdey","Kuruzhdey"],"lon":56.74191,"lat":38.34273,"pop":0},{"id":161723,"name":"Kurychay","alt":["Kruchay","Kurychaj","Курычай"],"lon":57.30801,"lat":38.43961,"pop":0},{"id":601573,"name":"Kushbegi","lon":59.31667,"lat":42,"pop":0},{"id":1218745,"name":"Kushchi","lon":63.83333,"lat":38.91667,"pop":0},{"id":1218746,"name":"Kushchi","alt":["Kushi"],"lon":63.83778,"lat":38.89806,"pop":0},{"id":1215646,"name":"Kushka","alt":["Krepost' Kushka","Krepost’ Kushka"],"lon":62.33333,"lat":35.26667,"pop":0},{"id":1218736,"name":"Kuvak","lon":65.58333,"lat":37.58333,"pop":0},{"id":161691,"name":"Kuylyar","lon":55.53333,"lat":38.81667,"pop":0},{"id":161692,"name":"Kuylyar","lon":54.21667,"lat":37.43333,"pop":0},{"id":8999452,"name":"Kuyuchay","alt":["Kujuchaj","Куючай"],"lon":58.54928,"lat":37.98133,"pop":0},{"id":601570,"name":"Kuyzeshour","alt":["Kuize-Shour"],"lon":54.7,"lat":40.31667,"pop":0},{"id":161690,"name":"Kyal’-Ata","alt":["Kyal'-Ata"],"lon":58.63333,"lat":37.7,"pop":0},{"id":1218727,"name":"Kyal’tayab","lon":63.65111,"lat":38.96222,"pop":0},{"id":1218728,"name":"Kyal’tayab","lon":63.83278,"lat":38.88667,"pop":0},{"id":1218726,"name":"Kyamtor","alt":["Kyamtar"],"lon":63.75,"lat":38.96667,"pop":0},{"id":8599501,"name":"Kyariz","lon":60.32117,"lat":36.97901,"pop":0},{"id":1514771,"name":"Kyrançoba","alt":["Krachli","Kranch","Kyrancoba"],"lon":62.31721,"lat":40.42463,"pop":0},{"id":161686,"name":"Kyrkguýy","alt":["Kyrk-Kuyu","Kyrkguyy","Kyrkkui"],"lon":59.4299,"lat":38.19267,"pop":0},{"id":1218721,"name":"Kyrkuyli","alt":["Kyrk-Uyle"],"lon":65.1,"lat":38.06667,"pop":0},{"id":161683,"name":"Kyurenkala","alt":["Kjurenkala","Кюренкала"],"lon":59.34967,"lat":37.5405,"pop":0},{"id":1475438,"name":"Kyzyl-Daykhan","lon":65.43641,"lat":37.72659,"pop":0},{"id":1218707,"name":"Kyzyl-Guch","lon":63.56667,"lat":39.23333,"pop":0},{"id":410785,"name":"Kyzylay","lon":54.75722,"lat":37.69028,"pop":0},{"id":1218715,"name":"Kyzylbayda","lon":61.96667,"lat":37.53333,"pop":0},{"id":601565,"name":"Kyzylbaydak","alt":["Imeni Voroshilova"],"lon":59.43333,"lat":42.1,"pop":0},{"id":1218714,"name":"Kyzylbaydak","lon":62.09062,"lat":37.69707,"pop":0},{"id":8735174,"name":"Kyzylburch","alt":["Кызылбурч"],"lon":56.77698,"lat":38.71977,"pop":0},{"id":1218712,"name":"Kyzylcharva","lon":60.25,"lat":37.9,"pop":0},{"id":1218711,"name":"Kyzyldaykhan","alt":["Imeni Voroshilova","Medzheur"],"lon":62.23333,"lat":37.71667,"pop":0},{"id":601564,"name":"Kyzylgar","alt":["Kyzylkyr"],"lon":58.38333,"lat":40.2,"pop":0},{"id":601563,"name":"Kyzylgyuych","lon":58.83333,"lat":42.43333,"pop":0},{"id":1218706,"name":"Kyzylkasyl","alt":["Saarly","Sarli"],"lon":64.05255,"lat":38.54841,"pop":0},{"id":1218704,"name":"Kyzylkoshun","alt":["Chakyr","Dushame-Chakyr"],"lon":64.66667,"lat":38.13333,"pop":0},{"id":601561,"name":"Kyzylkumbet","lon":58.81436,"lat":42.46004,"pop":0},{"id":601560,"name":"Kyzylkup","alt":["Kizil Kup","Kizyl-Kup"],"lon":53.96667,"lat":40.63333,"pop":0},{"id":1218700,"name":"Kyzylpildyz","lon":62.46667,"lat":37.03333,"pop":0},{"id":601558,"name":"Kyzylshark","lon":58.97966,"lat":42.4247,"pop":0},{"id":1218699,"name":"Kyzyltayak","lon":60.15,"lat":37.81667,"pop":0},{"id":1218697,"name":"Kyzylyyldyz","alt":["Imeni Stalina"],"lon":62.46667,"lat":36.95,"pop":0},{"id":1218695,"name":"Lambe","alt":["Dambe","Lyambe"],"lon":64.03556,"lat":38.58222,"pop":0},{"id":601556,"name":"Lavak","alt":["Pristan' Lavak","Pristan’ Lavak"],"lon":59.68477,"lat":42.15769,"pop":0},{"id":1514768,"name":"Lebap","lon":61.8824,"lat":41.04939,"pop":0},{"id":7027794,"name":"Lekker","lon":63.71362,"lat":36.26796,"pop":0},{"id":601553,"name":"Leningrad","alt":["Anna-Mamed","Anna-Mamet"],"lon":59.7,"lat":41.98333,"pop":0},{"id":601554,"name":"Leningrad","lon":59.97827,"lat":41.62446,"pop":0},{"id":1218690,"name":"Leningrad","alt":["Shor-Tepe"],"lon":62.0466,"lat":37.53549,"pop":0},{"id":11249264,"name":"Leprozoriy","alt":["Leprozorij","Лепрозорий"],"lon":58.82133,"lat":37.74488,"pop":0},{"id":410521,"name":"Lesopitomnik","alt":["Лесопитомник"],"lon":58.31207,"lat":37.92549,"pop":0},{"id":8999915,"name":"Lesopitomnik","alt":["Лесопитомник"],"lon":58.74785,"lat":37.91556,"pop":0},{"id":12233956,"name":"Leýlimekan","alt":["Leylimekan"],"lon":66.3091,"lat":38.02821,"pop":0},{"id":161665,"name":"Madaw","alt":["Madau","Madav","Мадау"],"lon":54.74406,"lat":38.14046,"pop":0},{"id":601548,"name":"Magaryf","alt":["Imeni Stalina","Magarif"],"lon":59.50197,"lat":41.88551,"pop":0},{"id":12233917,"name":"Magtym","lon":59.635,"lat":41.86234,"pop":0},{"id":161980,"name":"Magtymguly","alt":["Garrygala","Kara-Kala","Кара-Кала"],"lon":56.28081,"lat":38.43749,"pop":0},{"id":12233953,"name":"Magtymguly","lon":64.79202,"lat":38.11445,"pop":0},{"id":8999965,"name":"Magtymguly Adyndaky","lon":58.52641,"lat":37.88642,"pop":0},{"id":12233778,"name":"Magtymoý","alt":["Magtymoy"],"lon":59.26893,"lat":42.13355,"pop":0},{"id":1218687,"name":"Makhmaldepe","alt":["Mahmal","Makhmal","Makhmal-Tepe"],"lon":60.2469,"lat":36.96577,"pop":0},{"id":1218685,"name":"Makhmud-Adzhi","lon":62.36667,"lat":37.9,"pop":0},{"id":161663,"name":"Makhtumkala","alt":["Makhtum-Kala","Махтумкала"],"lon":59.41566,"lat":37.38384,"pop":0},{"id":161662,"name":"Makhtym-Kala","alt":["Makhtym","Makhtymkala","Махтымкала"],"lon":56.58802,"lat":38.43181,"pop":0},{"id":1218679,"name":"Malay-Adzhi","lon":62.32778,"lat":36.12,"pop":0},{"id":12233782,"name":"Malaýýap","alt":["Malayyap"],"lon":59.79447,"lat":42.12042,"pop":0},{"id":161660,"name":"Mallarchilyk","lon":58.3,"lat":38.13333,"pop":0},{"id":1218677,"name":"Mamash","lon":64.30937,"lat":38.38757,"pop":0},{"id":1218675,"name":"Mamatay","alt":["Mamatai"],"lon":62.15,"lat":37.36667,"pop":0},{"id":8739507,"name":"Mamedoraz","alt":["Мамедораз"],"lon":59.4619,"lat":37.4614,"pop":0},{"id":12226688,"name":"Mämili","alt":["Mamili"],"lon":56.6482,"lat":39.0539,"pop":0},{"id":161656,"name":"Mämmetýar","alt":["Maemmetyar","Mamed'yar","Mamed’yar"],"lon":58.45301,"lat":38.87761,"pop":0},{"id":1218672,"name":"Mamur","lon":60.38634,"lat":37.81943,"pop":0},{"id":1218648,"name":"Mäne","alt":["Imeni. Atabaeva","Kolkhoz Imeni Kuliyeva","Mane","Meana","Miana"],"lon":60.40577,"lat":36.87384,"pop":0},{"id":12233951,"name":"Maňgyşlaly","alt":["Mangyslaly"],"lon":64.50387,"lat":38.21755,"pop":0},{"id":161654,"name":"Manysh","alt":["Маныш"],"lon":58.60693,"lat":37.72273,"pop":0},{"id":1218669,"name":"Maraniyat","lon":61.75,"lat":37.6,"pop":0},{"id":12233932,"name":"Markuş","alt":["Markus"],"lon":63.50854,"lat":39.10314,"pop":0},{"id":1218668,"name":"Martazi","lon":62.38333,"lat":35.41667,"pop":0},{"id":1218667,"name":"Mary","alt":["MYP","Maras","Margiana","Mari","Mary shaary","Marı","Merv","ma lei","ma ri","mali","mari","maru","mary","mary  trkmanstan","mrw","Мари","Мары","Мары шаары","ماری","ماری، ترکمانستان","مرو","मरी","มารี","მარი","マル","马雷","마리"],"lon":61.83031,"lat":37.59378,"pop":114680},{"id":12233777,"name":"Maslahat","lon":59.4059,"lat":42.27642,"pop":0},{"id":12233918,"name":"Maýabatan","alt":["Mayabatan"],"lon":59.69257,"lat":41.70871,"pop":0},{"id":7041044,"name":"Medes","lon":62.36726,"lat":35.23376,"pop":0},{"id":1218657,"name":"Megejik","alt":["Meagadzhik","Megadzhik","Mesadzhik"],"lon":66.17139,"lat":37.4337,"pop":0},{"id":161648,"name":"Megin","alt":["Mezin-Kala"],"lon":57.7,"lat":38.31667,"pop":0},{"id":1218656,"name":"Mekan","lon":64.57907,"lat":38.27337,"pop":0},{"id":161647,"name":"Mekhinli","alt":["Megeli","Mekhenli","Мегели","Мехинли"],"lon":59.41618,"lat":37.46612,"pop":0},{"id":1218655,"name":"Mekrub","lon":60.08333,"lat":37.98333,"pop":0},{"id":12226663,"name":"Melegoç","alt":["Melegoc"],"lon":56.67133,"lat":40.03455,"pop":0},{"id":161642,"name":"Meshkhed","lon":54.66667,"lat":38.33333,"pop":0},{"id":1476214,"name":"Mirnyý","alt":["Mirnyy"],"lon":62.40035,"lat":35.34176,"pop":0},{"id":1218646,"name":"Mirzabek","lon":65.61222,"lat":37.58694,"pop":0},{"id":12233966,"name":"Miweli","lon":62.51283,"lat":36.59432,"pop":0},{"id":161633,"name":"Modar","lon":57.7734,"lat":39.53864,"pop":0},{"id":161632,"name":"Mollagara","alt":["Kurort Molla-Kara","Mollakara"],"lon":54.18079,"lat":39.62764,"pop":0},{"id":601546,"name":"Monchakly","lon":58.86667,"lat":42.56667,"pop":0},{"id":9958372,"name":"Monjukli Depe","lon":60.41805,"lat":36.84853,"pop":0},{"id":161628,"name":"Monzhukly","lon":54.33333,"lat":39.28333,"pop":0},{"id":161629,"name":"Monzhukly","alt":["Monzhukli"],"lon":55.88333,"lat":38.15,"pop":0},{"id":1218641,"name":"Moor","lon":62.93333,"lat":39.5,"pop":0},{"id":1218640,"name":"Mörgunow","alt":["Morgunovskiy","Morgunow"],"lon":62.39472,"lat":35.29111,"pop":0},{"id":1218639,"name":"Moskovsk","alt":["Boyun-Uzun","Buyun-Uzun"],"lon":63.32015,"lat":39.22353,"pop":0},{"id":601545,"name":"Moskva","lon":59.5,"lat":41.9,"pop":0},{"id":1218635,"name":"Moskva","lon":62.07002,"lat":37.70002,"pop":0},{"id":1218636,"name":"Moskva","lon":61.90608,"lat":37.5135,"pop":0},{"id":1218637,"name":"Moskva","alt":["Yaur-Dulan"],"lon":62.3914,"lat":37.34344,"pop":0},{"id":1218638,"name":"Moskva","lon":62.15919,"lat":37.34682,"pop":0},{"id":1514767,"name":"Moskva","alt":["Ak-Saray"],"lon":60.35279,"lat":41.53624,"pop":0},{"id":1218634,"name":"Moyak","lon":63.1,"lat":39.3,"pop":0},{"id":1218632,"name":"Moyak-Olum","alt":["Mayak-Olum"],"lon":63.11667,"lat":39.28333,"pop":0},{"id":1218631,"name":"Mugal-Bala","lon":63.35,"lat":39.11667,"pop":0},{"id":1218627,"name":"Mukry","lon":65.2,"lat":37.9,"pop":0},{"id":1218628,"name":"Mukry","alt":["Mukri"],"lon":65.51667,"lat":37.65,"pop":0},{"id":1218629,"name":"Mukry","alt":["Mukri"],"lon":65.73813,"lat":37.59768,"pop":0},{"id":1218616,"name":"Muminchandyr","alt":["Chandyr","Mumyn-Chandyr"],"lon":63.15,"lat":39.3,"pop":0},{"id":161623,"name":"Mürçe","alt":["Murce","Murcha","Murche","Murchi","Мурче"],"lon":57.39088,"lat":38.44834,"pop":0},{"id":1218612,"name":"Murgab","alt":["Stalino"],"lon":61.97142,"lat":37.49656,"pop":13199},{"id":1465076,"name":"Murgap","lon":61.97389,"lat":37.49639,"pop":0},{"id":1218645,"name":"Mŭrzeçyrla","alt":["Mirzachirla","Murzecyrla"],"lon":60.04285,"lat":39.58297,"pop":0},{"id":161622,"name":"Naara","alt":["Наара"],"lon":56.35833,"lat":38.44893,"pop":0},{"id":1218599,"name":"Narazym","lon":64.00476,"lat":38.81485,"pop":0},{"id":161612,"name":"Narly","alt":["Nogarli"],"lon":58.66643,"lat":38.28082,"pop":0},{"id":12226624,"name":"Nazarbaýdegiş","alt":["Nazarbaydegis"],"lon":58.81235,"lat":42.21135,"pop":0},{"id":12226648,"name":"Nefes","lon":52.97653,"lat":40.2685,"pop":0},{"id":161614,"name":"Nevtonskiy","alt":["Neftonovskiy","Nestonovskiy","Nevtonovskiy","Nevtonskij","Newtonow","Невтонский"],"lon":58.28692,"lat":37.86852,"pop":0},{"id":1465117,"name":"Nichka","lon":63.88631,"lat":37.64639,"pop":0},{"id":161613,"name":"Niyazdepe","alt":["Neaz-Depe"],"lon":56.82014,"lat":38.94549,"pop":0},{"id":161611,"name":"Nokhur","alt":["Nukhur","Нохур"],"lon":57.03345,"lat":38.47857,"pop":0},{"id":1218595,"name":"Nouruzabad","alt":["Nauraozbad","Nauraoz̄bād","Nauruz-Abad","Now Ruzabad","Now Rūzābād"],"lon":61.20264,"lat":36.26289,"pop":0},{"id":161608,"name":"Nugri","lon":56.9,"lat":38.23333,"pop":0},{"id":601541,"name":"Nugunek","lon":57.36667,"lat":40.45,"pop":0},{"id":1218581,"name":"Nuradzhi","lon":64.41667,"lat":38.36667,"pop":0},{"id":1218580,"name":"Nurali","lon":60.01667,"lat":37.61667,"pop":0},{"id":1218579,"name":"Nurata","alt":["Agdzha-Kala","Agja Kala"],"lon":60.58333,"lat":37.3,"pop":0},