[{"id":6658271,"name":"Abang’an","alt":["A-pang-an","Abang'an","a bang an","阿幫安"],"lon":121.15491,"lat":22.86096,"pop":0},{"id":6650545,"name":"Abaokeng","alt":["A-pao-k'eng","A-pao-k’eng","a bao keng","阿寶坑"],"lon":120.60972,"lat":23.96769,"pop":0},{"id":1678127,"name":"Abaquan","alt":["A-pa-ch'uan","A-pa-ch’üan","Abacyuan","Ch'ing-pu-wei","Ch’ing-pu-wei","Yuan-ch'uan-ts'un","Yüan-ch’üan-ts’un","a ba quan","阿拔泉"],"lon":120.60423,"lat":22.81234,"pop":0},{"id":1679212,"name":"Abaquan","alt":["A-pa-ch'uan","A-pa-ch’üan","Abacyuan","a ba quan","阿拔泉"],"lon":120.60139,"lat":23.52417,"pop":0},{"id":6747150,"name":"Abawan","alt":["A-pa-wan","a ba wan","阿巴灣"],"lon":121.41287,"lat":23.48331,"pop":0},{"id":6646221,"name":"Abawo","alt":["A-pa-wo","a ba wo","阿八窩"],"lon":120.85205,"lat":24.63515,"pop":0},{"id":1991551,"name":"Acunkeng","alt":["A-ts'un-k'eng","A-ts’un-k’eng","a cun keng","阿寸坑"],"lon":120.88708,"lat":24.15959,"pop":0},{"id":1679207,"name":"Adan","alt":["A-tan","a dan","阿丹"],"lon":120.50501,"lat":23.64957,"pop":0},{"id":6652596,"name":"Aduolan","alt":["A-to-lan","a duo lan","阿多蘭"],"lon":121.3775,"lat":23.5626,"pop":0},{"id":1679353,"name":"Afazhuang","alt":["A-fa-chuang","A-fo-chuang","Afajhuang","a fa zhuang","阿法莊"],"lon":120.6675,"lat":23.9553,"pop":0},{"id":6574239,"name":"Ahuawo","alt":["A-hua-wo","a hua wo","阿化窩"],"lon":121.22972,"lat":24.77944,"pop":0},{"id":1679330,"name":"Aiding","alt":["Ai-ting","Ai-ting-li","I-ting","Yai-ting-li","ai ding","隘丁"],"lon":121.8373,"lat":24.6154,"pop":0},{"id":1679329,"name":"Aidingliao","alt":["Ai-ting-liao","Yai-ting-liao","ai ding liao","隘丁寮"],"lon":120.55814,"lat":22.9814,"pop":0},{"id":1679332,"name":"Aiguopu","alt":["Ai-ko-p'u","Ai-ko-p'u-she","Ai-ko-p'u-ts'un","Ai-ko-p’u","Ai-ko-p’u-she","Ai-ko-p’u-ts’un","Ai-kuo-p'u","Ai-kuo-pu","Ai-kuo-p’u","Ai-p'u","Ai-p’u","ai guo pu","愛國浦"],"lon":120.92389,"lat":22.45306,"pop":0},{"id":6640659,"name":"Aijianzi","alt":["Ai-chien-tzu","Ai-lang-tzu","Aijianzih","ai jian zi","矮筧子"],"lon":121.16917,"lat":24.71806,"pop":0},{"id":1679351,"name":"Aijie","alt":["Ai-chieh","Yai-chieh","Yai-chien","ai jie","隘界"],"lon":121.686,"lat":24.7496,"pop":0},{"id":1679350,"name":"Aikou","alt":["Ai-k'ou","Ai-k’ou","Yai-k'ou","Yai-k’ou","ai kou","隘口"],"lon":121.03944,"lat":24.80139,"pop":0},{"id":6600539,"name":"Aikou","alt":["Ai-k'o","Ai-k'ou","Ai-k’o","Ai-k’ou","ai kou","隘口"],"lon":120.93222,"lat":24.7825,"pop":0},{"id":1679349,"name":"Aikouliao","alt":["Ai-k'ou-liao","Ai-k’ou-liao","Yai-k'ou-liao","Yai-k’ou-liao","ai kou liao","隘口寮"],"lon":120.67833,"lat":24.45778,"pop":0},{"id":6574539,"name":"Aikouliao","alt":["Ai-k'ou-liao","Ai-k’ou-liao","ai kou liao","隘口寮"],"lon":121.145,"lat":24.92111,"pop":0},{"id":1665641,"name":"Ailiao","alt":["Ai-liao","Yai-liao","ai liao","隘寮"],"lon":120.63433,"lat":22.7017,"pop":0},{"id":1671442,"name":"Ailiao","alt":["Ai-liao","Nei-liao","Yai-liao","ai liao","隘寮"],"lon":120.61901,"lat":22.85705,"pop":0},{"id":1679327,"name":"Ailiao","alt":["Ai-liao","Ai-t'un","Ai-t’un","Yai-liao","ai liao","隘寮"],"lon":120.71288,"lat":23.97824,"pop":0},{"id":1679344,"name":"Ailiao","alt":["Ai-liao","Ai-liao-li","Yai-liao-li","Yui-liao-li"],"lon":120.65,"lat":24,"pop":0},{"id":1679345,"name":"Ailiao","alt":["Ai-liao","Yai-liao","ai liao","隘寮"],"lon":120.4725,"lat":22.95167,"pop":0},{"id":1679346,"name":"Ailiao","alt":["Ai-liao","Yai-liao"],"lon":120.58333,"lat":22.41667,"pop":0},{"id":6580088,"name":"Ailiao","alt":["Ai-liao","ai liao","隘寮"],"lon":120.56139,"lat":23.55806,"pop":0},{"id":1679336,"name":"Ailiaobu","alt":["Ai-liao-pu","Yai-liao-ou","Yai-liao-pu","ai liao bu","隘寮埔"],"lon":120.7435,"lat":23.8364,"pop":0},{"id":1679334,"name":"Ailiaoding","alt":["Ai-liao-ting","Yai-liao-ting","ai liao ding","隘寮頂"],"lon":121.22667,"lat":24.89722,"pop":0},{"id":6650357,"name":"Ailiaogou","alt":["Ai-liao-kou","ai liao gou","隘寮溝"],"lon":120.74006,"lat":23.95852,"pop":0},{"id":1679343,"name":"Ailiaojiao","alt":["Ai-liao-chiao","Yai-liao-chiao","ai liao jiao","隘寮腳"],"lon":120.51313,"lat":23.07659,"pop":0},{"id":1679337,"name":"Ailiaoping","alt":["Ai-liao-p'ing","Ai-liao-p’ing","ai liao ping","隘寮坪"],"lon":120.83994,"lat":24.51964,"pop":0},{"id":1679333,"name":"Aimen","alt":["Ai-men","Ai-men-ts'un","Ai-men-ts’un","Yai-men","Yai-men-she","Yai-men-ts'un","Yai-men-ts’un","ai men","隘門"],"lon":119.63629,"lat":23.56215,"pop":0},{"id":1679339,"name":"Aipailiao","alt":["Ai-liao-p'ai","Ai-liao-p’ai","Ai-liao-ting","Ai-p'ai-liao","Ai-p’ai-liao","ai pai liao","隘排寮"],"lon":120.95304,"lat":24.67054,"pop":0},{"id":1674078,"name":"Aipingzi","alt":["Ai-p'ing-tzu","Ai-p’ing-tzu","Aipingzih","Jui-t'ang","Jui-t’ang","ai ping zi","矮坪子"],"lon":121.17556,"lat":24.89444,"pop":0},{"id":1679331,"name":"Aishan","alt":["Ai-shan","ai shan","矮山"],"lon":120.7715,"lat":24.32825,"pop":0},{"id":6574049,"name":"Aishicun","alt":["Ai-shih-ts'un","Ai-shih-ts’un","Aishihcun","ai shi cun","愛勢村"],"lon":121.04944,"lat":24.90833,"pop":0},{"id":1988383,"name":"Aitou","alt":["Ai-t'ou","Ai-t’ou","ai tou","隘頭"],"lon":120.72056,"lat":24.45528,"pop":0},{"id":1665642,"name":"Aixiang","alt":["Ai-hsiang","Aisiang","Yai-hsiang","ai xiang","隘巷"],"lon":120.39722,"lat":22.77167,"pop":0},{"id":1679356,"name":"Ajiancheng","alt":["A-chien-ch'eng","A-chien-ch’eng","a jian cheng","阿兼城"],"lon":121.80305,"lat":24.63168,"pop":0},{"id":6586649,"name":"Ajiaoshan","alt":["A-chiao-shan","a jiao shan","阿焦山"],"lon":120.55167,"lat":23.03083,"pop":0},{"id":6656214,"name":"Ajun","alt":["A-chun","A-chün","Ajyun","a jun","阿郡"],"lon":120.64456,"lat":23.40319,"pop":0},{"id":6646146,"name":"Akaoqikou","alt":["A-k'ao-ch'i-k'ou","A-k’ao-ch’i-k’ou","Akaocikou","a kao qi kou","阿考崎口"],"lon":120.84579,"lat":24.6125,"pop":0},{"id":1679323,"name":"Akuncuo","alt":["A-k'un-ts'o","A-k’un-ts’o","a kun cuo","阿坤厝"],"lon":120.25139,"lat":23.71833,"pop":0},{"id":1679321,"name":"Alancheng","alt":["A-lan-ch'eng","A-lan-ch’eng","a lan cheng","阿蘭城"],"lon":121.72894,"lat":24.76932,"pop":0},{"id":1679319,"name":"Alangwei","alt":["A-lang-wei","a lang wei","阿塱衛"],"lon":120.84583,"lat":22.28111,"pop":0},{"id":6656274,"name":"Alanzi","alt":["A-lan-tzu","Alanzih","a lan zi","阿籃仔"],"lon":120.53645,"lat":23.39658,"pop":0},{"id":1679314,"name":"Aleng","alt":["A-leng","A-leng-she"],"lon":120.88333,"lat":24.11667,"pop":0},{"id":1991418,"name":"Alengkeng","alt":["A-leng-k'eng","A-leng-k’eng","a leng keng","阿冷坑"],"lon":120.93212,"lat":24.07945,"pop":0},{"id":1679311,"name":"Ali","alt":["A-li","a li","阿力"],"lon":120.42333,"lat":24.00833,"pop":0},{"id":1679312,"name":"Ali","alt":["A-li","A-li-ts'un","A-li-ts’un","Hsia-hsuan-erh-she","Hsia-hsun-erh-she","Hsia-hsüan-erh-she","Hsia-hsün-erh-she","Hsia-tieh-erh","Hsia-tieh-erh-she","a li","阿禮"],"lon":120.7592,"lat":22.73093,"pop":0},{"id":1679310,"name":"Alian","alt":["A-lian","A-lien","A-lien-chuang","A-lien-ts'un","A-lien-ts’un","a lian","阿蓮"],"lon":120.3275,"lat":22.88167,"pop":0},{"id":1672724,"name":"Alianzhuang","alt":["A-lien-chuang","Alianjhuang","Liu-kou","Liu-kou-ts'un","Liu-kou-ts’un","a lian zhuang","阿蓮莊"],"lon":120.42393,"lat":23.59077,"pop":0},{"id":6602224,"name":"Alianzhuang","alt":["A-lien-chuang","Alianjhuang","a lian zhuang","阿蓮庄"],"lon":120.32583,"lat":22.88639,"pop":0},{"id":6642373,"name":"Alilaokengnei","alt":["A-li-lao-k'eng-nei","A-li-lao-k’eng-nei","a li lao keng nei","阿里老坑內"],"lon":121.60709,"lat":25.27299,"pop":0},{"id":1679307,"name":"Aliliang","alt":["A-li-liang","O-li-liang"],"lon":121.28333,"lat":23.03333,"pop":0},{"id":1679306,"name":"Alimei","alt":["A-li-mei","a li mei","阿里眉"],"lon":120.88984,"lat":23.8537,"pop":0},{"id":1679303,"name":"Alipang","alt":["A-li-p'ang","A-li-p’ang","a li bang","阿里磅"],"lon":121.58959,"lat":25.25291,"pop":0},{"id":1679304,"name":"Alipangkengtou","alt":["A-li-p'ang","A-li-p'ang-k'eng-t'ou","A-li-p’ang","A-li-p’ang-k’eng-t’ou","a li bang keng tou","阿里磅坑頭"],"lon":121.58935,"lat":25.26023,"pop":0},{"id":1679029,"name":"Alishan","alt":["A-li-shan","Alishan'","Chao-p'ing","Chao-p’ing","a li shan","Алишань","阿里山"],"lon":120.81028,"lat":23.51528,"pop":500},{"id":1679297,"name":"Alishi","alt":["A-li-shih","Alishih","Hang-chien-ts'un","Hang-chien-ts’un","a li shi","阿里史"],"lon":121.67995,"lat":24.66146,"pop":0},{"id":6747147,"name":"Aluduzi","alt":["A-lu-chiu-tzu","A-lu-tu-tzu","Aluduzih","a lu du zi","阿魯篤子"],"lon":121.42689,"lat":23.46918,"pop":0},{"id":6652539,"name":"Aluolang","alt":["A-lo-lang","a luo lang","阿羅朗"],"lon":121.43207,"lat":23.6216,"pop":0},{"id":6600861,"name":"Alusangshe","alt":["A-lu-sang-she","a lu sang she","阿魯桑社"],"lon":121.09167,"lat":23.79694,"pop":0},{"id":1679294,"name":"Amacuo","alt":["A-ma-ts'o","A-ma-ts’o","a ma cuo","阿媽厝"],"lon":120.4995,"lat":23.9381,"pop":0},{"id":6646143,"name":"Amahu","alt":["A-ma-hu","a ma hu","阿麻湖"],"lon":120.82829,"lat":24.62162,"pop":0},{"id":1673557,"name":"Amili","alt":["A-fu-li","A-mi-li","Ch'i-pa","Ch'i-pa-ts'un","Ch’i-pa","Ch’i-pa-ts’un","Kuang-ming","Kuang-ming-ts'un","Kuang-ming-ts’un","a mi li","阿密哩"],"lon":120.64171,"lat":24.09724,"pop":0},{"id":6748130,"name":"Amituo","alt":["A-mi-t'o","A-mi-t’o","a mi tuo","阿彌陀"],"lon":120.61911,"lat":24.03308,"pop":0},{"id":6747236,"name":"Amonenghan","alt":["A-mo-nen-han","A-mo-neng-han","a mo nen han","阿摩嫩漢"],"lon":121.3592,"lat":23.29344,"pop":0},{"id":1679291,"name":"Amuping","alt":["A-mu-p'ing","A-mu-p’ing","a mu ping","阿姆坪"],"lon":121.31181,"lat":24.81779,"pop":0},{"id":1679286,"name":"An-chen-li","lon":120.46667,"lat":22.66667,"pop":0},{"id":6653602,"name":"An’an","alt":["An'an","An-an","an an","暗鞍"],"lon":121.42846,"lat":24.87747,"pop":0},{"id":1679290,"name":"Anaibo","alt":["A-nai-po","a nai bo","阿奈博"],"lon":121.09194,"lat":23.78028,"pop":0},{"id":1679289,"name":"Anankeng","alt":["A-nan-k'eng","A-nan-k’eng","a nan keng","阿南坑"],"lon":121.37585,"lat":24.96369,"pop":0},{"id":1672357,"name":"Anbei","alt":["An-pei","Lun-tzu","Lun-tzu-liao","Lun-tzu-ts'un","Lun-tzu-ts’un","an bei","安北"],"lon":120.35361,"lat":23.6012,"pop":0},{"id":1679254,"name":"Anbian","alt":["An-pien","an bian","庵邊"],"lon":118.44301,"lat":24.42719,"pop":0},{"id":1679267,"name":"Ancun","alt":["An-k'eng","An-k’eng","An-ts'un","An-ts’un","an cun","安村"],"lon":120.85528,"lat":23.73389,"pop":0},{"id":1679239,"name":"Ancuo","alt":["An-ts'o","An-ts'o-ts'un","An-ts’o","An-ts’o-ts’un","Ta-ho-chia","an cuo","安厝"],"lon":120.26694,"lat":22.75111,"pop":0},{"id":6644820,"name":"Andianxiang","alt":["An-tien-hsiang","Andiansiang","an dian xiang","安殿巷"],"lon":120.40931,"lat":23.9337,"pop":0},{"id":1678027,"name":"Anding","alt":["An-ting","Chin-kua-liao","an ding","安定"],"lon":120.52417,"lat":23.01444,"pop":0},{"id":1679241,"name":"Anding","alt":["An-ting","an ding","庵頂"],"lon":118.24951,"lat":24.43922,"pop":0},{"id":1679243,"name":"Anding","alt":["An-ting","an ding","安定"],"lon":120.23667,"lat":23.11972,"pop":0},{"id":6656212,"name":"Anding","alt":["An-ting","an ding","鞍頂"],"lon":120.65744,"lat":23.41641,"pop":0},{"id":6602759,"name":"Andingwan","alt":["An-ting-wan","an ding wan","安定灣"],"lon":120.78472,"lat":23.64417,"pop":0},{"id":1679235,"name":"Andong","alt":["An-tung","an dong","安東"],"lon":120.50278,"lat":24.04611,"pop":0},{"id":1679230,"name":"Andongliao","alt":["An-tung-liao","an dong liao","安東寮"],"lon":120.33114,"lat":23.85558,"pop":0},{"id":6587600,"name":"Anguanglin","alt":["An-kuang-lin","an guang lin","暗光林"],"lon":120.69528,"lat":24.27389,"pop":0},{"id":1679278,"name":"Anhecun","alt":["An-ho","An-ho-ts'un","An-ho-ts’un","Fan-p'o","Fan-p’o","an he cun","安和村"],"lon":120.31593,"lat":23.51469,"pop":0},{"id":1679277,"name":"Anjiacuo","alt":["An-ch'i-ts'o","An-chia-ts'o","An-chia-ts’o","An-ch’i-ts’o","An-hsi","An-hsi-ts'o","An-hsi-ts’o","an jia cuo","安家厝"],"lon":120.52168,"lat":23.44513,"pop":0},{"id":1679284,"name":"Anjiao","alt":["An-chiao","an jiao","案角"],"lon":120.25252,"lat":23.33986,"pop":0},{"id":6656211,"name":"Anjiao","alt":["An-chiao","an jiao","鞍腳"],"lon":120.64323,"lat":23.42054,"pop":0},{"id":1679282,"name":"Anjiaoxiang","alt":["An-chian-hsiang","An-chiao-hsiang","Anjiaosiang","an jiao xiang","岸角巷"],"lon":120.55433,"lat":23.81491,"pop":0},{"id":1679265,"name":"Ankeng","alt":["An-k'eng","An-k’eng","an keng","安坑"],"lon":121.50898,"lat":24.95876,"pop":0},{"id":1679266,"name":"Ankeng","alt":["An-k'eng","An-k’eng","an keng","暗坑"],"lon":120.7144,"lat":24.0382,"pop":0},{"id":6648728,"name":"Ankeng","alt":["An-k'eng","An-k’eng","an keng","暗坑"],"lon":120.78075,"lat":23.89611,"pop":0},{"id":6653623,"name":"Ankeng","alt":["An-k'eng","An-k’eng","an keng","安坑"],"lon":121.46388,"lat":24.91913,"pop":0},{"id":6747568,"name":"Ankeng","alt":["An-k'eng","An-k’eng","an keng","暗坑"],"lon":120.7325,"lat":24.0705,"pop":0},{"id":6643665,"name":"Ankengxia","alt":["An-k'eng-hsia","An-k’eng-hsia","Ankengsia","an keng xia","安坑下"],"lon":121.52396,"lat":24.96792,"pop":0},{"id":6579881,"name":"Ankengzi","alt":["An-k'eng-tzu","An-k’eng-tzu","Ankengzih","an keng zi","暗坑子"],"lon":120.61556,"lat":23.66111,"pop":0},{"id":6646229,"name":"Ankengzi","alt":["An-k'eng-tzu","An-k’eng-tzu","Ankengzih","an keng zi","暗坑子"],"lon":120.87034,"lat":24.53036,"pop":0},{"id":6647302,"name":"Anlanqiao","alt":["An-lan-ch'iao","An-lan-ch’iao","Anlanciao","an lan qiao","安瀾橋"],"lon":121.76454,"lat":25.14289,"pop":0},{"id":1993081,"name":"Anlianggang","alt":["An-liang-kang","an liang gang","安良港"],"lon":120.52777,"lat":24.22161,"pop":0},{"id":1676120,"name":"Annan","alt":["An-nan","Ho-ts'o","Ho-ts'o-chuang","Ho-ts’o","Ho-ts’o-chuang","an nan","安南"],"lon":120.49585,"lat":23.75508,"pop":0},{"id":1679257,"name":"Annan","alt":["An-nan","An-nan-ts'un","An-nan-ts’un","Hsia-hsu-ts'o-liao","Hsia-hsu-ts’o-liao","Hsu-ts'o-liao","Hsü-ts’o-liao","an nan","安南"],"lon":120.2525,"lat":23.70361,"pop":0},{"id":1679256,"name":"Annei","alt":["An-nei","An-nei-ts'un","An-nei-ts’un","Nan-Nei","Niu-ch'ou-tzu","Niu-ch’ou-tzu","an nei","岸内"],"lon":120.26139,"lat":23.33167,"pop":0},{"id":6589593,"name":"Anping","alt":["An Binh","An Bình","An-p'ing","An-p'ing-ch'u","An-peng-khu","An-pêng-khu","An-p’ing","An-p’ing-ch’ü","Anping District","Anping Qu","Anpingcyu","Anpingqu","Distretto di Anping","Distrik Anping","an ping","an ping qu","anping gu","安平","安平区","安平區","안핑 구"],"lon":120.16972,"lat":22.99083,"pop":0},{"id":6754967,"name":"Anping","alt":["An-p'ing","An-p’ing","an ping","安平"],"lon":120.54754,"lat":22.57667,"pop":0},{"id":6755236,"name":"Anping","alt":["An-p'ing","An-p’ing","an ping","安平"],"lon":120.64309,"lat":22.62379,"pop":0},{"id":6586779,"name":"Anpingding","alt":["An-p'ing-ting","An-pin-chen","An-p’ing-ting","an ping ding","安平頂"],"lon":120.68806,"lat":23.06972,"pop":0},{"id":1679252,"name":"Anpingkeng","alt":["An-p'ing","An-p'ing-k'eng","An-p'ing-ts'un","An-p’ing","An-p’ing-k’eng","An-p’ing-ts’un","T'ai-ho-ts'un","T’ai-ho-ts’un","an ping keng","安平坑"],"lon":121.7843,"lat":24.62806,"pop":0},{"id":1673624,"name":"Anpo","alt":["An-p'o","An-p’o","K'ou-she","K'ou-she-ts'un","K’ou-she","K’ou-she-ts’un","an po","安坡"],"lon":120.6385,"lat":22.79852,"pop":0},{"id":1679285,"name":"Anqi","alt":["An-ch'i","An-ch’i","an qi","安岐"],"lon":118.32919,"lat":24.46219,"pop":0},{"id":1679281,"name":"Anqian","alt":["An-ch'ien","An-ch’ien","an qian","庵前"],"lon":118.3218,"lat":24.41889,"pop":0},{"id":1679280,"name":"Anqingli","alt":["An-ch'ing-li","An-ch’ing-li"],"lon":120.41667,"lat":23.7,"pop":0},{"id":1668639,"name":"Anshan","alt":["An-shan","An-shan-li","Ta-An-Li","Ta-an-shan","Ta-yen","Ta-yen-li","an shan","案山"],"lon":119.57908,"lat":23.55816,"pop":0},{"id":1992733,"name":"Anshan","alt":["An-shan","an shan","暗山"],"lon":120.80426,"lat":24.30372,"pop":0},{"id":1993826,"name":"Anshang","alt":["An-shang","an shang","岸上"],"lon":120.5273,"lat":24.0137,"pop":0},{"id":1674656,"name":"Anshun","alt":["An-shun","Ch'i-ting-liao","Ch’i-ting-liao","Hsi-ting-liao","an shun","安順"],"lon":120.21306,"lat":23.03222,"pop":0},{"id":1679246,"name":"Anshuo","alt":["An-shuo","An-shuo-ts'un","An-shuo-ts’un","an shuo","安朔"],"lon":120.86667,"lat":22.29333,"pop":0},{"id":1679244,"name":"Antan","alt":["An-t'an","An-t’an","an tan","暗潭"],"lon":121.18417,"lat":24.77056,"pop":0},{"id":1667447,"name":"Antianzhuang","alt":["An-t'ien-chuang","An-t’ien-chuang","Antianjhuang","T'ien-hsin-tzu","Ting-an","Ting-an-ts'un","Ting-an-ts’un","T’ien-hsin-tzu","an tian zhuang","安田莊"],"lon":120.60083,"lat":24.39278,"pop":0},{"id":1679236,"name":"Antong","alt":["An-t'ung","An-t’ung","Hung-ts'o","Hung-ts’o","an tong","安通"],"lon":121.33786,"lat":23.29318,"pop":0},{"id":6748075,"name":"Antoushan","alt":["An-t'ou-shan","An-t’ou-shan","an tou shan","岸頭山"],"lon":120.55082,"lat":24.06606,"pop":0},{"id":6640572,"name":"Anwo","alt":["An-wo","an wo","暗窩"],"lon":121.03778,"lat":24.70444,"pop":0},{"id":6640629,"name":"Anwuwo","alt":["An-wu-wo","an wu wo","安屋窩"],"lon":121.13556,"lat":24.73417,"pop":0},{"id":1679275,"name":"Anxia","alt":["An-hsia","an xia","庵下"],"lon":118.24952,"lat":24.44139,"pop":0},{"id":1679163,"name":"Anxiliao","alt":["An-ch'i-liao","An-ch’i-liao","An-hsi-liao","Ansiliao","Ch'ang-an","Ch'ang-an-ts'un","Ch’ang-an","Ch’ang-an-ts’un","Ting-an-ts'un","Ting-an-ts’un","an xi liao","安溪寮"],"lon":120.35611,"lat":23.33222,"pop":0},{"id":1679270,"name":"Anxiliao","alt":["An-ch'i-liao","An-ch’i-liao","An-hsi-liao","Ansiliao","an xi liao","安溪寮"],"lon":121.03417,"lat":24.82389,"pop":0},{"id":1679271,"name":"Anxiliao","alt":["An-ch'i-liao","An-ch’i-liao","An-hsi-liao","Ansiliao","an xi liao","安溪寮"],"lon":120.59131,"lat":24.071,"pop":0},{"id":1679272,"name":"Anxiliao","alt":["An-ch'i-liao","An-ch’i-liao","An-hsi-liao","Ansiliao","an xi liao","安溪寮"],"lon":120.43954,"lat":23.72484,"pop":0},{"id":1679273,"name":"Anxiliao","alt":["An-ch'i-liao","An-ch’i-liao","An-hsi-liao","Ansiliao","an xi liao","安溪寮"],"lon":120.22389,"lat":23.65056,"pop":0},{"id":6749722,"name":"Anxiliao","alt":["An-hsi-liao","Ansiliao","an xi liao","安溪寮"],"lon":120.21711,"lat":23.35567,"pop":0},{"id":1679225,"name":"Anye","alt":["An-She","An-yeh","an ye","安業"],"lon":120.245,"lat":23.15861,"pop":0},{"id":6652546,"name":"Anyexi","alt":["An-yeh-hsi","Anyesi","an ye xi","安夜西"],"lon":121.41609,"lat":23.54357,"pop":0},{"id":1679224,"name":"Anying","alt":["An-ying","an ying","暗影"],"lon":120.88685,"lat":24.52352,"pop":0},{"id":1991492,"name":"Anying","alt":["An-ling","An-ying","an ying","暗影"],"lon":120.8283,"lat":24.15214,"pop":0},{"id":1679190,"name":"Anzhai","alt":["An-chai","An-chai-li","Anjhai","Chai-chiao-hsu","Chai-chiao-hsü","Chai-chiao-yu","Chai-chiao-yü","I-chia-she","an zhai","安宅"],"lon":119.60235,"lat":23.57867,"pop":0},{"id":1679287,"name":"Anzhao","alt":["An-chao","An-chao-ts'un","An-chao-ts’un","Anjhao","Yuan-ch'ao-yu","Yüan-ch’ao-yu","an zhao","安招"],"lon":120.34278,"lat":22.78583,"pop":0},{"id":1679279,"name":"Anzhong","alt":["An-chung","An-chung-li"],"lon":120.3,"lat":22.65,"pop":0},{"id":1679226,"name":"Anzinei","alt":["An-tzu-nei","Anzihnei","an zi nei","安子内"],"lon":121.4803,"lat":25.21664,"pop":0},{"id":6647357,"name":"Aobu","alt":["Ao-pu","ao bu","澳埔"],"lon":121.92927,"lat":25.05222,"pop":0},{"id":1679217,"name":"Aodi","alt":["Ao-ti","ao di","澳底"],"lon":121.92495,"lat":25.05528,"pop":0},{"id":6729003,"name":"Aodi","alt":["Ao-ti","ao di","澳底"],"lon":121.70609,"lat":25.16555,"pop":0},{"id":1679220,"name":"Aogu","alt":["Ao-ku","Ao-ku-ts'un","Ao-ku-ts’un","ao gu","鰲鼓"],"lon":120.17319,"lat":23.49388,"pop":0},{"id":1679221,"name":"Aohua","alt":["Ao-hua","Ao-hua-ts'un","Ao-hua-ts’un","Han-pen","ao hua","澳花"],"lon":121.74472,"lat":24.33278,"pop":0},{"id":1679222,"name":"Aohua","alt":["Ao-hua","Ao-hua-ts'un","Ao-hua-ts’un","Ta-cho-shui","ao hua","澳花"],"lon":121.74313,"lat":24.33218,"pop":0},{"id":1669518,"name":"Aoshenshui","alt":["Ao-shen-shui","Aoshenshuei","Shen-shui","Shen-shui-ts'un","Shen-shui-ts’un","ao shen shui","奧深水"],"lon":120.40917,"lat":22.78306,"pop":0},{"id":6600850,"name":"Aowanda","alt":["Ao-wan-ta","ao wan da","奧萬大"],"lon":121.18417,"lat":23.94611,"pop":0},{"id":6725012,"name":"Aqiba","alt":["A-ch'i-pa","A-ch’i-pa","Aciba","Ya-chih-pa","a qi ba","阿其巴"],"lon":120.81483,"lat":23.24902,"pop":0},{"id":1679355,"name":"Aquan","alt":["A-ch'uan","A-ch'uan-ts'un","A-ch’üan","A-ch’üan-ts’un","Acyuan","a quan","阿勸"],"lon":120.32216,"lat":23.75716,"pop":0},{"id":1679354,"name":"Aquankeng","alt":["A-ch'uan-k'eng","A-ch’üan-k’eng","Acyuankeng","a quan keng","阿泉坑"],"lon":121.56568,"lat":24.96979,"pop":0},{"id":1679211,"name":"Aroukeng","alt":["A-Sang-k'eng","A-Sang-k’eng","A-ch'uan-k'eng","A-ch’üan-k’eng","A-jou-k'eng","A-jou-k’eng","a rou keng","阿柔坑"],"lon":121.61634,"lat":24.98418,"pop":0},{"id":1679209,"name":"Asangtuoluo","alt":["A-sang-t'o-lo","A-sang-t’o-lo","a sang tuo luo","阿桑托洛"],"lon":121.04194,"lat":23.81806,"pop":0},{"id":6653533,"name":"Ashikeng","alt":["A-shih-k'eng","A-shih-k’eng","Ashihkeng","a shi keng","阿勢坑"],"lon":121.38573,"lat":24.91991,"pop":0},{"id":6653523,"name":"Asikeng","alt":["A-ssu-k'eng","A-ssu-k’eng","Asihkeng","a si keng","阿四坑"],"lon":121.37025,"lat":24.96051,"pop":0},{"id":1679208,"name":"Atajie","alt":["A-t'a-chieh","A-t’a-chieh","Ho-t'a-chieh","Ho-t’a-chieh","O-k'o-k'ai","O-k’o-k’ai","a ta jie","阿他階"],"lon":121.39677,"lat":23.6323,"pop":0},{"id":1679206,"name":"Ataomo","alt":["A-t'ao-mo","A-t'o-mo","A-t’ao-mo","A-t’o-mo","a tao mo","阿陶莫"],"lon":121.46699,"lat":23.67251,"pop":0},{"id":6653562,"name":"Axikeng","alt":["A-hsi-k'eng","A-hsi-k’eng","Asikeng","a xi keng","阿習坑"],"lon":121.41659,"lat":24.85966,"pop":0},{"id":1672043,"name":"Ayemeixu","alt":["A-hsieh-mei-hsu","A-hsieh-mei-hsü","A-yeh-mei-hsu","A-yeh-mei-hsü","Ayemeisyu","Mei-hsu","Mei-hsü","a ye mei xu","阿耶美須"],"lon":120.73833,"lat":22.26278,"pop":0},{"id":6645906,"name":"Ayibei","alt":["A-i-pei","a yi bei","阿義碑"],"lon":120.84121,"lat":24.62611,"pop":0},{"id":1679352,"name":"Ayizhuang","alt":["A-i","A-i-chuang","A-i-li","Ayijhuang","T'ai-ho-ts'un","T’ai-ho-ts’un","a yi zhuang","阿夷莊"],"lon":120.55382,"lat":24.09625,"pop":0},{"id":6587865,"name":"Babalalun","alt":["Pa-pa-la-lun","ba ba la lun","巴巴拉崙"],"lon":120.88,"lat":22.44667,"pop":0},{"id":1670927,"name":"Babalong","alt":["Pa-pa-lung","ba ba long","巴巴隆"],"lon":121.04556,"lat":23.75167,"pop":0},{"id":1670920,"name":"Babian","alt":["Pa-pien","ba bian","八邊"],"lon":121.35333,"lat":23.08187,"pop":0},{"id":1671202,"name":"Bachimen","alt":["Bachihmen","Pa-ch'ih-men","Pa-ch’ih-men","ba chi men","八尺門"],"lon":121.77187,"lat":25.15183,"pop":0},{"id":1670898,"name":"Bacongshuxia","alt":["Bacongshusia","Pa-ts'ung-shu-hsia","Pa-tseng-shu-hsia","Pa-ts’ung-shu-hsia","ba cong shu xia","八叢樹下"],"lon":120.8092,"lat":24.2188,"pop":0},{"id":6603020,"name":"Badan","alt":["Pa-tan","ba dan","巴丹"],"lon":120.89389,"lat":22.03111,"pop":0},{"id":6646776,"name":"Badaqiu","alt":["Badaciou","Pa-ta-ch'iu","Pa-ta-ch’iu","ba da qiu","八大邱"],"lon":121.20544,"lat":25.01197,"pop":0},{"id":1670909,"name":"Bade","alt":["Bade District","Badeh","Badė","Bat GJuc","Bát Đức","Pa-k'uai","Pa-k'uai-chuang","Pa-k'uai-ts'o","Pa-k’uai","Pa-k’uai-chuang","Pa-k’uai-ts’o","Pa-te","Pa-te-shih","Pat-tek-khu","Pat-tet-khi","Pat-tet-khî","ba de","ba de qu","badeo gu","Бадэ","八徳区","八德","八德區","바더 구"],"lon":121.28372,"lat":24.92981,"pop":209148},{"id":1670900,"name":"Badoukengnei","alt":["Pa-tou-k'eng-nei","Pa-tou-k’eng-nei","Pa-tou-tzu-k'eng-nei","Pa-tou-tzu-k’eng-nei","ba dou keng nei","八斗坑內"],"lon":121.6602,"lat":25.1949,"pop":0},{"id":1670901,"name":"Badouzi","alt":["Pa-tou-tzu"],"lon":121.65,"lat":25.2,"pop":0},{"id":1670902,"name":"Badouzi","alt":["Badouzih","Pa-tou-tzu","ba dou zi","八斗子"],"lon":121.79889,"lat":25.14396,"pop":0},{"id":1670897,"name":"Badu","alt":["Pa-tu","ba du","八堵"],"lon":121.7294,"lat":25.1099,"pop":0},{"id":1670891,"name":"Badubei","alt":["Pa-tu-pei","ba du bei","八堵北"],"lon":121.72649,"lat":25.11232,"pop":0},{"id":6728836,"name":"Badunan","alt":["Pa-tu-nan","ba du nan","八堵南"],"lon":121.73212,"lat":25.10747,"pop":0},{"id":6587174,"name":"Baduonuofu","alt":["Pa-to-no-fu","ba duo nuo fu","巴多諾夫"],"lon":121.43722,"lat":24.17861,"pop":0},{"id":1670896,"name":"Baduqiao","alt":["Pa-tu-ch'iao","Pa-tu-ch’iao"],"lon":120.86667,"lat":23.86667,"pop":0},{"id":1671194,"name":"Bafen","alt":["Pa-fen","ba fen","八分"],"lon":120.84326,"lat":24.37378,"pop":0},{"id":1671195,"name":"Bafen","alt":["Pa-fen","ba fen","八分"],"lon":120.21944,"lat":23.12833,"pop":0},{"id":1671059,"name":"Bafenliao","alt":["Pa-fen-liao","Pa-liao","ba fen liao","八分寮"],"lon":121.79716,"lat":25.09111,"pop":0},{"id":1671193,"name":"Bafenliao","alt":["Pa-fen-liao","ba fen liao","八分寮"],"lon":120.98454,"lat":24.73034,"pop":0},{"id":1676552,"name":"Bafenliao","alt":["Fen-liao","Pa-fen-liao","ba fen liao","八分寮"],"lon":121.63854,"lat":25.01172,"pop":0},{"id":6647329,"name":"Bafenliaoding","alt":["Pa-fen-liao-ting","ba fen liao ding","八分寮頂"],"lon":121.79471,"lat":25.08291,"pop":0},{"id":6600801,"name":"Bafensuo","alt":["Pa-fen-so","ba fen suo","八分所"],"lon":121.17333,"lat":23.79222,"pop":0},{"id":1671192,"name":"Bafenzi","alt":["Bafenzih","Pa-fen-tzu","ba fen zi","八分子"],"lon":120.72437,"lat":23.80562,"pop":0},{"id":1671067,"name":"Bagongxia","alt":["Pa-kung-hsia"],"lon":120.83333,"lat":24.25,"pop":0},{"id":1670925,"name":"Bagu","alt":["Pa-ku","Pa-pao","ba gu","八股"],"lon":120.93703,"lat":24.61306,"pop":0},{"id":1671076,"name":"Bagu","alt":["Pa-ku","ba gu","八股"],"lon":121.88323,"lat":25.02215,"pop":0},{"id":1671077,"name":"Bagu","alt":["Pa-ku","ba gu","八股"],"lon":120.76802,"lat":24.40816,"pop":0},{"id":1671078,"name":"Bagu","alt":["Pa-ku","ba gu","八股"],"lon":120.93287,"lat":23.98179,"pop":0},{"id":1993499,"name":"Bagu","alt":["Pa-ku","ba gu","八股"],"lon":120.5853,"lat":24.03109,"pop":0},{"id":6640547,"name":"Bagu","alt":["Pa-ku","ba gu","八股"],"lon":121.02528,"lat":24.7225,"pop":0},{"id":6645913,"name":"Bagu","alt":["Pa-ku","ba gu","八股"],"lon":120.91705,"lat":24.74393,"pop":0},{"id":6655140,"name":"Bagu","alt":["Pa-ku","ba gu","八股"],"lon":120.50059,"lat":23.63262,"pop":0},{"id":1671068,"name":"Baguacuo","alt":["Pa-kua-ts'o","Pa-kua-ts’o"],"lon":120.95,"lat":24.83333,"pop":0},{"id":1671073,"name":"Baguali","alt":["Pa-kua-li","Pa-shu-li","ba gua li","八卦力"],"lon":120.96165,"lat":24.5326,"pop":0},{"id":1671075,"name":"Bagualiao","alt":["Pa-kua","Pa-kua-liao","Pa-kua-ts'un","Pa-kua-ts’un","Pei-Kua-Ts'un","Pei-Kua-Ts’un","ba gua liao","八卦寮"],"lon":120.3375,"lat":22.68852,"pop":0},{"id":1669783,"name":"Bagui","alt":["Baguei","Pa-kuei","Shang-pa-kuei","ba gui","八櫃"],"lon":120.75923,"lat":24.37597,"pop":0},{"id":6640548,"name":"Bagukou","alt":["Pa-ku-k'ou","Pa-ku-k’ou","ba gu kou","八股口"],"lon":121.01139,"lat":24.72472,"pop":0},{"id":6600676,"name":"Baguo","alt":["Pa-kuo","ba guo","巴過"],"lon":121.53694,"lat":23.67694,"pop":0},{"id":1671209,"name":"Bagupowei","alt":["Pa-chiao-p'o","Pa-chiao-p'o-wei","Pa-chiao-p’o","Pa-chiao-p’o-wei","Pa-ku-p'o","Pa-ku-p'o-wei","Pa-ku-p’o","Pa-ku-p’o-wei","ba gu po wei","八股坡尾"],"lon":121.26545,"lat":25.01805,"pop":0},{"id":1992691,"name":"Bahaqi","alt":["Bahaci","Pa-ha-ch'i","Pa-ha-ch’i","ba ha qi","吧哈崎"],"lon":120.8279,"lat":24.3371,"pop":0},{"id":1672934,"name":"Bai’erfen","alt":["Bai'erfen","Hsin-pai-erh-fen","Li-lin","Pai-erh-fen","bai er fen","百二份"],"lon":120.82877,"lat":24.39265,"pop":0},{"id":1671180,"name":"Bai’erjia","alt":["Bai'erjia","Pai-erh-chia","bai er jia","百二甲"],"lon":120.27011,"lat":23.13907,"pop":0},{"id":1671137,"name":"Bai’o","alt":["Bai'o","Pai-o","Pai-o-ts'un","Pai-o-ts’un","bai e","白鵝"],"lon":121.75582,"lat":24.79333,"pop":0},{"id":6646216,"name":"Baibulin","alt":["Pai-pu-lin","bai bu lin","白埔林"],"lon":120.87383,"lat":24.6165,"pop":0},{"id":6602740,"name":"Baibuzi","alt":["Baibuzih","Pai-pu-tzu","bai bu zi","白不仔"],"lon":120.84333,"lat":23.71389,"pop":0},{"id":6602733,"name":"Baibuzikou","alt":["Baibuzihkou","Pai-pu-tzu-k'ou","Pai-pu-tzu-k’ou","bai bu zi kou","白不仔口"],"lon":120.85278,"lat":23.72278,"pop":0},{"id":6579772,"name":"Baicidong","alt":["Baicihdong","Pai-lu-tung","Pai-tz'u-tung","Pai-tz’u-tung","bai ci dong","白鶿洞"],"lon":120.51917,"lat":23.57444,"pop":0},{"id":1671089,"name":"Baicuojiaozi","alt":["Baicuojiaozih","Pai-ts'o-chiao","Pai-ts'o-chiao-tzu","Pai-ts'o-chiap","Pai-ts’o-chiao","Pai-ts’o-chiao-tzu","Pai-ts’o-chiap","bai cuo jiao zi","白厝角仔"],"lon":120.66243,"lat":23.96011,"pop":0},{"id":1671090,"name":"Baidifen","alt":["Pai-p'ao-fen","Pai-p’ao-fen","Pai-ti","Pai-ti-fen","Pai-ti-ts'un","Pai-ti-ts’un","bai de fen","白地粉"],"lon":120.95778,"lat":24.85056,"pop":0},{"id":1671088,"name":"Baidong","alt":["Neng-tung","Pai-tung","bai dong","擺東"],"lon":120.41861,"lat":22.83944,"pop":0},{"id":6747317,"name":"Baiduan","alt":["Pai-jui","Pai-tuan","bai duan","白端"],"lon":121.27307,"lat":23.2505,"pop":0},{"id":6640749,"name":"Baiduanqi","alt":["Baiduanci","Pai-tuan-ch'i","Pai-tuan-ch’i","bai duan qi","百段崎"],"lon":121.02111,"lat":24.63444,"pop":0},{"id":6729086,"name":"Baifu","alt":["Pai-fu","bai fu","百福"],"lon":121.69615,"lat":25.08457,"pop":0},{"id":1671173,"name":"Baigang","alt":["Pai-chiang","Pai-kang"],"lon":121.48511,"lat":22.66667,"pop":0},{"id":1671172,"name":"Baigecuo","alt":["Pai-ko-ts'o","Pai-ko-ts’o"],"lon":120.35,"lat":23.48333,"pop":0},{"id":1670387,"name":"Baigongkeng","alt":["Pai-kung-k'eng","Pai-kung-k’eng","Po-kung-k'eng","Po-kung-k’eng","bai gong keng","佰公坑"],"lon":120.74194,"lat":24.36639,"pop":0},{"id":7501169,"name":"Baiguanyin","alt":["Pai-kuan-yin","bai guan yin","白觀音"],"lon":119.58148,"lat":23.66042,"pop":0},{"id":1671166,"name":"Baiguoshan","alt":["Pai-kuo-shan"],"lon":120.6,"lat":23.96667,"pop":0},{"id":1671178,"name":"Baihe","alt":["Pai-ho","Tien-tzu-k'ou","Tien-tzu-k’ou","bai he","白河"],"lon":120.41556,"lat":23.35111,"pop":0},{"id":6696916,"name":"Baihe Township","lon":120.44518,"lat":23.34257,"pop":0},{"id":6643922,"name":"Baihedong","alt":["Pai-ho-tung","bai he dong","白鶴棟"],"lon":121.7503,"lat":24.77698,"pop":0},{"id":6649168,"name":"Baihekeng","alt":["Pai-ho-k'eng","Pai-ho-k’eng","bai he keng","白鶴坑"],"lon":120.96121,"lat":23.94433,"pop":0},{"id":1672922,"name":"Baihuxincheng","alt":["Baihusincheng","Li-nao","Pai-hu-hsin-ch'eng","Pai-hu-hsin-ch’eng","bai hu xin cheng","百戶新城"],"lon":121.79685,"lat":24.64121,"pop":0},{"id":1671205,"name":"Baiji","alt":["Pa-chieh","Pai-chi","bai ji","百吉"],"lon":121.31336,"lat":24.82598,"pop":0},{"id":6653569,"name":"Baiji","alt":["Pai-chi","bai ji","白雞"],"lon":121.40085,"lat":24.90537,"pop":0},{"id":1670340,"name":"Baijiachun","alt":["Pai-chia-ch'un","Pai-chia-ch’un","Pu-chih-ch'un","Pu-chih-ch’un","bai jia chun","百家春"],"lon":120.66389,"lat":23.69278,"pop":0},{"id":6600378,"name":"Baijiao","alt":["Pai-chiao","bai jiao","白角"],"lon":121.50361,"lat":22.66222,"pop":0},{"id":1671080,"name":"Baikeng","alt":["Pai-k'eng","Pai-k'eng-she","Pai-k'eng-ts'un","Pai-k’eng","Pai-k’eng-she","Pai-k’eng-ts’un","Pai-yuan-k'eng","Pai-yüan-k’eng","bai keng","白坑"],"lon":119.65738,"lat":23.59391,"pop":0},{"id":6728717,"name":"Bailaka","alt":["Pai-la-k'a","Pai-la-k’a","bai la ka","百拉咔"],"lon":121.51525,"lat":25.18571,"pop":0},{"id":1671164,"name":"Bailan","alt":["Pa-shih-ko-lan-she","Pai-lan","Po-ssu-jun-wa-lang","Po-ssu-jun-wa-lang-she","Ssu-k'uo-wa-lang-she","Ssu-k’uo-wa-lang-she","bai lan","白蘭"],"lon":121.09194,"lat":24.58083,"pop":0},{"id":1671161,"name":"Baileng","alt":["Pai-leng","Pai-leng-she","bai leng","白冷"],"lon":120.92958,"lat":24.18342,"pop":0},{"id":1671159,"name":"Baili","alt":["Pai-li","bai li","擺厘"],"lon":121.74473,"lat":24.73848,"pop":0},{"id":6602219,"name":"Bailing","alt":["Pai-ling","bai ling","百嶺"],"lon":120.37917,"lat":22.80694,"pop":0},{"id":6647187,"name":"Bailing","alt":["Pai-ling","bai ling","白嶺"],"lon":121.51663,"lat":24.5251,"pop":0},{"id":1671157,"name":"Bailiujia","alt":["Pai-liu-chia","Pai-liu-ka"],"lon":121.48611,"lat":25.18361,"pop":0},{"id":6646096,"name":"Bailiukeng","alt":["Bailioukeng","Pai-liu-k'eng","Pai-liu-k’eng","bai liu keng","百六坑"],"lon":120.90335,"lat":24.60924,"pop":0},{"id":1671153,"name":"Bailu","alt":["Pai-lu","bai lu","白鹿"],"lon":120.91327,"lat":24.17177,"pop":0},{"id":1671155,"name":"Bailu","alt":["Pai-lu","Pai-lu-ssu-she","Pai-lu-ts'un","Pai-lu-ts’un","Yu-lu-ts'un","Yu-lu-ts’un"],"lon":120.66667,"lat":22.46667,"pop":0},{"id":6754987,"name":"Bailu","alt":["Pai-lu","bai lu","白露"],"lon":120.688,"lat":22.68231,"pop":0},{"id":1671149,"name":"Bailucuo","alt":["Pai-lu-ts'o","Pai-lu-ts’o"],"lon":121.26667,"lat":24.96667,"pop":0},{"id":1671150,"name":"Bailucuo","alt":["Pai-lu-ts'o","Pai-lu-ts’o","bai lu cuo","白鷺厝"],"lon":120.70036,"lat":23.89215,"pop":0},{"id":1671151,"name":"Bailunzi","alt":["Bailunzih","Pai-lun-tzu","bai lun zi","白崙仔"],"lon":120.23972,"lat":22.96389,"pop":0},{"id":1671148,"name":"Baimangbu","alt":["Pai-mang-pu"],"lon":120.5,"lat":23.41667,"pop":0},{"id":1671146,"name":"Baimao","alt":["Pai-mao","Pai-mao She","bai mao","白毛"],"lon":120.87854,"lat":24.14914,"pop":0},{"id":1671145,"name":"Baimaoliao","alt":["Pai-mao-liao"],"lon":121.2,"lat":23.05,"pop":0},{"id":6649221,"name":"Baimaolin","alt":["Pai-mao-lin","bai mao lin","白茅林"],"lon":120.7623,"lat":23.75734,"pop":0},{"id":1991542,"name":"Baimaotai","alt":["Pai-mao-t'ai","Pai-mao-t’ai","bai mao tai","白毛臺"],"lon":120.87855,"lat":24.16223,"pop":0},{"id":6602711,"name":"Baimaqi","alt":["Baimaci","Pai-ma-ch'i","Pai-ma-ch’i","bai ma qi","白馬崎"],"lon":119.49194,"lat":23.56667,"pop":0},{"id":7501036,"name":"Baimatan","alt":["Pai-ma-t'an","Pai-ma-t’an","bai ma tan","白馬灘"],"lon":119.50931,"lat":23.58449,"pop":0},{"id":1671141,"name":"Baimiaozi","alt":["Baimiaozih","Pai-miao-tzu","bai miao zi","白廟子"],"lon":120.41255,"lat":23.86918,"pop":0},{"id":1671143,"name":"Baimili","alt":["Pai-mi","Pai-mi-li","bai mi li","白米里"],"lon":120.28222,"lat":22.77833,"pop":0},{"id":1671139,"name":"Baimiweng","alt":["Baimiwong","Pai-mi-weng","bai mi weng","白米甕"],"lon":121.8388,"lat":24.5764,"pop":0},{"id":6644005,"name":"Baimubu","alt":["Pai-mu-pu","bai mu bu","白墓埔"],"lon":121.49646,"lat":25.26832,"pop":0},{"id":1671135,"name":"Baipaohu","alt":["Pai-p'ao-hu","Pai-p’ao-hu","bai pao hu","白匏湖"],"lon":121.64622,"lat":25.04924,"pop":0},{"id":6643913,"name":"Baipaohu","alt":["Pai-p'ao-hu","Pai-p’ao-hu","bai pao hu","白匏湖"],"lon":121.6929,"lat":24.78533,"pop":0},{"id":6645892,"name":"Baisan","alt":["Pai-san","bai san","百三"],"lon":120.8084,"lat":24.64044,"pop":0},{"id":1670917,"name":"Baisang’an","alt":["Baisang'an","Pa-sang-an","Pai-sang-an","bai sang an","白桑安"],"lon":121.41785,"lat":23.25317,"pop":0},{"id":1671134,"name":"Baisha","alt":["Ma-li-pa","Pai-sha","bai sha","白砂"],"lon":120.71833,"lat":21.93667,"pop":0},{"id":6600384,"name":"Baisha","alt":["Pai-sha","bai sha","白沙"],"lon":121.5,"lat":22.63833,"pop":0},{"id":6640821,"name":"Baishabi","alt":["Pai-sha-pi","bai sha bi","白沙鼻"],"lon":120.86417,"lat":21.89861,"pop":0},{"id":1671120,"name":"Baishacun","alt":["Pai-sha","Pai-sha-ts'un","Pai-sha-ts’un","bai sha cun","白沙村"],"lon":119.96961,"lat":26.20627,"pop":0},{"id":6748120,"name":"Baishakeng","alt":["Pai-sha-k'eng","Pai-sha-k’eng","bai sha keng","白砂坑"],"lon":120.54395,"lat":24.03794,"pop":0},{"id":6646236,"name":"Baishalang","alt":["Pai-sha-lang","bai sha lang","白沙崀"],"lon":120.92349,"lat":24.5369,"pop":0},{"id":1671124,"name":"Baishalun","alt":["Pai-sha-lun","bai sha lun","白沙崙"],"lon":120.18472,"lat":22.91333,"pop":0},{"id":6580068,"name":"Baishantu","alt":["Pai-shan-t'u","Pai-shan-t’u","bai shan tu","白善土"],"lon":120.5275,"lat":23.56667,"pop":0},{"id":1671115,"name":"Baishatun","alt":["Pai-sha-t'un","Pai-sha-t’un","bai sha tun","白沙屯"],"lon":121.09492,"lat":25.05171,"pop":0},{"id":1671116,"name":"Baishatun","alt":["Pai-sha-t'un","Pai-sha-t’un","bai sha tun","白沙屯"],"lon":120.98944,"lat":24.82056,"pop":0},{"id":1671118,"name":"Baishatun","alt":["Pai-sha-t'un","Pai-sha-t’un","bai sha tun","白沙屯"],"lon":120.71058,"lat":24.57071,"pop":0},{"id":1671119,"name":"Baishatun","alt":["Pai-sha-t'un","Pai-sha-t’un","bai sha tun","白沙屯"],"lon":120.44528,"lat":24.04917,"pop":0},{"id":1675182,"name":"Baishatun","alt":["Hsin-chia","Hsin-chia-ts'un","Hsin-chia-ts’un","Pai-sha-t'un","Pai-sha-t’un","bai sha tun","白沙屯"],"lon":120.31167,"lat":23.37194,"pop":0},{"id":6587055,"name":"Baishatun","alt":["Pai-sha-t'un","Pai-sha-t’un","bai sha tun","白沙屯"],"lon":120.48139,"lat":24.1375,"pop":0},{"id":1979778,"name":"Baishawan","alt":["Pai-sha-wan","bai sha wan","白沙灣"],"lon":121.52006,"lat":25.28324,"pop":0},{"id":1671113,"name":"Baishawei","alt":["Pai-sha-wei","Ta-pai-sha","Tso-p'ing","Tso-p’ing","bai sha wei","白沙尾"],"lon":121.50389,"lat":22.63528,"pop":0},{"id":1671114,"name":"Baishawei","alt":["Liu-ch'iu","Liu-ch’iu","Pai-sha-wei","Pen-fu","Pen-fu-ts'un","Pen-fu-ts’un","bai sha wei","白沙尾"],"lon":120.38273,"lat":22.35187,"pop":0},{"id":6640688,"name":"Baishi","alt":["Baishih","Pai-shih","bai shi","白石"],"lon":121.21972,"lat":24.55278,"pop":0},{"id":1671105,"name":"Baishihu","alt":["Baishihhu","Pai-shih-hu","bai shi hu","白石湖"],"lon":121.17417,"lat":24.72194,"pop":0},{"id":6594330,"name":"Baishihu","alt":["Baishihhu","Pai-shih-hu","bai shi hu","白石湖"],"lon":121.79,"lat":24.88389,"pop":0},{"id":1671108,"name":"Baishijiao","alt":["Baishihjiao","Pai-shih-chiao","bai shi jiao","白石腳"],"lon":121.71879,"lat":25.02091,"pop":0},{"id":1671109,"name":"Baishijiao","alt":["Baishihjiao","Pai-shih-chiao","bai shi jiao","白石脚"],"lon":121.78472,"lat":24.83972,"pop":0},{"id":6748807,"name":"Baishijiao","alt":["Baishihjiao","Pai-shih-chiao","bai shi jiao","白石脚"],"lon":121.48619,"lat":25.17494,"pop":0},{"id":1671103,"name":"Baishili","alt":["Baishihli","Pai-shih-la","Pai-shih-li","bai shi li","白石壢"],"lon":121.17667,"lat":24.7275,"pop":0},{"id":1671106,"name":"Baishixia","alt":["Baishihsia","Pai-shih-hsia","bai shi xia","白石下"],"lon":120.84634,"lat":24.46416,"pop":0},{"id":1992627,"name":"Baishixia","alt":["Bai-shih-hsia","Baishihsia","Pai-shih-hsia","bai shi xia","白石下"],"lon":120.8246,"lat":24.3765,"pop":0},{"id":6574258,"name":"Baishixia","alt":["Baishihsia","Pai-shih-hsia","bai shi xia","白石下"],"lon":121.21833,"lat":24.75472,"pop":0},{"id":1678379,"name":"Baishou","alt":["Chih-hu","Pai-shou","bai shou","百壽"],"lon":120.94019,"lat":24.58057,"pop":0},{"id":1671100,"name":"Baishoulian","alt":["Pai-shou-lien","Pai-shou-tsun","bai shou lian","白守蓮"],"lon":121.40052,"lat":23.12939,"pop":0},{"id":1671095,"name":"Baishuihu","alt":["Baishueihu","Chang-t'an-ts'un","Chang-tse","Chang-tse-ts'un","Chang-tse-ts’un","Chang-t’an-ts’un","Pai-shui-hu","bai shui hu","白水湖"],"lon":120.15335,"lat":23.42265,"pop":0},{"id":1671098,"name":"Baishuiquan","alt":["Baishueicyuan","Pai-shui-ch'uan","Pai-shui-chi","Pai-shui-ch’üan","bai shui quan","白水泉"],"lon":120.55472,"lat":23.01667,"pop":0},{"id":1671097,"name":"Baishuixi","alt":["Baishueisi","Pai-shui-ch'i","Pai-shui-ch’i","Pai-shui-hsi","bai shui xi","白水溪"],"lon":120.48278,"lat":23.35333,"pop":0},{"id":1671099,"name":"Baishujiao","alt":["Pai-shu-chiao","bai shu jiao","白樹脚"],"lon":120.55972,"lat":23.52778,"pop":0},{"id":1671093,"name":"Baishuzi","alt":["Baishuzih","Pai-shu-ts'un","Pai-shu-ts’un","Pai-shu-tzu","bai shu zi","百樹子"],"lon":120.30361,"lat":22.76056,"pop":0},{"id":1671091,"name":"Baitang","alt":["Pai-t'ang","Pai-t'ang-ts'un","Pai-t’ang","Pai-t’ang-ts’un","bai tang","擺塘"],"lon":120.55967,"lat":23.98581,"pop":0},{"id":6750644,"name":"Baitouqi","alt":["Baitouci","Pai-t'ou-ch'i","Pai-t’ou-ch’i","bai tou qi","擺頭崎"],"lon":120.42295,"lat":23.03975,"pop":0},{"id":1671082,"name":"Baiyan","alt":["Pai-yen","bai yan","白岩"],"lon":121.08139,"lat":24.17556,"pop":0},{"id":1671084,"name":"Baiyekeng","alt":["Pai-yeh-k'eng","Pai-yeh-k’eng","bai ye keng","百葉坑"],"lon":120.956,"lat":23.94663,"pop":0},{"id":6648770,"name":"Baiyelin","alt":["Pai-yeh-lin","bai ye lin","白葉林"],"lon":120.8047,"lat":23.7889,"pop":0},{"id":6580140,"name":"Baiyicuo","alt":["Pai-i-ts'o","Pai-i-ts’o","bai yi cuo","白蟻厝"],"lon":120.60694,"lat":23.65167,"pop":0},{"id":1671081,"name":"Baiyu","alt":["Pai-sha-t'un","Pai-sha-t’un","Pai-yu","Pai-yu-ts'un","Pai-yü","Pai-yü-ts’un","bai yu","白玉"],"lon":121.08996,"lat":25.0456,"pop":0},{"id":1671079,"name":"Baiyunsi","alt":["Pai-yun-ssu","Pai-yün-ssu"],"lon":121.65,"lat":25.05,"pop":0},{"id":6586726,"name":"Baiyunxiang","alt":["Baiyunsiang","Pai-yun-hsiang","Pai-yün-hsiang","bai yun xiang","白雲巷"],"lon":120.62944,"lat":23.07806,"pop":0},{"id":6658505,"name":"Baizibai","alt":["Baizihbai","Pai-tzu-pai","bai zi bai","擺子擺"],"lon":121.13826,"lat":22.89271,"pop":0},{"id":1671215,"name":"Bajia","alt":["Pa-chia","ba jia","八甲"],"lon":121.53232,"lat":25.26885,"pop":0},{"id":1671216,"name":"Bajia","alt":["Pa-chia","Pa-chia-ts'un","Pa-chia-ts’un","ba jia","八甲"],"lon":120.29694,"lat":22.97583,"pop":0},{"id":6646185,"name":"Bajia","alt":["Pa-chia","ba jia","八甲"],"lon":120.78667,"lat":24.53667,"pop":0},{"id":6653715,"name":"Bajia’er","alt":["Bajia'er","Pa-chia-erh","ba jia er","八甲二"],"lon":121.31302,"lat":24.9198,"pop":0},{"id":6644838,"name":"Bajiahu","alt":["Pa-chia-hu","ba jia hu","八甲湖"],"lon":120.38702,"lat":23.9645,"pop":0},{"id":1671204,"name":"Bajian","alt":["Pa-chien","ba jian","八間"],"lon":120.40931,"lat":23.8955,"pop":0},{"id":1671208,"name":"Bajiaodian","alt":["Pa-chiab-tish-txu","Pa-chiao-tien","Pa-chiao-tien-tzu","ba jiao dian","八角店"],"lon":121.27522,"lat":25.01156,"pop":0},{"id":1671212,"name":"Bajiaokeng","alt":["Pa-chiao","Pa-chiao-k'eng","Pa-chiao-k’eng","Pa-chiao-lin","ba jiao keng","八角坑"],"lon":120.89333,"lat":24.48372,"pop":0},{"id":1992289,"name":"Bajiaokeng","alt":["Ba-chiao-k'eng","Ba-chiao-k’eng","Pa-chiao-k'eng","Pa-chiao-k’eng","ba jiao keng","八角坑"],"lon":120.87424,"lat":24.4933,"pop":0},{"id":1992313,"name":"Bajiaolin","alt":["Pa-chiao-lin","ba jiao lin","八角林"],"lon":120.89422,"lat":24.47957,"pop":0},{"id":6748083,"name":"Bajiaolouzi","alt":["Bajiaolouzih","Pa-chiao-lou-tzu","ba jiao lou zi","八角樓仔"],"lon":120.53991,"lat":24.19636,"pop":0},{"id":6574101,"name":"Bajiaotang","alt":["Pa-chiao-t'ang","Pa-chiao-t’ang","ba jiao tang","八角塘"],"lon":121.19333,"lat":24.91444,"pop":0},{"id":1671207,"name":"Bajiaoting","alt":["Fu-hsing","Fu-hsing-ts'un","Fu-hsing-ts’un","Pa-chiao-t'ing","Pa-chiao-t’ing","ba jiao ting","八角亭"],"lon":120.37685,"lat":23.77672,"pop":0},{"id":6652595,"name":"Bajiasa","alt":["La-chia-sa","Pa-chia-sa","ba jia sa","拔加薩"],"lon":121.37366,"lat":23.57078,"pop":0},{"id":6595250,"name":"Bakalukalu","alt":["Pa-k'a-lu-k'a-lu","Pa-k’a-lu-k’a-lu","Pu-lo Chiu-chih","ba ka lu ka lu","巴卡路卡路"],"lon":120.66889,"lat":22.30806,"pop":0},{"id":6648829,"name":"Bakulasi","alt":["Bakulasih","Pa-k'u-la-ssu","Pa-k’u-la-ssu","ba ku la si","巴庫拉斯"],"lon":121.0037,"lat":23.80895,"pop":0},{"id":1670872,"name":"Balaoye","alt":["Jen-yeh","Jen-yeh-li","Pa-lao-yeh","Pa-yeh","Pa-yeh-li","ba lao ye","八老爺"],"lon":120.52805,"lat":22.53722,"pop":0},{"id":1670880,"name":"Balaoye","alt":["Pa-lao-yeh","Pa-weng","Pa-weng-ts'un","Pa-weng-ts’un","ba lao ye","八老爺"],"lon":120.29722,"lat":23.27444,"pop":0},{"id":1671064,"name":"Balasafenshe","alt":["Pa-la-sa-fen-she","Pa-la-sa-kung-she","ba la sa fen she","巴拉薩分社"],"lon":121.14167,"lat":23.79861,"pop":0},{"id":1673088,"name":"Bali","alt":["Hsun-t'ang-pu","Hsün-t’ang-pu","Lao-ch'ien","Lao-ch'ien-ts'un","Lao-ch’ien","Lao-ch’ien-ts’un","Pa-li","ba li","八里"],"lon":121.39904,"lat":25.14658,"pop":0},{"id":1671057,"name":"Balian","alt":["Pa-lien","Pa-lien-chiang","Pa-lien-kang","Pa-lien-ts'un","Pa-lien-ts’un","ba lian","八連"],"lon":121.62912,"lat":25.10038,"pop":0},{"id":1671052,"name":"Baliangang","alt":["Pa-lien-chiang","Pa-lien-kang","Pa-ta-chiang","Pa-ta-kang","ba lian gang","叭嗹港"],"lon":121.64868,"lat":25.08548,"pop":0},{"id":1671056,"name":"Balianxitou","alt":["Baliansitou","Pa-lein-ch'i-t'ou","Pa-lein-ch’i-t’ou","Pa-lien","Pa-lien-ch'i-t'ou","Pa-lien-ch’i-t’ou","Pa-lien-hsi-t'ou","Pa-lien-hsi-t’ou","ba lian xi tou","八連溪頭"],"lon":121.5324,"lat":25.22844,"pop":0},{"id":1671053,"name":"Balianyikeng","alt":["Pa-lien-i-k'eng","Pa-lien-i-k’eng","ba lian yi keng","八連一坑"],"lon":121.6457,"lat":25.09007,"pop":0},{"id":1671060,"name":"Baliao","alt":["Pa-liao","ba liao","八寮"],"lon":121.22167,"lat":24.79389,"pop":0},{"id":6640558,"name":"Baliao","alt":["Pa-liao","ba liao","八寮"],"lon":121.01083,"lat":24.65806,"pop":0},{"id":1671058,"name":"Baliaowan","alt":["Pa-liao-wan","ba liao wan","八寮灣"],"lon":120.87046,"lat":24.43169,"pop":0},{"id":1671047,"name":"Balidui","alt":["Baliduei","Pa-li-tui","ba li dui","八里堆"],"lon":121.45297,"lat":25.22522,"pop":0},{"id":6749252,"name":"Baliduiwei","alt":["Balidueiwei","Pa-li-tui-wei","ba li dui wei","八里堆尾"],"lon":121.46368,"lat":25.22653,"pop":0},{"id":1671062,"name":"Baling","alt":["Ma-lun","Pa-leng","Pa-leng-she","Pa-ling","Pa-lun","ba ling","巴陵"],"lon":121.38583,"lat":24.68111,"pop":0},{"id":1671045,"name":"Baliwan","alt":["Pa-li-wan","ba li wan","八里灣"],"lon":121.48617,"lat":23.56755,"pop":0},{"id":1671042,"name":"Balumo’anshe","alt":["Balumo'anshe","Pa-lu-mo-an-she","Pei-lu-mu-ang","Pei-lu-mu-ang-she","ba lu mo an she","巴魯莫安社"],"lon":121.20917,"lat":24.1475,"pop":0},{"id":6587918,"name":"Baluo’anying","alt":["Baluo'anying","Pa-lo-an-ying","ba luo an ying","八落安影"],"lon":121.26556,"lat":22.99722,"pop":0},{"id":1671041,"name":"Bama","alt":["Pa-ma","Tso-chen","ba ma","拔馬"],"lon":120.40527,"lat":23.05529,"pop":0},{"id":6602167,"name":"Banchanzi","alt":["Banchanzih","Pan-ch'an-tzu","Pan-ch’an-tzu","ban chan zi","辦產仔"],"lon":120.40778,"lat":22.84361,"pop":0},{"id":6602703,"name":"Bancongtou","alt":["Pan-ts'ung-t'ou","Pan-ts’ung-t’ou","ban cong tou","板從頭"],"lon":119.48333,"lat":23.57333,"pop":0},{"id":1671033,"name":"Banglin","alt":["Pang-lin","bang lin","榜林"],"lon":118.33074,"lat":24.43639,"pop":0},{"id":1671031,"name":"Bangpo","alt":["Pang-p'o","Pang-p’o","bang po","垹坡"],"lon":121.37876,"lat":25.05947,"pop":0},{"id":6647772,"name":"Banha","alt":["Pan-ha","ban ha","板蛤"],"lon":120.36036,"lat":22.33453,"pop":0},{"id":1671027,"name":"Bankaileisi","alt":["Bankaileisih","Pan-k'ai-lai-ssu","Pan-k'ai-lei-ssu","Pan-k’ai-lai-ssu","Pan-k’ai-lei-ssu","ban kai lei si","班開雷斯"],"lon":121.02222,"lat":23.77806,"pop":0},{"id":1671025,"name":"Banliaobu","alt":["Fang-liao-pu","Pan-liao-pu","ban liao bu","板寮埔"],"lon":120.61333,"lat":23.62917,"pop":0},{"id":1671021,"name":"Banlicun","alt":["Pan-li","Pan-li-ts'un","Pan-li-ts’un","ban li cun","板里村"],"lon":119.97449,"lat":26.21628,"pop":0},{"id":1671023,"name":"Banling","alt":["Pan-ling","ban ling","半嶺"],"lon":121.60308,"lat":25.24738,"pop":0},{"id":1671024,"name":"Banling","alt":["Pan-ling","ban ling","半嶺"],"lon":120.6644,"lat":23.8971,"pop":0},{"id":6749159,"name":"Banling","alt":["Pan-ling","ban ling","半嶺"],"lon":121.35407,"lat":25.00196,"pop":0},{"id":1671022,"name":"Banlingzi","alt":["Banlingzih","Pan-ling-tzu","ban ling zi","半嶺子"],"lon":121.6226,"lat":25.24313,"pop":0},{"id":1671013,"name":"Banlucuo","alt":["Pan-lu-ts'o","Pan-lu-ts’o","ban lu cuo","半路厝"],"lon":120.58107,"lat":23.92538,"pop":0},{"id":1671012,"name":"Banlucuozi","alt":["Banlucuozih","Pan-lu-ts'o","Pan-lu-ts'o-tzu","Pan-lu-ts’o","Pan-lu-ts’o-tzu","ban lu cuo zi","半路厝仔"],"lon":120.67374,"lat":23.93277,"pop":0},{"id":1671014,"name":"Banludian","alt":["Pan-lu-tien","ban lu dian","半路店"],"lon":121.64786,"lat":24.96954,"pop":0},{"id":1671015,"name":"Banludian","alt":["Pan-lu-tien","San-chiao-lin","ban lu dian","半路店"],"lon":121.22722,"lat":24.84639,"pop":0},{"id":1671016,"name":"Banludian","alt":["Pan-lu-tien"],"lon":120.16667,"lat":23.38333,"pop":0},{"id":1671019,"name":"Banludian","alt":["Pan-lu","Pan-lu-tien","ban lu dian","半路店"],"lon":120.46722,"lat":24.04861,"pop":0},{"id":1991371,"name":"Banludian","alt":["Pan-lu-tien","ban lu dian","半路店"],"lon":120.81129,"lat":24.04246,"pop":0},{"id":6580071,"name":"Banludian","alt":["Pan-lu-tien","ban lu dian","半路店"],"lon":120.58417,"lat":23.5575,"pop":0},{"id":6650501,"name":"Banludian","alt":["Pan-lu-tien","ban lu dian","半路店"],"lon":120.74737,"lat":23.9583,"pop":0},{"id":6654917,"name":"Banludian","alt":["Pan-lu-tien","ban lu dian","半路店"],"lon":120.45985,"lat":23.72654,"pop":0},{"id":6650123,"name":"Banlujingzi","alt":["Banlujingzih","Pan-lu-ching-tzu","ban lu jing zi","半路井仔"],"lon":120.73146,"lat":23.99291,"pop":0},{"id":1671017,"name":"Banluliao","alt":["Pan-lu-liao","ban lu liao","半路寮"],"lon":120.87958,"lat":24.51395,"pop":0},{"id":1671018,"name":"Banluxiang","alt":["Banlusiang","Pan-lu-hsiang","ban lu xiang","半路嚮"],"lon":120.51417,"lat":24.05556,"pop":0},{"id":6748206,"name":"Banluxiang","alt":["Banlusiang","Pan-lu-hsiang","ban lu xiang","半路响"],"lon":120.51019,"lat":24.0455,"pop":0},{"id":1671020,"name":"Banluzhuang","alt":["Banlujhuang","Pan-lu","Pan-lu-chuang","ban lu zhuang","半路庄"],"lon":120.56189,"lat":23.75446,"pop":0},{"id":1671008,"name":"Banpingcuo","alt":["Pan-p'ing-ts'o","Pan-p’ing-ts’o","ban ping cuo","半平厝"],"lon":120.65578,"lat":24.13073,"pop":0},{"id":1671011,"name":"Banpingqiao","alt":["Banpingciao","Pan-p'ing-ch'iao","Pan-p’ing-ch’iao","ban ping qiao","半平橋"],"lon":120.45192,"lat":23.06029,"pop":0},{"id":1671006,"name":"Banpouzi","alt":["Banpouzih","Pan-p'ou-tzu","Pan-pu-tzu","Pan-p’ou-tzu","ban pou zi","半廍子"],"lon":120.5039,"lat":23.60053,"pop":0},{"id":1671007,"name":"Banpouzi","alt":["Banpouzih","Pan-k'uo-tzu","Pan-k’uo-tzu","Pan-p'ou-tzu","Pan-pu-tzu","Pan-p’ou-tzu","ban pou zi","半廍子"],"lon":120.48917,"lat":22.84611,"pop":0},{"id":1670029,"name":"Banqiao","alt":["Banchiao","Banciao","Banciao District","Banqiao District","Fang-ch'iao","Fang-ch’iao","Pan-ch'iao","Pan-ch’iao","San-kuang","San-kuang-li","ban qiao","ban qiao qu","fang qiao","板橋","板橋區","枋橋"],"lon":121.46719,"lat":25.01427,"pop":543342},{"id":6649879,"name":"Banqiaotou","alt":["Banciaotou","Pan-ch'iao-t'ou","Pan-ch’iao-t’ou","ban qiao tou","板橋頭"],"lon":120.57963,"lat":23.77637,"pop":0},{"id":1671037,"name":"Banqizi","alt":["Bancizih","Pan-ch'i","Pan-ch'i-tzu","Pan-ch’i","Pan-ch’i-tzu","ban qi zi","半崎仔"],"lon":120.49306,"lat":23.33,"pop":0},{"id":1671003,"name":"Banshan","alt":["P'ing-shan","P'ing-shan-li","Pan-shan","P’ing-shan","P’ing-shan-li","ban shan","半山"],"lon":120.6781,"lat":23.9222,"pop":0},{"id":6656113,"name":"Banshan","alt":["Pan-shan","ban shan","半山"],"lon":120.51332,"lat":23.2811,"pop":0},{"id":6643743,"name":"Banshankeng","alt":["Pan-shan-k'eng","Pan-shan-k’eng","ban shan keng","半山坑"],"lon":121.6719,"lat":24.89947,"pop":0},{"id":6749191,"name":"Banshanya","alt":["Pan-shan-ya","ban shan ya","半山雅"],"lon":121.43559,"lat":25.06733,"pop":0},{"id":6656072,"name":"Banshanzi","alt":["Banshanzih","Pan-shan-tzu","ban shan zi","半山子"],"lon":120.54032,"lat":23.4271,"pop":0},{"id":1670996,"name":"Bantian","alt":["Pan-t'ien","Pan-t’ien","San-p'ing-tzu","San-p’ing-tzu","Ta-pan-t'ien-liao","Ta-pan-t’ien-liao"],"lon":120.56667,"lat":23.56667,"pop":0},{"id":1670995,"name":"Bantianhu","alt":["Pan-t'ien-hu","Pan-t’ien-hu"],"lon":120.56667,"lat":23.61667,"pop":0},{"id":6749988,"name":"Bantianjing","alt":["Pan-t'ien-ching","Pan-t’ien-ching","ban tian jing","半天井"],"lon":120.42294,"lat":23.22017,"pop":0},{"id":1670993,"name":"Bantianliao","alt":["Pan-t'ien-liao","Pan-t’ien-liao","ban tian liao","半天寮"],"lon":120.45778,"lat":22.87861,"pop":0},{"id":1677927,"name":"Bantianliao","alt":["Ch'i-ting","Ch’i-ting","Pan-t'ien-liao","Pan-t’ien-liao","ban tian liao","半天寮"],"lon":120.73109,"lat":24.59581,"pop":0},{"id":1992349,"name":"Bantianliao","alt":["Pan-t'ien-liao","Pan-t’ien-liao","ban tian liao","半天寮"],"lon":120.9308,"lat":24.45933,"pop":0},{"id":6643717,"name":"Bantianliao","alt":["Pan-t'ien-liao","Pan-t’ien-liao","ban tian liao","半天寮"],"lon":121.61649,"lat":24.88819,"pop":0},{"id":6646121,"name":"Bantianliao","alt":["Pan-t'ien-liao","Pan-t’ien-liao","ban tian liao","半天寮"],"lon":120.78106,"lat":24.54401,"pop":0},{"id":6650157,"name":"Bantianliao","alt":["Pan-t'ien-liao","Pan-t’ien-liao","ban tian liao","半天寮"],"lon":120.72803,"lat":23.75688,"pop":0},{"id":6656132,"name":"Bantianliao","alt":["Pan-t'ien-liao","Pan-t’ien-liao","ban tian liao","半天寮"],"lon":120.59433,"lat":23.47269,"pop":0},{"id":1670991,"name":"Bantianyan","alt":["Pan-t'ien-yen","Pan-t’ien-yen","ban tian yan","半天岩"],"lon":120.59581,"lat":23.46212,"pop":0},{"id":1670989,"name":"Bantoucuo","alt":["Pan-t'ou","Pan-t'ou-ts'o","Pan-t'ou-ts'un","Pan-t’ou","Pan-t’ou-ts’o","Pan-t’ou-ts’un","ban tou cuo","板頭厝"],"lon":120.32259,"lat":23.56824,"pop":0},{"id":6643123,"name":"Banxia","alt":["Bansia","Pan-hsia","ban xia","板下"],"lon":121.6569,"lat":24.17792,"pop":0},{"id":1670984,"name":"Banyue","alt":["Pan-yuch","Pan-yueh","Pan-yüch","Pan-yüeh","ban yue","半月"],"lon":120.2095,"lat":23.4351,"pop":0},{"id":6587608,"name":"Banzhang","alt":["Banjhang","Pan-chang","ban zhang","半張"],"lon":120.74583,"lat":24.26583,"pop":0},{"id":6586741,"name":"Banzhibu","alt":["Banjhihbu","Chiu-chuang","Pan-chih-pu","ban zhi bu","班芝埔"],"lon":120.62611,"lat":23.11417,"pop":0},{"id":1671028,"name":"Banzhihuakeng","alt":["Banjhihhuakeng","Pan-chih-hua-k'eng","Pan-chih-hua-k’eng","Pan-hua","ban zhi hua keng","班芝花坑"],"lon":120.44083,"lat":23.28361,"pop":0},{"id":6600848,"name":"Banziliao","alt":["Banzihliao","Pan-tzu-liao","ban zi liao","板仔寮"],"lon":121.02833,"lat":23.96389,"pop":0},{"id":6656199,"name":"Banzilong","alt":["Banzihlong","Pan-tzu-lung","ban zi long","板仔龍"],"lon":120.64441,"lat":23.45488,"pop":0},{"id":1670983,"name":"Bao’an","alt":["Bao'an","Ch'e-lu-ch'ien","Ch’e-lu-ch’ien","Pao-an","Pao-an-ts'un","Pao-an-ts’un","Wen-hsien","Wen-hsien-ts'un","Wen-hsien-ts’un","bao an","保安"],"lon":120.23083,"lat":22.93139,"pop":0},{"id":1670981,"name":"Bao’anlin","alt":["Bao'anlin","Pao-an-lin"],"lon":120.51361,"lat":24.15056,"pop":0},{"id":6254641,"name":"Bao’anlin","alt":["Bao'anlin","Pao-an-lin","bao an lin","保安林"],"lon":120.25167,"lat":23.77278,"pop":0},{"id":6586901,"name":"Bao’anlin","alt":["Bao'anlin","Pao-an-lin","bao an lin","保安林"],"lon":120.50111,"lat":24.16694,"pop":0},{"id":6646201,"name":"Bao’anlin","alt":["Bao'anlin","Pao-an-lin","bao an lin","保安林"],"lon":120.85345,"lat":24.67949,"pop":0},{"id":6658107,"name":"Baobuwei","alt":["Pao-pu-wei","bao bu wei","包埔尾"],"lon":120.58556,"lat":22.92629,"pop":0},{"id":1670977,"name":"Baochangcuo","alt":["Pao-ch'ang-ts'o","Pao-ch’ang-ts’o","bao zhang cuo","保長厝"],"lon":120.48726,"lat":22.58047,"pop":0},{"id":1670979,"name":"Baochanghu","alt":["Pao-ch'ang-hu","Pao-ch’ang-hu","bao zhang hu","保長湖"],"lon":120.22889,"lat":23.645,"pop":0},{"id":1670978,"name":"Baochangkeng","alt":["Pao-an","Pao-an-li","Pao-ch'ang-k'eng","Pao-ch’ang-k’eng","bao zhang keng","保長坑"],"lon":121.67941,"lat":25.07303,"pop":0},{"id":1670973,"name":"Baochangpou","alt":["Baojhangpou","Pao-ch'ang-p'ou","Pao-chuang","Pao-ch’ang-p’ou","bao zhang pou","保長廍"],"lon":120.52417,"lat":23.71222,"pop":0},{"id":1670976,"name":"Baochengkeng","alt":["Pao-ch'eng-k'eng","Pao-ch'eng-kung","Pao-ch’eng-kung","Pao-ch’eng-k’eng","Pao-sheng-k'eng","Pao-sheng-k’eng","bao cheng keng","保成坑"],"lon":121.81028,"lat":24.97917,"pop":0},{"id":1670941,"name":"Baodoucuo","alt":["Pao-hsin","Pao-tou-ts'o","Pao-tou-ts'u","Pao-tou-ts’o","Pao-tou-ts’u","bao dou cuo","寶斗厝"],"lon":121.54795,"lat":24.98096,"pop":0},{"id":1670942,"name":"Baodoucuo","alt":["Pao-tou-ts'o","Pao-tou-ts’o","bao dou cuo","寶斗厝"],"lon":120.64229,"lat":23.97479,"pop":0},{"id":1670944,"name":"Baodoucuo","alt":["Chung-fu","Pao-tou","Pao-tou-ts'o","Pao-tou-ts’o","bao dou cuo","寳斗厝"],"lon":121.3319,"lat":25.11969,"pop":0},{"id":6647038,"name":"Baodoucuo","alt":["Pao-tou-ts'o","Pao-tou-ts’o","bao dou cuo","寶斗厝"],"lon":121.8302,"lat":24.6669,"pop":0},{"id":6749039,"name":"Baodoucuokeng","alt":["Pao-tou-ts'o-k'eng","Pao-tou-ts’o-k’eng","Ta-nan-wan","bao dou cuo keng","寳斗厝坑"],"lon":121.34051,"lat":25.11525,"pop":0},{"id":1670943,"name":"Baodouren","alt":["Pao-tou-jen"],"lon":120.95,"lat":24.71667,"pop":0},{"id":6640790,"name":"Baogang","alt":["Pao-kang","bao gang","寶岡"],"lon":121.02806,"lat":24.73778,"pop":0},{"id":6658230,"name":"Baohua","alt":["Pao-hua","bao hua","寳華"],"lon":121.17297,"lat":22.97466,"pop":0},{"id":6602506,"name":"Baojiayuan","alt":["Pao-chia-yuan","Pao-chia-yüan","bao jia yuan","保甲園"],"lon":121.23639,"lat":23.08194,"pop":0},{"id":1670969,"name":"Baolai","alt":["Pao-lai","bao lai","寶來"],"lon":120.69972,"lat":23.10833,"pop":0},{"id":1670962,"name":"Baoli","alt":["Pao-li","Pao-li-ts'un","Pao-li-ts’un","bao li","保力"],"lon":120.72833,"lat":22.05611,"pop":0},{"id":1671094,"name":"Baolin","alt":["Pai-shu-lin","Pao-lin","bao lin","寳林"],"lon":120.49833,"lat":22.96528,"pop":0},{"id":1670959,"name":"Baomei","alt":["Pao-mei","Tz'u-kung-p'o-wei","Tz’u-kung-p’o-wei"],"lon":121.15,"lat":25.01667,"pop":0},{"id":1670958,"name":"Baomin","alt":["Pao-min","Pao-min-ts'un","Pao-min-ts’un"],"lon":121.86667,"lat":25,"pop":0},{"id":1670957,"name":"Baopou","alt":["Pao-p'ou","Pao-pu","Pao-pu-li","Pao-p’ou","bao pou","寳廍"],"lon":120.5622,"lat":24.1037,"pop":0},{"id":1670955,"name":"Baoshan","alt":["Pao-shan","Pao-shan-li","Shih-shan","Ts'ao-shan","Ts’ao-shan","bao shan","寶山"],"lon":121.03028,"lat":24.73167,"pop":0},{"id":1670956,"name":"Baoshan","alt":["Pao-shan","Pao-shan-ts'un","Pao-shan-ts’un","bao shan","寶山"],"lon":120.70944,"lat":23.03722,"pop":0},{"id":6600654,"name":"Baoshan","alt":["Pao-shan","bao shan","寶山"],"lon":120.99056,"lat":24.76444,"pop":0},{"id":1670954,"name":"Baoshanzhuang","alt":["Pao-shan-chuang"],"lon":121.03333,"lat":24.73333,"pop":0},{"id":6602231,"name":"Baoshe","alt":["Pao-she","bao she","保社"],"lon":120.34972,"lat":22.74639,"pop":0},{"id":1670952,"name":"Baoshejia","alt":["Pao-she-chia","bao she jia","保舍甲"],"lon":120.35306,"lat":22.74889,"pop":0},{"id":1670950,"name":"Baosheng","alt":["Pao-sheng","Pao-sheng-ts'un","Pao-sheng-ts’un","bao sheng","保生"],"lon":121.06949,"lat":25.00812,"pop":0},{"id":1670951,"name":"Baosheng","alt":["K'o-la-p'a-yang","K'o-la-p'a-yang-she","K’o-la-p’a-yang","K’o-la-p’a-yang-she","Pao-sheng","Pao-sheng-she"],"lon":120.8,"lat":22.58333,"pop":0},{"id":6595166,"name":"Baosheng","alt":["Pao-shan","Pao-sheng","bao sheng","保生"],"lon":120.60889,"lat":22.34583,"pop":0},{"id":1670947,"name":"Baoshi","alt":["Baoshih","Pao-shih","Shih-t'ou-k'eng","Shih-t’ou-k’eng","bao shi","寶石"],"lon":121.085,"lat":24.81667,"pop":0},{"id":1670948,"name":"Baoshi","alt":["Baoshih","Pao-chu-kou","Pao-shih","Pao-shih-li","bao shi","寳獅"],"lon":120.33415,"lat":22.63719,"pop":0},{"id":6646227,"name":"Baoshicun","alt":["Baoshihcun","Pao-shih-ts'un","Pao-shih-ts’un","bao shi cun","寶石村"],"lon":120.85332,"lat":24.53446,"pop":0},{"id":6754979,"name":"Baoshuiquan","alt":["Baoshueicyuan","Pao-shui-ch'uan","Pao-shui-ch’üan","bao shui quan","寳水泉"],"lon":120.58138,"lat":22.50414,"pop":0},{"id":1678928,"name":"Baowei","alt":["Chen-hsing","Chen-hsing-li","Pao-wei","bao wei","包尾"],"lon":120.69554,"lat":23.9075,"pop":0},{"id":6602156,"name":"Baoxi","alt":["Baosi","Pao-hsi","bao xi","保西"],"lon":120.29472,"lat":22.99417,"pop":0},{"id":6587746,"name":"Baozhennei","alt":["Baojhennei","Pao-chen-nei","bao zheng nei","保正内"],"lon":120.67361,"lat":24.42722,"pop":0},{"id":1670972,"name":"Baozhong","alt":["Baojhong","Pao-chung","Pu-chiang-lun","Pu-cniang-lun","bao zhong","褒忠"],"lon":120.31169,"lat":23.69553,"pop":0},{"id":1677009,"name":"Baozhu","alt":["Baojhu","Chu-wei","Chu-wei-tzu","Pao-chu","bao zhu","保竹"],"lon":120.5155,"lat":23.71383,"pop":0},{"id":1670937,"name":"Baozichu","alt":["Baozihchu","Pao-tzu-ch'u","Pao-tzu-ch’u","bao zi chu","豹子厨"],"lon":121.78778,"lat":24.98056,"pop":0},{"id":6729187,"name":"Baozijiao","alt":["Baozihjiao","Pao-tzu-chiao","bao zi jiao","抱子腳"],"lon":121.56982,"lat":24.99995,"pop":0},{"id":1670938,"name":"Baozijiaokeng","alt":["Pao-tzu-chiao-k'eng","Pao-tzu-chiao-k’eng"],"lon":121.53333,"lat":25,"pop":0},{"id":1675928,"name":"Baoziliao","alt":["Baozihliao","Hou-tzu-liao","Pao-tzu-liao","bao zi liao","褒子寮"],"lon":121.46715,"lat":25.0736,"pop":0},{"id":6586499,"name":"Baoziliao","alt":["Baozihliao","Pao-tzu-liao","bao zi liao","爆子寮"],"lon":120.555,"lat":23.20944,"pop":0},{"id":1670923,"name":"Bapaojun","alt":["Pa-pao-ch'uan","Pa-pao-chun","Pa-pao-chün","Pa-pao-ch’üan"],"lon":120.56667,"lat":23.98333,"pop":0},{"id":6600665,"name":"Baqi","alt":["Baci","Pa-ch'i","Pa-ch’i","ba qi","芭崎"],"lon":121.55694,"lat":23.72806,"pop":0},{"id":6649252,"name":"Bashebu","alt":["Pa-she-pu","ba she bu","拔社埔"],"lon":120.92103,"lat":23.79987,"pop":0},{"id":6646076,"name":"Bashichiqiao","alt":["Bashihchihciao","Pa-shih-ch'ih-ch'iao","Pa-shih-ch’ih-ch’iao","ba shi chi qiao","八十尺橋"],"lon":120.8367,"lat":24.6126,"pop":0},{"id":1670916,"name":"Bashifen","alt":["Bashihfen","Pa-shih-fen","Pei-shih-fen","ba shi fen","八十分"],"lon":121.16917,"lat":24.735,"pop":0},{"id":1670912,"name":"Bashoupi","alt":["Pa-shou","Pa-shou-p'i","Pa-shou-p’i","ba shou pi","八壽埤"],"lon":120.55096,"lat":22.64323,"pop":0},{"id":1670893,"name":"Batongguan","alt":["Pa-t'ung-kuan","Pa-t’ung-kuan","ba tong guan","八通關"],"lon":120.99677,"lat":23.49085,"pop":0},{"id":1670882,"name":"Bawangwei","alt":["Pa-wang-wei","ba wang wei","八王圍"],"lon":121.6646,"lat":24.6954,"pop":0},{"id":1670879,"name":"Bawushan","alt":["Pa-wu-shan","ba wu shan","八五山"],"lon":121.26806,"lat":24.70944,"pop":0},{"id":1671191,"name":"Baxian","alt":["Basian","Pa-hsien","ba xian","八仙"],"lon":121.78132,"lat":24.66152,"pop":0},{"id":6648729,"name":"Baxian","alt":["Basian","Pa-hsien","Pa-p'a-hsien","Pa-p’a-hsien","ba xian","八仙"],"lon":120.7724,"lat":23.8801,"pop":0},{"id":6656412,"name":"Baxiandong","alt":["Basiandong","Pa-hsien-tung","ba xian dong","八仙洞"],"lon":121.47841,"lat":23.39732,"pop":0},{"id":1671186,"name":"Baxihou","alt":["Basihou","Pa-hsi-hou","ba xi hou","拔西猴"],"lon":121.71109,"lat":25.08636,"pop":0},{"id":1670140,"name":"Bayan","alt":["Pa-yen","San-ch'ung-chiao","San-ch’ung-chiao","ba yan","八煙"],"lon":121.58721,"lat":25.19168,"pop":0},{"id":1670871,"name":"Bayankeng","alt":["Pa-yen-k'eng","Pa-yen-k’eng","Pa-yuan-k'eng","Pa-yüan-k’eng","ba yan keng","八燕坑"],"lon":120.83017,"lat":24.42945,"pop":0},{"id":1670877,"name":"Bayao","alt":["Pa-yao","Pa-yao-she","Pa-yo","ba yao","八瑤"],"lon":120.83139,"lat":22.10139,"pop":0},{"id":1671219,"name":"Bazhangli","alt":["Bajhangli","Pa-chang-li","ba zhang li","八張犂"],"lon":121.19556,"lat":24.87611,"pop":0},{"id":1671220,"name":"Bazhangli","alt":["Bajhangli","Pa-chang-li","ba zhang li","八張犁"],"lon":120.64385,"lat":24.20283,"pop":0},{"id":1671221,"name":"Bazhangli","alt":["Bajhangli","Pa-chang-li","ba zhang li","八張犁"],"lon":120.55,"lat":23.0375,"pop":0},{"id":1993114,"name":"Bazhangli","alt":["Bajhangli","Pa-chang-li","ba zhang li","八張犂"],"lon":120.53776,"lat":24.23263,"pop":0},{"id":1670885,"name":"Bazibu","alt":["Bazihbu","Pa-tzu-pu","ba zi bu","拔子埔"],"lon":121.54726,"lat":25.10882,"pop":0},{"id":6587566,"name":"Bazihu","alt":["Bazihhu","Pa-tzu-hu","ba zi hu","拔子湖"],"lon":120.66917,"lat":24.30306,"pop":0},{"id":1673238,"name":"Bazijiao","alt":["Bazihjiao","Kuo-Kang-Ts'un","Kuo-Kang-Ts’un","Kuo-chiang","Kuo-chiang-ts'un","Kuo-chiang-ts’un","Kuo-kang","Pa-tzu-chiao","ba zi jiao","拔子腳"],"lon":120.19139,"lat":23.57639,"pop":0},{"id":1670888,"name":"Baziku","alt":["Bazihku","Pa-tzu-k'u","Pa-tzu-k’u","ba zi ku","拔子窟"],"lon":120.94806,"lat":24.86417,"pop":0},{"id":1670886,"name":"Bazilin","alt":["Bazihlin","Pa-tzu-lin","ba zi lin","拔子林"],"lon":121.26753,"lat":25.0745,"pop":0},{"id":1670887,"name":"Bazilin","alt":["Bazihlin","Pa-tzu-lin","ba zi lin","拔子林"],"lon":120.42222,"lat":23.46639,"pop":0},{"id":1671049,"name":"Bazilin","alt":["Bazihlin","Pa-lin","Pa-lin-ts'un","Pa-lin-ts’un","Pa-tzu-lin","ba zi lin","拔子林"],"lon":120.32329,"lat":23.1728,"pop":0},{"id":6600590,"name":"Bazilin","alt":["Bazihlin","Pa-tzu-lin","ba zi lin","拔子林"],"lon":120.94222,"lat":24.81056,"pop":0},{"id":6602239,"name":"Bazilin","alt":["Bazihlin","Pa-tzu-lin","ba zi lin","拔仔林"],"lon":120.36917,"lat":22.7925,"pop":0},{"id":6656129,"name":"Bazilin","alt":["Bazihlin","Pa-tzu-lin","ba zi lin","拔仔林"],"lon":120.57212,"lat":23.48165,"pop":0},{"id":1670883,"name":"Bazitou","alt":["Bazihtou","Pa-tzu-t'ou","Pa-tzu-t’ou","ba zi tou","拔子頭"],"lon":120.7298,"lat":23.9326,"pop":0},{"id":1677627,"name":"Bei’an","alt":["Bei'an","Chu-chi","Chu-ku","Pei-an","bei an","北安"],"lon":120.50417,"lat":22.82444,"pop":0},{"id":6254121,"name":"Bei’anshun","alt":["Bei'anshun","Pei-an-shun","bei an shun","北安順"],"lon":120.215,"lat":23.03806,"pop":0},{"id":6589514,"name":"Beibaozi","alt":["Beibaozih","Pei-pao-tzu","bei bao zi","北保仔"],"lon":120.25139,"lat":22.95472,"pop":0},{"id":6749760,"name":"Beibianliao","alt":["Pei-pien-liao","bei bian liao","北邊寮"],"lon":120.2623,"lat":23.06202,"pop":0},{"id":6650068,"name":"Beibiantiantou","alt":["Pei-pien-t'ien-t'ou","Pei-pien-t’ien-t’ou","bei bian tian tou","北邊田頭"],"lon":120.5779,"lat":23.9826,"pop":0},{"id":1670769,"name":"Beibinli","alt":["Pei-pin-li"],"lon":121.86667,"lat":24.6,"pop":0},{"id":1670763,"name":"Beibu","alt":["Pei-pu","Pei-pu-chuang","Pei-pu-hsiang","bei bu","北埔"],"lon":121.05611,"lat":24.70028,"pop":0},{"id":1670765,"name":"Beibu","alt":["Pei-pu","bei bu","北埔"],"lon":121.60467,"lat":24.03417,"pop":0},{"id":1670766,"name":"Beibu","alt":["Pei-pu","bei bu","北埔"],"lon":120.4075,"lat":23.40889,"pop":0},{"id":1670767,"name":"Beibu","alt":["Pei-pu","Pei-pu-ts'un","Pei-pu-ts’un","bei bu","北埔"],"lon":120.15,"lat":23.22306,"pop":0},{"id":1992792,"name":"Beibu","alt":["Pei-pu","bei bu","北埔"],"lon":120.76056,"lat":24.265,"pop":0},{"id":1993771,"name":"Beibu","alt":["Pei-pu","bei bu","北埔"],"lon":120.61717,"lat":24.0251,"pop":0},{"id":6254080,"name":"Beibu","alt":["Pei-pu","Pu-ti","bei pou","北廍"],"lon":120.22528,"lat":23.16639,"pop":0},{"id":6254643,"name":"Beibu","alt":["Pei-pu","bei bu","北部"],"lon":120.22306,"lat":23.77472,"pop":0},{"id":6645891,"name":"Beibu","alt":["Pei-pu","bei bu","北埔"],"lon":120.79493,"lat":24.66137,"pop":0},{"id":6652070,"name":"Beicha","alt":["Pei-ch'a","Pei-ch’a","bei cha","北叉"],"lon":120.7885,"lat":24.4708,"pop":0},{"id":6254111,"name":"Beichang’an","alt":["Beichang'an","Pei-ch'ang-an","Pei-ch’ang-an","bei zhang an","北長安"],"lon":120.19889,"lat":23.07111,"pop":0},{"id":1670864,"name":"Beicheng","alt":["Pei-ch'eng","Pei-ch’eng","Pi-ch'eng","Pi-ch’eng","bei cheng","北城"],"lon":121.75737,"lat":24.67847,"pop":0},{"id":1670705,"name":"Beidan","alt":["Pei-tan","bei dan","北旦"],"lon":120.90213,"lat":23.86691,"pop":0},{"id":1674900,"name":"Beidatiekeng","alt":["Hsin-pei","Pei-ta-t'ieh-k'eng","Pei-ta-t’ieh-k’eng","bei da tie keng","北打鐵坑"],"lon":121.14806,"lat":24.85278,"pop":0},{"id":1933186,"name":"Beidingtou","alt":["Pei-ting-t'ou","Pei-ting-t’ou","bei ding tou","北碇頭"],"lon":118.47039,"lat":24.44825,"pop":0},{"id":6587934,"name":"Beidonghe","alt":["Pei-tung-ho","bei dong he","北東河"],"lon":121.30583,"lat":22.97361,"pop":0},{"id":1670697,"name":"Beidou","alt":["Pei-tou","Pei-tou-chieh","bei dou","北斗"],"lon":120.52426,"lat":23.87292,"pop":0},{"id":1670698,"name":"Beidou","alt":["Pei-shih-tzu","Pei-tou","Pei-tou-ts'un","Pei-tou-ts’un","bei dou","北斗"],"lon":120.46168,"lat":23.53372,"pop":0},{"id":1670692,"name":"Beidouqiao","alt":["Pei-tou-ch'iao","Pei-tou-ch’iao"],"lon":120.5,"lat":23.86667,"pop":0},{"id":6650426,"name":"Beidouxinshizhen","alt":["Beidousinshihjhen","Pei-tou-hsin-shih-chen","bei dou xin shi zhen","北斗新市鎮"],"lon":120.51815,"lat":23.87136,"pop":0},{"id":1670844,"name":"Beifang’ao","alt":["Beifang'ao","Pei-fang-ao","Pei-feng-ao","bei fang ao","北方澳"],"lon":121.87569,"lat":24.60284,"pop":0},{"id":6600656,"name":"Beifengping","alt":["Beifongping","Pei-feng-p'ing","Pei-feng-p’ing","bei feng ping","北風坪"],"lon":121.0025,"lat":24.76139,"pop":0},{"id":6658285,"name":"Beifenliao","alt":["Pei-fen-liao","bei fen liao","北份寮"],"lon":121.09331,"lat":22.7933,"pop":0},{"id":6658288,"name":"Beifenziliao","alt":["Beifenzihliao","Pei-fen-tzu-liao","bei fen zi liao","北份子寮"],"lon":121.08024,"lat":22.78661,"pop":0},{"id":1670824,"name":"Beigang","alt":["Pei-chiang","Pei-kang"],"lon":121.63333,"lat":25.1,"pop":0},{"id":1670826,"name":"Beigang","alt":["Pei-chiang","Pei-chiang-chen","Pei-kang","bei gang","北港"],"lon":120.30162,"lat":23.5701,"pop":0},{"id":1670818,"name":"Beigangkou","alt":["Pei-chiang-k'ou","Pei-chiang-k’ou","Pei-kang-k'ou","Pei-kang-k’ou","bei gang kou","北港口"],"lon":121.83917,"lat":24.87556,"pop":0},{"id":1673939,"name":"Beigangqian","alt":["Beigangcian","Chiang-tzu-ch'ien","Chiang-tzu-ch’ien","Kang-tzu-ch'ien","Kang-tzu-ch’ien","Pei-kang-ch'ien","Pei-kang-ch’ien","bei gang qian","北港墘"],"lon":120.30143,"lat":23.08067,"pop":0},{"id":1991414,"name":"Beigangxi","alt":["Beigangsi","Pei-kang-hsi","Pei-kang-kuo-hsiao","bei gang xi","北港溪"],"lon":120.91726,"lat":24.05788,"pop":0},{"id":1670812,"name":"Beigangzi","alt":["Beigangzih","Pei-chiang-tzu","Pei-hua-ts'un","Pei-hua-ts’un","Pei-kang-tzu","bei gang zi","北港子"],"lon":120.19378,"lat":23.34218,"pop":0},{"id":6574558,"name":"Beigaoshanding","alt":["Pei-kao-shan-ting","bei gao shan ding","北高山頂"],"lon":121.16444,"lat":24.95028,"pop":0},{"id":1670798,"name":"Beigou","alt":["Pei-kou","bei gou","北溝"],"lon":120.71476,"lat":24.07675,"pop":0},{"id":7501047,"name":"Beigouhou","alt":["Pei-kou-hou","bei gou hou","北溝吼"],"lon":119.55381,"lat":23.66023,"pop":0},{"id":1993746,"name":"Beigoukeng","alt":["Pei-kou-k'eng","Pei-kou-k’eng","bei gou keng","北溝坑"],"lon":120.72833,"lat":24.06519,"pop":0},{"id":1670797,"name":"Beiguan","alt":["Pei-kuan","bei guan","北關"],"lon":121.88,"lat":24.91583,"pop":0},{"id":1670839,"name":"Beihanbao","alt":["Pei-han-pao","bei han bao","北漢寶"],"lon":120.38222,"lat":24.01528,"pop":0},{"id":1670838,"name":"Beihe","alt":["Pei-ho"],"lon":120.86667,"lat":24.53333,"pop":0},{"id":6644933,"name":"Beihoucuo","alt":["Pei-hou-ts'o","Pei-hou-ts’o","bei hou cuo","北後厝"],"lon":120.38248,"lat":23.94882,"pop":0},{"id":1670830,"name":"Beihu","alt":["Pei-hu","bei hu","北湖"],"lon":121.04385,"lat":25.00752,"pop":0},{"id":6601943,"name":"Beihua","alt":["Pei-hua","Pei-hua-yuan","Pei-hua-yüan","bei hua","北花"],"lon":120.34083,"lat":22.96556,"pop":0},{"id":1677313,"name":"Beiji","alt":["Ch'i-pu-ts'o","Ch'ung-lan","Ch’i-pu-ts’o","Ch’ung-lan","Pei-chi","Pei-chi-li","bei ji","北機"],"lon":120.46928,"lat":22.69269,"pop":0},{"id":1670863,"name":"Beijia","alt":["Hou-chiang-tzu","Hou-kang-tzu","Pei-chia","Pei-chia-ts'un","Pei-chia-ts’un","bei jia","北嘉"],"lon":120.15472,"lat":23.21111,"pop":0},{"id":1670596,"name":"Beijiao","alt":["P'i-chiao","Pei-chiao","P’i-chiao","bei jiao","碑脚"],"lon":120.66611,"lat":24.345,"pop":0},{"id":6640668,"name":"Beijiao","alt":["Pei-chiao","bei jiao","北角"],"lon":121.19889,"lat":24.7,"pop":0},{"id":1670816,"name":"Beikanglang","alt":["Pei-k'ang-lang","Pei-k’ang-lang","bei kang lang","北糠榔"],"lon":120.14175,"lat":23.2809,"pop":0},{"id":1673972,"name":"Beikanglang","alt":["K'ang-hsiang","K'ang-hsiang-ts'un","K'ang-lang","K'ang-lang-ts'un","K’ang-hsiang","K’ang-hsiang-ts’un","K’ang-lang","K’ang-lang-ts’un","Pei-k'ang-lang","Pei-k’ang-lang","bei kang lang","北槺榔"],"lon":120.14417,"lat":23.09694,"pop":0},{"id":1886909,"name":"Beikanglangliao","alt":["Pei-k'ang-lang-liao","Pei-k’ang-lang-liao"],"lon":120.15,"lat":23.08333,"pop":0},{"id":1670803,"name":"Beikeng","alt":["Pei-k'eng","Pei-k’eng","bei keng","北坑"],"lon":120.93285,"lat":24.65521,"pop":0},{"id":1670804,"name":"Beikeng","alt":["Hsin-min","Pei-k'eng","Pei-k’eng"],"lon":120.78333,"lat":24.55,"pop":0},{"id":1670805,"name":"Beikeng","alt":["Pei-k'eng","Pei-k’eng","bei keng","北坑"],"lon":120.74111,"lat":24.49361,"pop":0},{"id":1670808,"name":"Beikeng","alt":["Pei-k'eng","Pei-k’eng","bei keng","北坑"],"lon":120.72204,"lat":24.08321,"pop":0},{"id":1670809,"name":"Beikeng","alt":["Pei-k'eng","Pei-k’eng","bei keng","北坑"],"lon":121.0225,"lat":22.65556,"pop":0},{"id":1672469,"name":"Beikeng","alt":["Lung-hsing","Pei-k'eng","Pei-k’eng","bei keng","北坑"],"lon":120.8665,"lat":24.60133,"pop":0},{"id":1991362,"name":"Beikeng","alt":["Pei-k'eng","Pei-k’eng"],"lon":120.77194,"lat":24.03889,"pop":0},{"id":6254553,"name":"Beikeng","alt":["Pei-k'eng","Pei-k’eng","bei keng","北坑"],"lon":121.54806,"lat":23.805,"pop":0},{"id":6602501,"name":"Beikeng","alt":["Pei-k'eng","Pei-k’eng","bei keng","北坑"],"lon":121.22583,"lat":23.05028,"pop":0},{"id":6640789,"name":"Beikeng","alt":["Pei-k'eng","Pei-k’eng","bei keng","北坑"],"lon":121.0425,"lat":24.73167,"pop":0},{"id":6726840,"name":"Beikeng","alt":["Pei-k'eng","Pei-k’eng","bei keng","北坑"],"lon":120.77013,"lat":24.17044,"pop":0},{"id":6749048,"name":"Beikeng","alt":["Pei-k'eng","Pei-k’eng","bei keng","北坑"],"lon":121.35492,"lat":25.09766,"pop":0},{"id":6254551,"name":"Beikengtou","alt":["Pei-k'eng-t'ou","Pei-k’eng-t’ou","bei keng tou","北坑頭"],"lon":121.5525,"lat":23.81083,"pop":0},{"id":1670806,"name":"Beikengxiang","alt":["Beikengsiang","Pei-k'eng","Pei-k'eng-hsiang","Pei-k’eng","Pei-k’eng-hsiang","bei keng xiang","北坑巷"],"lon":120.75222,"lat":24.25694,"pop":0},{"id":6726893,"name":"Beikengxiang","alt":["Beikengsiang","Pei-k'eng-hsiang","Pei-k’eng-hsiang","bei keng xiang","北坑巷"],"lon":120.76393,"lat":24.06307,"pop":0},{"id":1670807,"name":"Beikengzi","alt":["Beikengzih","Pei-k'eng","Pei-k'eng-tzu","Pei-k’eng","Pei-k’eng-tzu","bei keng zi","北坑子"],"lon":120.78809,"lat":24.15154,"pop":0},{"id":1670663,"name":"Beiliao","alt":["Pei-liao","Pei-yuan","Pei-yüan","bei liao","北寮"],"lon":120.49611,"lat":23.29111,"pop":0},{"id":1670791,"name":"Beiliao","alt":["Pei-liao","bei liao","北寮"],"lon":120.91501,"lat":24.03016,"pop":0},{"id":1670792,"name":"Beiliao","alt":["Pei-liao","Pei-liao-ts'un","Pei-liao-ts’un","bei liao","北寮"],"lon":119.67034,"lat":23.59775,"pop":0},{"id":1670794,"name":"Beiliao","alt":["Pei-liao","bei liao","北寮"],"lon":120.49078,"lat":23.079,"pop":0},{"id":6254133,"name":"Beiliao","alt":["Pei-liao","bei liao","北寮"],"lon":120.14806,"lat":23.03389,"pop":0},{"id":6586734,"name":"Beiliao","alt":["Pei-liao","bei liao","北寮"],"lon":120.64611,"lat":23.11389,"pop":0},{"id":6601934,"name":"Beiliao","alt":["Hsin-kuang","Pei-liao","bei liao","北寮"],"lon":120.35889,"lat":22.97667,"pop":0},{"id":6645998,"name":"Beiliao","alt":["Pei-liao","bei liao","北寮"],"lon":120.95472,"lat":24.57604,"pop":0},{"id":1670788,"name":"Beilingqian","alt":["Beilingcian","Pei-ling","Pei-ling-ch'ien","Pei-ling-ch’ien","Pei-ling-ts'un","Pei-ling-ts’un","bei ling qi","北嶺墘"],"lon":120.26972,"lat":22.8225,"pop":0},{"id":1670786,"name":"Beiliu","alt":["Beiliou","Liu-shu-nan","Pei-liu","Pei-liu-ts'un","Pei-liu-ts’un","Pei-lu","bei liu","北柳"],"lon":120.68095,"lat":24.06294,"pop":0},{"id":6726858,"name":"Beilong","alt":["Pei-lung","bei long","背龍"],"lon":120.85645,"lat":24.19857,"pop":0},{"id":6254049,"name":"Beiluke","alt":["Pei-lu-k'o","Pei-lu-k'o-tsai","Pei-lu-k’o","Pei-lu-k’o-tsai","bei lu ke","北路客"],"lon":120.22639,"lat":23.20528,"pop":0},{"id":1675581,"name":"Beima","alt":["Hsiao-pei-ma","Pei-ma","bei ma","北馬"],"lon":120.15759,"lat":23.30439,"pop":0},{"id":1676796,"name":"Beima","alt":["Fan-she","Fan-she-ts'un","Fan-she-ts’un","Pei-ma","bei ma","北馬"],"lon":120.40056,"lat":23.30889,"pop":0},{"id":1991415,"name":"Beimeiguozhong","alt":["Pei-mei-kuo-chung"],"lon":120.91278,"lat":24.05667,"pop":0},{"id":1670783,"name":"Beimen","alt":["Chiang-pei","Kang-pei","Pei-man","Pei-men","Pei-men-chuang","Yung-lung","Yung-lung-ts'un","Yung-lung-ts’un","bei men","北門"],"lon":120.12418,"lat":23.26895,"pop":0},{"id":6594380,"name":"Beimenkeng","alt":["Pei-men-k'eng","Pei-men-k’eng","bei men keng","北門坑"],"lon":121.82194,"lat":24.87417,"pop":0},{"id":1670781,"name":"Beimenwai","alt":["Pei-men-wai"],"lon":120.75,"lat":22.01667,"pop":0},{"id":6646080,"name":"Beimiao","alt":["Pei-miao","bei miao","北苗"],"lon":120.825,"lat":24.58103,"pop":0},{"id":6747272,"name":"Beinong","alt":["Pei-nung","bei nong","倍農"],"lon":121.32385,"lat":23.37573,"pop":0},{"id":6646170,"name":"Beiping","alt":["Pei-p'ing","Pei-p’ing","bei ping","北坪"],"lon":120.89269,"lat":24.59025,"pop":0},{"id":1670768,"name":"Beipo","alt":["Pei-p'o","Pei-p’o","bei po","北坡"],"lon":121.1525,"lat":24.96889,"pop":0},{"id":6652412,"name":"Beiqilin","alt":["Beicilin","Pei-ch'i-lin","Pei-ch’i-lin","bei qi lin","北麒麟"],"lon":121.35869,"lat":23.09566,"pop":0},{"id":1669982,"name":"Beisanshe","alt":["Pei-san-she","San-she","San-she-fang","bei san she","北三舍"],"lon":120.29074,"lat":23.09424,"pop":0},{"id":1670761,"name":"Beisanzhan","alt":["Beisanjhan","Pei-san-chan","bei san zhan","北三棧"],"lon":121.62041,"lat":24.10531,"pop":0},{"id":1670755,"name":"Beishan","alt":["Pei-shan","bei shan","北山"],"lon":118.31179,"lat":24.48047,"pop":0},{"id":1670757,"name":"Beishancun","alt":["Pei-shan","Pei-shan-ts'un","Pei-shan-ts’un","bei shan cun","北山村"],"lon":120.89385,"lat":23.98103,"pop":0},{"id":6658109,"name":"Beishangtang","alt":["Pei-shang-t'ang","Pei-shang-t’ang","bei shang tang","北上塘"],"lon":120.5812,"lat":22.9005,"pop":0},{"id":1670752,"name":"Beishankeng","alt":["Pei-shan-k'eng","Pei-shan-k’eng","bei shan keng","北山坑"],"lon":120.8725,"lat":23.98134,"pop":0},{"id":7506862,"name":"Beishanwei","alt":["Pei-shan-wei","bei shan wei","北汕尾"],"lon":120.27623,"lat":22.60317,"pop":0},{"id":1670756,"name":"Beishanzhuang","alt":["Beishanjhuang","Pei-shan","Pei-shan-chuang","bei shan zhuang","北汕莊"],"lon":120.58944,"lat":24.38444,"pop":0},{"id":1670750,"name":"Beishewei","alt":["Pei-she-wei","bei she wei","北社尾"],"lon":120.42278,"lat":23.49417,"pop":0},{"id":1670101,"name":"Beishi","alt":["Beishih","Pei-shih","San-Chieh-li","San-hsieh","San-hsieh-li","San-shieh-li","bei shi","北勢"],"lon":120.47472,"lat":22.87194,"pop":0},{"id":1670716,"name":"Beishi","alt":["Beishih","Pei-shih","Pei-shih-ts'un","Pei-shih-ts’un","bei shi","北勢"],"lon":121.21528,"lat":24.93389,"pop":0},{"id":1670737,"name":"Beishi","alt":["Beishih","Pei-shih","Pei-shih-ts'un","Pei-shih-ts’un","bei shi","北勢"],"lon":121.73864,"lat":24.94945,"pop":0},{"id":1670744,"name":"Beishi","alt":["Beishih","Pei-shih","Pei-shih-tzu","bei shi","北勢"],"lon":120.488,"lat":23.6235,"pop":0},{"id":1670746,"name":"Beishi","alt":["Beishih","Pei-shih","bei shi","北勢"],"lon":120.29123,"lat":23.04624,"pop":0},{"id":1670747,"name":"Beishi","alt":["Beishih","Pei-shih","Pei-shih-ts'un","Pei-shih-ts’un","bei shi","北勢"],"lon":120.33278,"lat":22.96472,"pop":0},{"id":1670749,"name":"Beishi","alt":["Beishih","Pei-shih","Pei-shih-ts'un","Pei-shih-ts’un","bei shi","北勢"],"lon":120.48933,"lat":22.51189,"pop":0},{"id":6574459,"name":"Beishi","alt":["Beishih","Pei-shih","bei shi","北勢"],"lon":121.13056,"lat":24.97139,"pop":0},{"id":6586509,"name":"Beishi","alt":["Beishih","Pei-shih","bei shi","北勢"],"lon":120.54361,"lat":23.18361,"pop":0},{"id":6646192,"name":"Beishi","alt":["Beshih","Pei-shih","bei shi","北勢"],"lon":120.81902,"lat":24.60385,"pop":0},{"id":6747573,"name":"Beishi","alt":["Beishih","Pei-shih","bei shi","北勢"],"lon":120.66538,"lat":24.03719,"pop":0},{"id":1669440,"name":"Beishifenliao","alt":["Beishihfenliao","Pei-shih-fen-liao","Shih-fen-liao","bei shi fen liao","北十分寮"],"lon":121.15694,"lat":24.72917,"pop":0},{"id":1675945,"name":"Beishigang","alt":["Beishihgang","Hou-ts'o","Hou-ts’o","Pei-shih-kang","Pei-shih-tzu","bei shi gang","北勢崗"],"lon":121.47962,"lat":25.26146,"pop":0},{"id":1671104,"name":"Beishihu","alt":["Beishihhu","Pai-shih-hu","Pei-shih-hu","bei shi hu","北勢湖"],"lon":121.56466,"lat":25.08459,"pop":0},{"id":6657689,"name":"Beishihu","alt":["Beishihhu","Pei-shih-hu","bei shi hu","北勢湖"],"lon":120.73163,"lat":24.54927,"pop":0},{"id":1670727,"name":"Beishikeng","alt":["Beishihkeng","Pei-shih-k'eng","Pei-shih-k’eng","bei shi keng","北勢坑"],"lon":121.91036,"lat":25.09464,"pop":0},{"id":1670729,"name":"Beishikeng","alt":["Beishihkeng","Pei-shih-k'eng","Pei-shih-k’eng","bei shi keng","北勢坑"],"lon":120.42737,"lat":23.23164,"pop":0},{"id":1673558,"name":"Beishikeng","alt":["Beishihkeng","Kuang-ming","Pei-shih-k'eng","Pei-shih-k’eng","bei shi keng","北勢坑"],"lon":120.79965,"lat":23.8404,"pop":0},{"id":6574667,"name":"Beishikeng","alt":["Beishihkeng","Pei-shih-k'eng","Pei-shih-k’eng","bei shi keng","北勢坑"],"lon":120.49389,"lat":23.40972,"pop":0},{"id":6594402,"name":"Beishikeng","alt":["Beishihkeng","Pei-shih-k'eng","Pei-shih-k’eng","bei shi keng","北勢坑"],"lon":121.87194,"lat":24.92056,"pop":0},{"id":6650130,"name":"Beishikeng","alt":["Beishihkeng","Pei-shih-k'eng","Pei-shih-k’eng","bei shi keng","北勢坑"],"lon":120.7571,"lat":23.9967,"pop":0},{"id":6658155,"name":"Beishikeng","alt":["Beishihkeng","Pei-shih-k'eng","Pei-shih-k’eng","bei shi keng","北勢坑"],"lon":120.5989,"lat":22.98513,"pop":0},{"id":1670726,"name":"Beishiku","alt":["Beishihku","Pei-shih-k'u","Pei-shih-k’u","bei shi ku","北勢堀"],"lon":120.24025,"lat":23.34655,"pop":0},{"id":1669556,"name":"Beishiliao","alt":["Beishihliao","Pei-shih-liao","Sheng-hsien","bei shi liao","北勢寮"],"lon":120.36444,"lat":23.31694,"pop":0},{"id":1670723,"name":"Beishiliao","alt":["Beishihliao","Pei-shih-liao","bei shi liao","北勢寮"],"lon":120.5129,"lat":23.8849,"pop":0},{"id":1670724,"name":"Beishiliao","alt":["Beishihliao","Pei-shih-liao","bei shi liao","北勢寮"],"lon":120.24167,"lat":23.20306,"pop":0},{"id":1670725,"name":"Beishiliao","alt":["Beishihliao","Pei-shih-liao","bei shi liao","北勢寮"],"lon":120.59694,"lat":22.35889,"pop":0},{"id":6601757,"name":"Beishilin","alt":["Beishihlin","Pei-shih-lin","bei shi lin","北勢林"],"lon":120.37583,"lat":22.75278,"pop":0},{"id":1670738,"name":"Beishilixing","alt":["Beishihlising","Pei-shih","Pei-shih-li-hsing","bei shi li xing","北獅里興"],"lon":120.98809,"lat":24.57373,"pop":0},{"id":6650120,"name":"Beishinan","alt":["Beishihnan","Pei-shih-nan","bei shi nan","北勢湳"],"lon":120.71726,"lat":23.99605,"pop":0},{"id":6600626,"name":"Beishiping","alt":["Beishihping","Pei-shih-p'ing","Pei-shih-p’ing","bei shi ping","北勢坪"],"lon":120.93861,"lat":24.78583,"pop":0},{"id":1670720,"name":"Beishipou","alt":["Beishihpou","Pei-shih-p'ou","Pei-shih-pu","Pei-shih-p’ou","bei shi pou","北勢廍"],"lon":120.55141,"lat":22.5536,"pop":0},{"id":1670718,"name":"Beishitou","alt":["Beishihtou","Pai-shih-t'ou","Pai-shih-t’ou","Pei-shih-t'ou","Pei-shih-t’ou","bei shi tou","北勢頭"],"lon":120.5465,"lat":22.5553,"pop":0},{"id":1670728,"name":"Beishitou","alt":["Beishihtou","Fu-hsing","Fu-hsing-li","Pei-shih-k'eng","Pei-shih-k’eng","Pei-shih-li","Pei-shih-t'ou","Pei-shih-t’ou","bei shi tou","北勢頭"],"lon":120.57106,"lat":24.22401,"pop":0},{"id":1670748,"name":"Beishitou","alt":["Beishihtou","Pei-shih","Pei-shih-li","Pei-shih-t'ou","Pei-shih-t’ou","Pei-t'ing","Pei-t’ing","bei shi tou","北勢頭"],"lon":120.49528,"lat":22.68704,"pop":0},{"id":6602138,"name":"Beishitou","alt":["Beishihtou","Pei-shih-t'ou","Pei-shih-t’ou","bei shi tou","北勢頭"],"lon":120.41111,"lat":22.90556,"pop":0},{"id":6649826,"name":"Beishitou","alt":["Beishihtou","Pei-shih-t'ou","Pei-shih-t’ou","bei shi tou","北勢頭"],"lon":120.59729,"lat":23.92487,"pop":0},{"id":1670741,"name":"Beishiwei","alt":["Beishihwei","Pei-shih","Pei-shih-li","Pei-shih-wei","bei shi wei","北勢尾"],"lon":120.46266,"lat":23.96035,"pop":0},{"id":1670713,"name":"Beishiwo","alt":["Beishihwo","Pei-shih-wo","bei shi wo","北勢窩"],"lon":120.72438,"lat":24.5246,"pop":0},{"id":6644030,"name":"Beishixikou","alt":["Beishihsikou","Pei-shih-hsi-k'ou","Pei-shih-hsi-k’ou","bei shi xi kou","北勢溪口"],"lon":121.47299,"lat":25.25362,"pop":0},{"id":1993823,"name":"Beishiyang","alt":["Beishihyang","Chin-chen-yang","Pei-shih-yang","bei shi yang","北勢洋"],"lon":120.52833,"lat":24.01861,"pop":0},{"id":6586557,"name":"Beishiyuan","alt":["Beishihyuan","Pei-shih-yuan","Pei-shih-yüan","bei shi yuan","北勢園"],"lon":120.59583,"lat":23.17417,"pop":0},{"id":1670735,"name":"Beishizhou","alt":["Beishihjhou","Chiu-chuang","Pei-shih-chou","bei shi zhou","北勢洲"],"lon":120.34303,"lat":23.11519,"pop":0},{"id":6749757,"name":"Beishizhou","alt":["Beishihjhou","Hsin-chuang","Pei-shih-chou","bei shi zhou","北勢洲"],"lon":120.3398,"lat":23.112,"pop":0},{"id":1670714,"name":"Beishizi","alt":["Beishihzih","Pei-shih-tzu","bei shi zi","北勢子"],"lon":121.4857,"lat":25.22359,"pop":0},{"id":1670715,"name":"Beishizi","alt":["Beishihzih","Pei-shih-tzu","bei shi zi","北勢子"],"lon":120.565,"lat":23.9752,"pop":0},{"id":1670743,"name":"Beishizi","alt":["Beishihzih","Pei-shih","Pei-shih-tzu","bei shi zi","北勢子"],"lon":120.47941,"lat":23.69519,"pop":0},{"id":1670745,"name":"Beishizi","alt":["Beishihzih","Pei-shih","Pei-shih-tzu","bei shi zi","北勢仔"],"lon":120.54081,"lat":23.47974,"pop":0},{"id":1670852,"name":"Beishizi","alt":["Beishihzih","Pei-chu","Pei-shih-ts'un","Pei-shih-ts’un","Pei-shih-tzu","bei shi zi","北勢子"],"lon":120.52021,"lat":22.5886,"pop":0},{"id":6650510,"name":"Beishizi","alt":["Beishihzih","Pei-shih-tzu","bei shi zi","北勢子"],"lon":120.73884,"lat":23.81578,"pop":0},{"id":6749243,"name":"Beishizi","alt":["Beishihzih","Pei-shih-tzu","bei shi zi","北勢子"],"lon":121.47862,"lat":25.24609,"pop":0},{"id":6600756,"name":"Beishulin","alt":["Pei-shu-lin","bei shu lin","北樹林"],"lon":120.72194,"lat":21.95639,"pop":0},{"id":1670709,"name":"Beitaimali","alt":["Lo-ta-chieh","Pei-t'ai-ma","Pei-t'ai-ma-li","Pei-t’ai-ma","Pei-t’ai-ma-li","bei tai ma li","北太麻里"],"lon":121.0075,"lat":22.62972,"pop":0},{"id":1670701,"name":"Beitianzhong","alt":["Beitianjhong","Pei-t'ien-chung","Pei-t’ien-chung","bei tian zhong","北田中"],"lon":120.58733,"lat":23.86195,"pop":0},{"id":1670694,"name":"Beitou","alt":["Pei-t'ou","Pei-t'ou-li","Pei-t’ou","Pei-t’ou-li","San-k'uai-ts'o","San-k’uai-ts’o","bei tou","北投"],"lon":121.44976,"lat":25.18043,"pop":0},{"id":1670695,"name":"Beitou","alt":["Bac GJau","Behjtou","Bắc Đầu","Distretto di Beitou","District de Beitou","Distrik Beitou","Pak-tau-khu","Pak-tâu-khu","Pei-t'ou","Pei-t'ou-chen","Pei-t'ou-chuang","Pei-t’ou","Pei-t’ou-chen","Pei-t’ou-chuang","Pet-theu-khi","Pet-thèu-khî","bei tou","bei tou qu","beiteou gu","Бэйтоу","北投","北投区","北投區","베이터우 구"],"lon":121.49863,"lat":25.14244,"pop":0},{"id":1670696,"name":"Beitou","alt":["Pei-t'ou","Pei-t’ou"],"lon":121.75,"lat":24.66667,"pop":0},{"id":1675171,"name":"Beitou","alt":["Hsin-chieh","Pei-t'ou","Pei-t'ou-hsin-chieh","Pei-t'ou-li","Pei-t’ou","Pei-t’ou-hsin-chieh","Pei-t’ou-li","bei tou","北投"],"lon":120.66268,"lat":23.9838,"pop":0},{"id":6587018,"name":"Beitou","alt":["Pei-t'ou","Pei-t’ou","bei tou","北頭"],"lon":120.4275,"lat":24.06278,"pop":0},{"id":6650394,"name":"Beitoubu","alt":["Pei-t'ou-pu","Pei-t’ou-pu","bei tou bu","北投埔"],"lon":120.66398,"lat":23.97532,"pop":0},{"id":1677893,"name":"Beitoujiujie","alt":["Beitoujioujie","Chiu-chieh","Pei-t'ou-chiu-chieh","Pei-t’ou-chiu-chieh","bei tou jiu jie","北投舊街"],"lon":120.65758,"lat":23.984,"pop":0},{"id":1670699,"name":"Beitouyang","alt":["Pei-t'ou","Pei-t'ou-yang","Pei-t’ou","Pei-t’ou-yang","bei tou yang","北頭洋"],"lon":120.15917,"lat":23.17722,"pop":0},{"id":1670686,"name":"Beitouzi","alt":["Pei-t'ou-tzu","Pei-t’ou-tzu"],"lon":121.03333,"lat":24.73333,"pop":0},{"id":6748803,"name":"Beitouzi","alt":["Beitouzih","Pei-t'ou-tzu","Pei-t’ou-tzu","bei tou zi","北投子"],"lon":121.45075,"lat":25.18626,"pop":0},{"id":1670682,"name":"Beitun","alt":["Pei-t'un","Pei-t'un-chuang","Pei-t’un","Pei-t’un-chuang","bei tun","北屯"],"lon":120.6957,"lat":24.163,"pop":0},{"id":6587709,"name":"Beituti","alt":["Pei-t'u-t'i","Pei-t’u-t’i","bei tu di","北突堤"],"lon":120.5275,"lat":24.27889,"pop":0},{"id":1669779,"name":"Beiwan","alt":["Pei-wan","Shang-pei-wan","bei wan","北灣"],"lon":120.99238,"lat":24.63948,"pop":0},{"id":1670673,"name":"Beiwancun","alt":["Pei-wan-ts'un","Pei-wan-ts’un","Wang-ts'o","Wang-ts’o"],"lon":120.26667,"lat":23.01667,"pop":0},{"id":6644841,"name":"Beiwanggongliao","alt":["Pei-wang-kung-liao","bei wang gong liao","北王功寮"],"lon":120.39717,"lat":23.97649,"pop":0},{"id":1670407,"name":"Beiwei","alt":["P'i-wei","P'i-wei-ts'un","Pei-wei","Pei-wei-ts'un","Pei-wei-ts’un","P’i-wei","P’i-wei-ts’un","bei wei","碑尾"],"lon":120.21,"lat":23.60222,"pop":0},{"id":1670668,"name":"Beiwo","alt":["Pei-wo","bei wo","北窩"],"lon":121.105,"lat":24.88333,"pop":0},{"id":1670670,"name":"Beiwo","alt":["Pei-wo","bei wo","北窩"],"lon":120.7176,"lat":24.52147,"pop":0},{"id":1670671,"name":"Beiwo","alt":["Pei-wo","bei wo","北窩"],"lon":120.91304,"lat":24.55105,"pop":0},{"id":1988372,"name":"Beiwo","alt":["Pei-wo","bei wo","北窩"],"lon":120.7325,"lat":24.46806,"pop":0},{"id":6640616,"name":"Beiwo","alt":["Pei-wo","bei wo","北窩"],"lon":121.11444,"lat":24.70389,"pop":0},{"id":6601939,"name":"Beiwudong","alt":["Pei-wu-tung","Wo-tzu-ti","bei wu dong","北武東"],"lon":120.2775,"lat":22.9275,"pop":0},{"id":1670667,"name":"Beiwushibi","alt":["Beiwushihbi","Pei-wu-shih-pi","bei wu shi bi","北烏石鼻"],"lon":121.4133,"lat":23.23522,"pop":0},{"id":6602384,"name":"Beixi","alt":["Beisi","Pei-hsi","bei xi","北溪"],"lon":121.23889,"lat":23.12333,"pop":0},{"id":6652401,"name":"Beixi","alt":["Beisi","Pei-hsi","bei xi","北溪"],"lon":121.29274,"lat":23.03663,"pop":0},{"id":6656419,"name":"Beixi","alt":["Beisi","Pei-hsi","bei xi","北溪"],"lon":121.46958,"lat":23.42697,"pop":0},{"id":6658180,"name":"Beixiang","alt":["Beisiang","Pei-hsiang","bei xiang","北巷"],"lon":120.58134,"lat":22.90363,"pop":0},{"id":6649893,"name":"Beixiangshan","alt":["Beisiangshan","Pei-hsiang-shan","bei xiang shan","北香山"],"lon":120.60447,"lat":23.84701,"pop":0},{"id":6574552,"name":"Beixiayinyingwo","alt":["Beisiayinyingwo","Pei-hsia-yin-ying-wo","bei xia yin ying wo","北下陰影窩"],"lon":121.08583,"lat":24.93833,"pop":0},{"id":1670835,"name":"Beixicuo","alt":["Beisicuo","Pei-ch'i-ts'o","Pei-ch’i-ts’o","Pei-hsi","Pei-hsi-ts'o","Pei-hsi-ts’o","bei xi cuo","北溪厝"],"lon":120.40043,"lat":23.71015,"pop":0},{"id":6646208,"name":"Beixing","alt":["Beising","Pei-hsing","bei xing","北興"],"lon":120.87112,"lat":24.64607,"pop":0},{"id":1670831,"name":"Beixinzhuang","alt":["Beisinjhuang","Pei-hsin-chuang","bei xin zhuang","北新庄"],"lon":121.50047,"lat":25.20419,"pop":0},{"id":6652159,"name":"Beixishui","alt":["Beisishuei","Pei-hsi-shui","bei xi shui","北洗水"],"lon":120.91671,"lat":24.44905,"pop":0},{"id":1670411,"name":"Beixiuren","alt":["Beisiouren","P'i-tzu-t'ou","Pei-hsiu-jen","P’i-tzu-t’ou","bei xiu ren","北修仁"],"lon":120.6255,"lat":23.80194,"pop":0},{"id":6652671,"name":"Beixizhou","alt":["Beisijhou","Pei-hsi-chou","bei xi zhou","北溪洲"],"lon":121.44328,"lat":23.66074,"pop":0},{"id":1670665,"name":"Beiye","alt":["Pei-yeh","Pei-yeh-ts'un","Pei-yeh-ts’un","bei ye","北葉"],"lon":120.6467,"lat":22.7075,"pop":0},{"id":6646242,"name":"Beiying","alt":["Pei-ying","bei ying","北營"],"lon":120.96054,"lat":24.63385,"pop":0},{"id":1670664,"name":"Beiyuan","alt":["Hua-k'u","Hua-k’u","Pei-yuan","Pei-yuan-ts'un","Pei-yüan","Pei-yüan-ts’un","bei yuan","北源"],"lon":121.28656,"lat":23.01998,"pop":0},{"id":6574542,"name":"Beiyuan","alt":["Pei-yuan","Pei-yüan","bei yuan","北苑"],"lon":121.24417,"lat":24.82028,"pop":0},{"id":1665454,"name":"Beiyuanlikeng","alt":["Pei-yuan-li-k'eng","Pei-yüan-li-k’eng","Yuan-k'eng-li","Yüan-k’eng-li","bei yuan li keng","北苑裡坑"],"lon":120.67194,"lat":24.44333,"pop":0},{"id":1670846,"name":"Beizhen","alt":["BeiJhen","Pei-ch'uan","Pei-chen","Pei-chun","Pei-chün","Pei-ch’üan","bei zhen","北圳"],"lon":120.28605,"lat":23.50001,"pop":0},{"id":1670866,"name":"Beizhen","alt":["Beijhen","Hou-chuang","Pei-chen","Pei-chen-ts'un","Pei-chen-ts’un","bei zhen","北鎮"],"lon":120.39159,"lat":23.63677,"pop":0},{"id":6649817,"name":"Beizhongshan","alt":["Beijhongshan","Pei-chung-shan","bei zhong shan","北中山"],"lon":120.59516,"lat":23.97748,"pop":0},{"id":1670849,"name":"Beizhuang","alt":["Beijhuang","Pei-chuang","bei zhuang","北莊"],"lon":120.88667,"lat":24.47114,"pop":0},{"id":1670850,"name":"Beizhuang","alt":["Beijhuang","Pei-chuang","Pei-chuang-ts'un","Pei-chuang-ts’un","bei zhuang","北莊"],"lon":120.66611,"lat":24.25889,"pop":0},{"id":1670848,"name":"Beizhuangzi","alt":["Beijhuangzih","Pei-chuang-tzu","bei zhuang zi","北莊子"],"lon":120.47382,"lat":23.05351,"pop":0},{"id":1991301,"name":"Beizhukeng","alt":["Beijhukeng","Pei-chu-k'eng","Pei-chu-k’eng","bei zhu keng","北竹坑"],"lon":120.86523,"lat":24.0279,"pop":0},{"id":1670679,"name":"Beizidian","alt":["Beizihdian","Pei-tzu-tien","bei zi dian","北仔店"],"lon":120.31201,"lat":23.13668,"pop":0},{"id":6601840,"name":"Beiziliao","alt":["Beizihliao","Pei-tzu-liao","bei zi liao","北仔寮"],"lon":120.35417,"lat":22.88056,"pop":0},{"id":1670676,"name":"Beizitou","alt":["Pei-tzu-t'ou","Pei-tzu-t’ou"],"lon":121.48333,"lat":25.15,"pop":0},{"id":6595156,"name":"Benbulang","alt":["Pen-pu-lang","ben bu lang","苯埔朗"],"lon":120.64861,"lat":22.30861,"pop":0},{"id":6749981,"name":"Benbuluo","alt":["Pen-pu-lo","Tso-chen Pen-pu-lo","ben bu luo","本部落"],"lon":120.4093,"lat":23.0457,"pop":0},{"id":1670608,"name":"Bencuo","alt":["Pen-t'ing","Pen-ts'o","Pen-ts'o-ts'un","Pen-ts’o","Pen-ts’o-ts’un","Pen-t’ing","ben cuo","本厝"],"lon":120.39293,"lat":23.5779,"pop":0},{"id":1670544,"name":"Benfu","alt":["P'ing-fu-ts'un","Pen-fu","Pen-fu-ts'un","Pen-fu-ts’un","P’ing-fu-ts’un","ben fu","本福"],"lon":120.37902,"lat":22.34766,"pop":0},{"id":1670626,"name":"Beng Shan","alt":["Peng-shan","beng shan","崩山"],"lon":121.68255,"lat":24.968,"pop":0},{"id":1670635,"name":"Bengbengshe","alt":["Peng-peng","Peng-peng-she","beng beng she","綳綳社"],"lon":121.03278,"lat":23.81639,"pop":0},{"id":6644934,"name":"Benggouliao","alt":["Peng-kou-liao","beng gou liao","崩溝寮"],"lon":120.3422,"lat":23.77335,"pop":0},{"id":6254518,"name":"Bengkan","alt":["Peng-k'an","Peng-k’an","beng kan","崩崁"],"lon":121.57917,"lat":23.89139,"pop":0},{"id":6650387,"name":"Bengkan","alt":["Peng-k'an","Peng-k'un","Peng-k’an","Peng-k’un","beng kan","崩崁"],"lon":120.656,"lat":23.95165,"pop":0},{"id":6646183,"name":"Bengkanding","alt":["Peng-k'an-ting","Peng-k’an-ting","beng kan ding","崩崁頂"],"lon":120.79511,"lat":24.60164,"pop":0},{"id":6599911,"name":"Bengkanjiao","alt":["Peng-k'an-chiao","Peng-k’an-chiao","beng kan jiao","崩崁脚"],"lon":120.70389,"lat":22.20778,"pop":0},{"id":6646266,"name":"Bengkanjiao","alt":["Peng-k'an-chiao","Peng-k’an-chiao","beng kan jiao","崩崁腳"],"lon":120.84594,"lat":24.65805,"pop":0},{"id":1670643,"name":"Bengkanxia","alt":["Bengkansia","Peng-k'an-hsia","Peng-k’an-hsia","beng kan xia","崩崁下"],"lon":120.71,"lat":24.45667,"pop":0},{"id":6656160,"name":"Bengliaohou","alt":["Peng-liao-hou","beng liao hou","崩寮後"],"lon":120.56922,"lat":23.39995,"pop":0},{"id":6656345,"name":"Bengliaotian","alt":["Peng-liao-t'ien","Peng-liao-t’ien","beng liao tian","崩寮田"],"lon":120.56859,"lat":23.40092,"pop":0},{"id":1666736,"name":"Bengpi","alt":["Peng-p'i","Peng-p’i","T'u-kou","T’u-kou","beng pi","崩埤"],"lon":120.38722,"lat":23.37444,"pop":0},{"id":1670633,"name":"Bengpi","alt":["Peng-p'i","Peng-p’i","beng pi","崩埤"],"lon":120.7489,"lat":23.8602,"pop":0},{"id":1670634,"name":"Bengpi","alt":["Peng-p'i","Peng-p’i","beng pi","崩埤"],"lon":120.36389,"lat":23.38444,"pop":0},{"id":6655656,"name":"Bengpizi","alt":["Bengpizih","Peng-p'i-tzu","Peng-p’i-tzu","beng pi zi","崩埤仔"],"lon":120.5042,"lat":23.5689,"pop":0},{"id":1670632,"name":"Bengpo","alt":["Peng-p'o","Peng-p’o","beng po","崩坡"],"lon":121.11972,"lat":24.895,"pop":0},{"id":6574144,"name":"Bengpoque","alt":["Bengpocyue","Peng-p'o-ch'ueh","Peng-p’o-ch’üeh","beng po que","崩坡缺"],"lon":121.04306,"lat":24.88,"pop":0},{"id":1670630,"name":"Bengpoxia","alt":["Bengposia","Peng-p'o-hsia","Peng-p’o-hsia","beng po xia","崩坡下"],"lon":121.11278,"lat":24.89472,"pop":0},{"id":1670624,"name":"Bengshan","alt":["Peng-shan","beng shan","崩山"],"lon":121.41946,"lat":25.12592,"pop":0},{"id":1670625,"name":"Bengshan","alt":["Peng-shan","beng shan","崩山"],"lon":121.62329,"lat":25.01323,"pop":0},{"id":1670627,"name":"Bengshan","alt":["Peng-shan","Peng-shan-hsia"],"lon":120.85,"lat":24.5,"pop":0},{"id":1678736,"name":"Bengshan","alt":["Chiang-shan","Chiang-shan-li","Chiang-shan-ts'un","Chiang-shan-ts’un","Peng-shan","beng shan","崩山"],"lon":120.19907,"lat":23.38268,"pop":0},{"id":6656302,"name":"Bengshan","alt":["Peng-shan","beng shan","崩山"],"lon":120.54041,"lat":23.39561,"pop":0},{"id":6643796,"name":"Bengshanhu","alt":["Peng-shan-hu","beng shan hu","崩山湖"],"lon":121.6738,"lat":24.7574,"pop":0},{"id":6749150,"name":"Bengshanjiao","alt":["Peng-shan-chiao","beng shan jiao","崩山腳"],"lon":121.35235,"lat":25.13002,"pop":0},{"id":1670618,"name":"Bengshankeng","alt":["Peng-shan-k'eng","Peng-shan-k’eng","Peng-tzu-k'eng","Peng-tzu-k’eng","beng shan keng","崩山坑"],"lon":121.8073,"lat":25.0099,"pop":0},{"id":1670622,"name":"Bengshankeng","alt":["Peng-shan-k'eng","Peng-shan-k’eng","beng shan keng","崩山坑"],"lon":121.69064,"lat":24.94838,"pop":0},{"id":6642353,"name":"Bengshankou","alt":["Peng-shan-k'ou","Peng-shan-k’ou","beng shan kou","崩山口"],"lon":121.55289,"lat":25.29085,"pop":0},{"id":6579832,"name":"Bengshanping","alt":["Peng-shan-p'ing","Peng-shan-p’ing","beng shan ping","崩山坪"],"lon":120.72333,"lat":23.70861,"pop":0},{"id":1670623,"name":"Bengshanxia","alt":["Bengshansia","Peng-shan-chiu-she","Peng-shan-hsia","beng shan xia","崩山下"],"lon":120.95625,"lat":24.56604,"pop":0},{"id":1670628,"name":"Bengshanxia","alt":["Bengshansia","P'eng-shan","Peng-shan-hsia","P’eng-shan","beng shan xia","崩山下"],"lon":120.80724,"lat":24.38424,"pop":0},{"id":6656203,"name":"Bengshanzi","alt":["Bengshanzih","Peng-shan-tzu","beng shan zi","崩山仔"],"lon":120.62325,"lat":23.44034,"pop":0},{"id":1670614,"name":"Benguan","alt":["Pen-kuan","Pen-kuan-li","ben guan","本館"],"lon":120.33023,"lat":22.65583,"pop":0},{"id":1670654,"name":"Bengxi","alt":["Peng-ch'i","Peng-ch’i","Peng-hsi"],"lon":120.3,"lat":22.55,"pop":0},{"id":1991743,"name":"Benjihu","alt":["Pen-chi-hu","ben ji hu","畚箕湖"],"lon":120.77632,"lat":24.19311,"pop":0},{"id":1993666,"name":"Benjihu","alt":["Pei-chi-hu","Pen-chi-hu","ben ji hu","畚箕湖"],"lon":120.70952,"lat":24.07212,"pop":0},{"id":6602212,"name":"Benjihu","alt":["Pen-chi-hu","ben ji hu","畚箕湖"],"lon":120.36833,"lat":22.90444,"pop":0},{"id":6646249,"name":"Benjihu","alt":["Pen-chi-hu","ben ji hu","畚箕湖"],"lon":120.90359,"lat":24.72488,"pop":0},{"id":6650213,"name":"Benjihu","alt":["Pen-chi-hu","ben ji hu","畚箕湖"],"lon":120.75424,"lat":23.84309,"pop":0},{"id":1678594,"name":"Benjike","alt":["Ch'i-chi-k'o","Ch’i-chi-k’o","Fen-chi-k'o","Fen-chi-k’o","Pen-chi-k'o","Pen-chi-k’o","ben ji ke","畚箕科"],"lon":120.43472,"lat":23.40111,"pop":0},{"id":1676688,"name":"Benjiwo","alt":["Fen-chi-wo","Pen-chi-wo","ben ji wo","畚箕窩"],"lon":120.78256,"lat":23.89579,"pop":0},{"id":6587322,"name":"Benjiwo","alt":["Pen-chi-wo","ben ji wo","畚箕窩"],"lon":120.72889,"lat":24.445,"pop":0},{"id":6595217,"name":"Benjiwo","alt":["Pen-chi-wo","ben ji wo","畚箕窩"],"lon":120.62944,"lat":22.36167,"pop":0},{"id":6646134,"name":"Benjiwo","alt":["Pen-chi-wo","ben ji wo","畚箕窩"],"lon":120.86332,"lat":24.56111,"pop":0},{"id":6658086,"name":"Benjiwo","alt":["Pen-chi-wo","ben ji wo","畚箕窩"],"lon":120.5616,"lat":22.89579,"pop":0},{"id":6640740,"name":"Benkeng","alt":["Pen-k'eng","Pen-k’eng","ben keng","本坑"],"lon":121.01111,"lat":24.63833,"pop":0},{"id":6646253,"name":"Benshanxia","alt":["Benshansia","Pen-shan-hsia","beng shan xia","崩山下"],"lon":120.95353,"lat":24.58945,"pop":0},{"id":1673755,"name":"Benshuangxizui","alt":["Benshuangsizuei","K'eng-k'ou","K’eng-k’ou","Mu-shuang-ch'i-tsui","Mu-shuang-ch’i-tsui","Mu-shuang-hsi-tsui","Pen-shuang-ch'i-tsui","Pen-shuang-ch’i-tsui","Pen-shuang-hsi-tsui","ben shuang xi zui","本雙溪嘴"],"lon":120.75289,"lat":24.0367,"pop":0},{"id":1670616,"name":"Benxie","alt":["Bensie","Mu-hsieh","Pen-hsieh","ben xie","本協"],"lon":120.38444,"lat":23.35361,"pop":0},{"id":6602463,"name":"Benyuan","alt":["Pen-yuan","Pen-yüan","Shui-ching-tzu","ben yuan","本源"],"lon":121.16278,"lat":23.05722,"pop":0},{"id":1670606,"name":"Benyuanliao","alt":["Pen-yuan-liao","Pen-yüan-liao","ben yuan liao","本淵寮"],"lon":120.17139,"lat":23.05083,"pop":0},{"id":1670659,"name":"Benzhou","alt":["Pen-chou","Pen-chou-ts'un","Pen-chou-ts’un"],"lon":120.25,"lat":22.81667,"pop":0},{"id":6601783,"name":"Benzhou","alt":["Benjhou","Pen-chou","ben zhou","本洲"],"lon":120.25972,"lat":22.81111,"pop":0},{"id":1670607,"name":"Benzigang","alt":["Benzihgang","Pen-tzu-chiang","Pen-tzu-kang","ben zi gang","笨仔港"],"lon":121.02389,"lat":24.97806,"pop":0},{"id":1993754,"name":"Bianfudong","alt":["Pien-fu-tung","bian fu dong","蝙蝠洞"],"lon":120.75111,"lat":23.99952,"pop":0},{"id":1670586,"name":"Biantou","alt":["Pien-t'ou","Pien-t'ou-ts'un","Pien-t’ou","Pien-t’ou-ts’un","bian tou","汴頭"],"lon":120.50083,"lat":24.14306,"pop":0},{"id":1670587,"name":"Biantou","alt":["Pien-t'ou","Pien-t’ou","bian tou","汴頭"],"lon":120.4734,"lat":23.9546,"pop":0},{"id":1670588,"name":"Biantou","alt":["Pien-t'ou","Pien-t’ou","bian tou","汴頭"],"lon":120.53534,"lat":23.44274,"pop":0},