[{"id":3439661,"name":"25 de Agosto","alt":["Veinticinco de Agosto"],"lon":-56.40222,"lat":-34.41167,"pop":1849},{"id":3439659,"name":"25 de Mayo","alt":["Isla Mala","Veinticinco de Mayo"],"lon":-56.33944,"lat":-34.18917,"pop":1852},{"id":3480817,"name":"Abayuba","lon":-56.21389,"lat":-34.76417,"pop":0},{"id":10641879,"name":"Abra de Castellanos","lon":-55.37478,"lat":-34.62969,"pop":0},{"id":10098384,"name":"Abra de Perdomo","lon":-54.98638,"lat":-34.73965,"pop":0},{"id":3443957,"name":"Abrojal","lon":-55.01667,"lat":-31.75,"pop":0},{"id":3443952,"name":"Aceguá","alt":["Acegua"],"lon":-54.16351,"lat":-31.87178,"pop":1511},{"id":3443948,"name":"Achar","alt":["Pueblo Achar"],"lon":-56.18073,"lat":-32.4029,"pop":0},{"id":3443945,"name":"Achiras","lon":-54.43333,"lat":-33.53333,"pop":0},{"id":3443941,"name":"Acosta","lon":-53.84377,"lat":-33.24489,"pop":0},{"id":3443939,"name":"Agraciada","alt":["Pueblo la Agraciada"],"lon":-58.26669,"lat":-33.80981,"pop":586},{"id":10097999,"name":"Aguada","lon":-56.18889,"lat":-34.89142,"pop":0},{"id":3443929,"name":"Aguas Buenas","lon":-55.8,"lat":-32.8,"pop":0},{"id":3443928,"name":"Aguas Corrientes","lon":-56.39361,"lat":-34.52194,"pop":1047},{"id":3443927,"name":"Aguas Dulces","alt":["Agua Dulce","Balneario Agua Dulce"],"lon":-53.78206,"lat":-34.27448,"pop":0},{"id":3443922,"name":"Águila","alt":["Aguila","Arroyo Aguila"],"lon":-57.98333,"lat":-33.6,"pop":0},{"id":3443923,"name":"Águila","lon":-53.61667,"lat":-32.66667,"pop":0},{"id":3443914,"name":"Aguirre","lon":-54.76667,"lat":-32.36667,"pop":0},{"id":3443911,"name":"Ahogados","lon":-56.46667,"lat":-33.75,"pop":0},{"id":3443909,"name":"Aiguá","alt":["Aigua","Pueblo de Aigua","Pueblo de Aiguá"],"lon":-54.75665,"lat":-34.20498,"pop":2465},{"id":10098009,"name":"Aires Puros","lon":-56.18846,"lat":-34.85153,"pop":0},{"id":3443896,"name":"Albisu","lon":-57.81469,"lat":-31.38411,"pop":544},{"id":3443892,"name":"Aldecoa","lon":-56.9,"lat":-33.55,"pop":0},{"id":3443183,"name":"Alejandro Gallinal","alt":["Cerro Colorado"],"lon":-55.54264,"lat":-33.86252,"pop":1357},{"id":3443889,"name":"Alejandro Gallinal","lon":-55.55,"lat":-33.81667,"pop":0},{"id":3443880,"name":"Algorta","lon":-57.38929,"lat":-32.42124,"pop":779},{"id":10637102,"name":"Alonso","lon":-54.38803,"lat":-33.41994,"pop":0},{"id":10865144,"name":"Alonso","lon":-56.7252,"lat":-32.39373,"pop":0},{"id":3443861,"name":"Anastasia","lon":-54.38333,"lat":-33.21667,"pop":0},{"id":3443859,"name":"Andresito","lon":-57.12847,"lat":-33.16831,"pop":261},{"id":3443847,"name":"Ansina","alt":["Borracho","El Borracho","Paso del Borracho","Poblado del Borracho"],"lon":-55.46482,"lat":-31.87836,"pop":0},{"id":10098576,"name":"Arachania","lon":-54.15067,"lat":-34.61484,"pop":0},{"id":3443834,"name":"Araújo","lon":-57.81667,"lat":-32.1,"pop":0},{"id":10865630,"name":"Araújo","alt":["Araujo"],"lon":-57.74471,"lat":-31.99628,"pop":0},{"id":3443827,"name":"Arbolito","lon":-54.25,"lat":-32.65,"pop":0},{"id":3443828,"name":"Arbolito","alt":["Totoral"],"lon":-56.45703,"lat":-32.21628,"pop":0},{"id":3443803,"name":"Arenal","alt":["Puntas del Arenal Chico"],"lon":-55.78333,"lat":-34.45,"pop":0},{"id":10943925,"name":"Arenal Chico","lon":-57.11022,"lat":-33.5785,"pop":0},{"id":3443799,"name":"Arenales","alt":["Arenal","Puntas del Arenal"],"lon":-58.26667,"lat":-33.71667,"pop":0},{"id":10098370,"name":"Arenas de José Ignacio","lon":-54.62244,"lat":-34.82226,"pop":0},{"id":3443794,"name":"Arenitas Blancas","lon":-57.99997,"lat":-31.41613,"pop":0},{"id":3443788,"name":"Arévalo","alt":["Arevalo","Pueblito Arevalo"],"lon":-55.07807,"lat":-32.63916,"pop":0},{"id":3443785,"name":"Argentino","alt":["Balneario Argentino"],"lon":-55.45435,"lat":-34.79268,"pop":0},{"id":3443771,"name":"Arriera","lon":-54.56667,"lat":-32.03333,"pop":0},{"id":3443769,"name":"Arroyo Blanco","lon":-54.79095,"lat":-31.6333,"pop":0},{"id":3443767,"name":"Arroyo de la Virgen","lon":-56.4,"lat":-34.13333,"pop":0},{"id":3443764,"name":"Arroyo Malo","lon":-56.93333,"lat":-33.33333,"pop":0},{"id":10865081,"name":"Arroyo Negro","lon":-57.56007,"lat":-32.47723,"pop":0},{"id":3443763,"name":"Arroyo Seco","lon":-56.2,"lat":-34.88333,"pop":0},{"id":3443761,"name":"Arrozal Treinta y Tres","lon":-53.69699,"lat":-33.04263,"pop":0},{"id":3443760,"name":"Arrozal Victoria","lon":-53.88556,"lat":-33.35122,"pop":0},{"id":3443758,"name":"Artigas","alt":["ATI","Artigasas","San Eugenio","a di jia si","aleutigaseu","artygas  arwgwyh","arutigasu","Αρτίγας","Артигас","Արտիգաս","آرتیگاس، اروگوئه","آرتیگاس، یوراگوئے","არტიგასი","アルティガス","阿蒂加斯","아르티가스"],"lon":-56.46667,"lat":-30.4,"pop":41909},{"id":3443753,"name":"Artilleros","lon":-57.57631,"lat":-34.42551,"pop":0},{"id":10098015,"name":"Atahualpa","lon":-56.1897,"lat":-34.86474,"pop":0},{"id":3443737,"name":"Atlántida","alt":["Atlantida","Atlantyda","Playa Atlantida","Playa Atlántida","a te lan di da","atlantyda  arwgwyh","Атлантида","Атлантыда","Ատլանտիդա","آتلانتیدا، اروگوئه","اتلانتیدا، یوراگوئے","阿特蘭蒂達"],"lon":-55.7584,"lat":-34.7719,"pop":5562},{"id":10098425,"name":"Balneario Buenos Aires","lon":-54.79311,"lat":-34.8884,"pop":0},{"id":10174968,"name":"Balneario Ipora","lon":-55.96397,"lat":-31.66653,"pop":0},{"id":3443697,"name":"Baltasar Brum","alt":["Cabellos","Estacion Isla Cabello","Estacion Isla de Cabello","Estación Isla Cabello","Estación Isla de Cabello","Isla Cabello","Isla Cabellos","Isla de Cabellos","Pueblo Isla Cabellos"],"lon":-57.32596,"lat":-30.71905,"pop":2531},{"id":10641288,"name":"Bañado de los Olivera","alt":["Banado de los Olivera"],"lon":-54.44018,"lat":-33.20238,"pop":0},{"id":3443693,"name":"Bañado de Medina","lon":-54.3483,"lat":-32.40207,"pop":0},{"id":3443688,"name":"Bañado de Rocha","lon":-55.85,"lat":-31.6,"pop":0},{"id":3443689,"name":"Bañado de Rocha","lon":-55.83333,"lat":-31.53333,"pop":0},{"id":3443680,"name":"Barker","lon":-57.45598,"lat":-34.26025,"pop":158},{"id":11171835,"name":"Barker Norte","lon":-57.47759,"lat":-34.22026,"pop":0},{"id":3480822,"name":"Barra de Carrasco","lon":-56.02972,"lat":-34.87722,"pop":5410},{"id":3443673,"name":"Barra de Maldonado","lon":-54.86667,"lat":-34.86667,"pop":0},{"id":3439671,"name":"Barra de Valizas","alt":["Balizas","Valizas"],"lon":-53.79582,"lat":-34.33611,"pop":330},{"id":3443676,"name":"Barra del Chuy","alt":["Balneario Barra del Chuy","Barra Do Chuy","La Barra"],"lon":-53.37935,"lat":-33.74911,"pop":0},{"id":3443663,"name":"Barra Tapado","lon":-56.75,"lat":-31.6,"pop":0},{"id":11171799,"name":"Barrancas Coloradas","lon":-57.22092,"lat":-34.24175,"pop":0},{"id":10944566,"name":"Barrio Artigas","lon":-57.89955,"lat":-31.38749,"pop":0},{"id":10943758,"name":"Barrio Centenario","lon":-58.28504,"lat":-34.00682,"pop":0},{"id":10098391,"name":"Barrio Hipódromo","lon":-54.94314,"lat":-34.86153,"pop":0},{"id":10642756,"name":"Barrio La Coronilla-Ancap","lon":-55.29901,"lat":-34.39465,"pop":0},{"id":9883528,"name":"Barrio La Falda","lon":-55.2696,"lat":-34.85287,"pop":0},{"id":10174966,"name":"Barrio La Humedad","lon":-55.01554,"lat":-32.17144,"pop":0},{"id":9883529,"name":"Barrio Los Angeles","lon":-55.28698,"lat":-34.85333,"pop":0},{"id":10174969,"name":"Barrio Los Molles","lon":-55.94934,"lat":-31.68673,"pop":0},{"id":10636331,"name":"Barrio Pereira","lon":-53.52086,"lat":-33.88455,"pop":0},{"id":10098021,"name":"Barrio Sur","lon":-56.18876,"lat":-34.91219,"pop":0},{"id":10634590,"name":"Barrio Torres","lon":-53.84475,"lat":-34.21078,"pop":0},{"id":10098279,"name":"Barros Blancos","lon":-56.00259,"lat":-34.7524,"pop":31650},{"id":3443650,"name":"Baygorria","alt":["Rincon de Baygorria","Rincón de Baygorria"],"lon":-56.81343,"lat":-32.87676,"pop":0},{"id":3443645,"name":"Beisso","lon":-57.05322,"lat":-32.31529,"pop":0},{"id":3443644,"name":"Belén","alt":["Belen"],"lon":-57.77577,"lat":-30.78716,"pop":2033},{"id":10943750,"name":"Belgrano Norte","lon":-58.34832,"lat":-33.88143,"pop":0},{"id":10943749,"name":"Belgrano Sur","lon":-58.38106,"lat":-33.90905,"pop":0},{"id":3443632,"name":"Bella Italia","alt":["Balneario Bella Italia"],"lon":-56.11667,"lat":-34.83333,"pop":0},{"id":3443631,"name":"Bella Unión","alt":["BUV","Bel'ja Union","Bel'ja-Un'on","Belja Unionas","Bella Union","Belya Ownon","Santa Rosa","Santa Rosa del Cuareim","bei ya wu ni weng","bla ywnywn","bya awnyn","Белья Уніон","Белья-Уньон","Բելյա Ունոն","بلا یونیون","بیا اونین","貝亞烏尼翁"],"lon":-57.59919,"lat":-30.25966,"pop":12200},{"id":3443627,"name":"Bella Vista","lon":-55.35692,"lat":-34.80218,"pop":0},{"id":3443628,"name":"Bella Vista","alt":["Barrio de Bella Vista"],"lon":-56.20052,"lat":-34.87743,"pop":0},{"id":3443629,"name":"Bella Vista","lon":-57,"lat":-34.31667,"pop":0},{"id":10866526,"name":"Bella Vista","lon":-57.71978,"lat":-31.66235,"pop":0},{"id":3443637,"name":"Bellaco","lon":-57.88374,"lat":-32.76394,"pop":0},{"id":10861465,"name":"Bello Horizonte","lon":-55.64065,"lat":-34.77098,"pop":0},{"id":3443622,"name":"Belvedere","lon":-56.21667,"lat":-34.85,"pop":0},{"id":3443614,"name":"Bernabé Rivera","alt":["Bernabe Rivera"],"lon":-56.97047,"lat":-30.2983,"pop":0},{"id":10861910,"name":"Berrondo","lon":-56.27753,"lat":-34.14737,"pop":0},{"id":3443611,"name":"Biarritz","alt":["Balneario Biarritz"],"lon":-55.51387,"lat":-34.79191,"pop":0},{"id":3443610,"name":"Biassini","lon":-57.12414,"lat":-31.2759,"pop":345},{"id":3443608,"name":"Bifurcación","lon":-56.8,"lat":-34.31667,"pop":0},{"id":10943803,"name":"Bizcocho","lon":-58.13386,"lat":-33.43096,"pop":0},{"id":11171782,"name":"Blanca Arena","lon":-57.29673,"lat":-34.43565,"pop":0},{"id":3443588,"name":"Blanquillo","lon":-55.63333,"lat":-32.76667,"pop":1084},{"id":3443574,"name":"Blanquillos","alt":["Blanquillo","Poblado Blanquillo"],"lon":-55.83333,"lat":-32.35,"pop":0},{"id":10943547,"name":"Boca del Cufré","alt":["Boca del Cufre"],"lon":-57.14762,"lat":-34.44232,"pop":0},{"id":3443572,"name":"Boca del Rosario","lon":-57.33355,"lat":-34.4332,"pop":0},{"id":11171781,"name":"Boca del Rosario Oeste","lon":-57.3349,"lat":-34.43411,"pop":0},{"id":3443564,"name":"Bolívar","alt":["Bolivar"],"lon":-55.72956,"lat":-34.22239,"pop":0},{"id":10098029,"name":"Bolívar","lon":-56.15726,"lat":-34.869,"pop":0},{"id":3443560,"name":"Boné","lon":-57.83333,"lat":-34.03333,"pop":0},{"id":10944764,"name":"Bordenave","lon":-56.6868,"lat":-31.08354,"pop":0},{"id":10098033,"name":"Brazo Oriental","lon":-56.1761,"lat":-34.86414,"pop":0},{"id":3443539,"name":"Brigadier General Diego Lamas","alt":["Diego Lamas"],"lon":-57.05441,"lat":-30.7554,"pop":0},{"id":10943548,"name":"Brisas del Plata","lon":-57.16926,"lat":-34.44277,"pop":0},{"id":11171783,"name":"Britópolis","alt":["Britopolis"],"lon":-57.27134,"lat":-34.43276,"pop":0},{"id":3443533,"name":"Buceo","lon":-56.13333,"lat":-34.9,"pop":0},{"id":3443529,"name":"Buena Hora","alt":["Buenahora"],"lon":-58.13294,"lat":-34.07647,"pop":0},{"id":3443528,"name":"Buena Unión","lon":-55.63333,"lat":-31.23333,"pop":0},{"id":3443527,"name":"Buena Vista","lon":-54.2,"lat":-32.15,"pop":0},{"id":8521750,"name":"Buenos Aires","lon":-54.94301,"lat":-34.93995,"pop":0},{"id":3443496,"name":"Cabo Polonio","alt":["Faro de Polonio","Faro del Polonio","Polonio"],"lon":-53.78264,"lat":-34.4024,"pop":0},{"id":8057962,"name":"Cainsa","alt":["Cainsa Itacumbu","Cainsa Itacumbú"],"lon":-57.61513,"lat":-30.38704,"pop":0},{"id":10944871,"name":"Cainsa Campo Tres","lon":-57.73262,"lat":-30.4304,"pop":0},{"id":3443472,"name":"Camaño","lon":-56.88333,"lat":-30.56667,"pop":0},{"id":3443470,"name":"Cambará","lon":-56.46667,"lat":-31.11667,"pop":0},{"id":3443463,"name":"Came","lon":-57.61667,"lat":-33.86667,"pop":0},{"id":3443458,"name":"Campana","lon":-57.90204,"lat":-34.03263,"pop":0},{"id":10642764,"name":"Campanero","lon":-55.24995,"lat":-34.33066,"pop":0},{"id":3443449,"name":"Campo de Todos","lon":-57.61399,"lat":-31.55959,"pop":0},{"id":3443447,"name":"Cañada Chica","alt":["Canada Chica"],"lon":-53.98169,"lat":-33.31698,"pop":0},{"id":3443445,"name":"Cañada del Pueblo","alt":["Canada del Pueblo"],"lon":-57.18205,"lat":-31.94759,"pop":0},{"id":3443446,"name":"Cañada del Pueblo","lon":-57.25,"lat":-31.83333,"pop":0},{"id":3443444,"name":"Cañada Nieto","alt":["Canada Nieto"],"lon":-58.10903,"lat":-33.69874,"pop":0},{"id":3443443,"name":"Cañada Sauce","lon":-54.31667,"lat":-32.46667,"pop":0},{"id":3443437,"name":"Cañas","lon":-56.01667,"lat":-31.3,"pop":0},{"id":3443418,"name":"Candil","lon":-56.3,"lat":-34.06667,"pop":0},{"id":3443413,"name":"Canelones","alt":["Guadalupe","Villa de Canelones"],"lon":-56.27778,"lat":-34.52278,"pop":19698},{"id":3443408,"name":"Canepa","lon":-55.25,"lat":-34.51667,"pop":0},{"id":3443404,"name":"Cañitas","alt":["Canas","Canitas","Cañas"],"lon":-53.83333,"lat":-32.35,"pop":0},{"id":10098397,"name":"Canteras de Marelli","lon":-54.94512,"lat":-34.84354,"pop":0},{"id":3480818,"name":"Cap. Juan A. Artigas","lon":-56.02056,"lat":-34.7625,"pop":0},{"id":10636316,"name":"Capacho","lon":-53.52865,"lat":-33.89474,"pop":0},{"id":10861485,"name":"Capilla de Cella","lon":-55.51891,"lat":-34.69886,"pop":0},{"id":3443391,"name":"Capilla de Farruco","alt":["Capilla Farruco"],"lon":-55.41667,"lat":-32.88333,"pop":0},{"id":3443389,"name":"Capilla del Sauce","lon":-55.62848,"lat":-33.46711,"pop":0},{"id":10944664,"name":"Capón de la Yerba","alt":["Capon de la Yerba"],"lon":-56.05016,"lat":-31.6164,"pop":0},{"id":3443376,"name":"Capurro","alt":["Barrio de Capurro"],"lon":-56.21618,"lat":-34.87048,"pop":0},{"id":3443377,"name":"Capurro","lon":-56.46447,"lat":-34.43662,"pop":771},{"id":3443372,"name":"Caraballo","lon":-57.65,"lat":-32.93333,"pop":0},{"id":3443365,"name":"Caraguatá","lon":-54.75,"lat":-31.78333,"pop":0},{"id":3443356,"name":"Cardal","lon":-56.38889,"lat":-34.29056,"pop":1291},{"id":3443352,"name":"Cardona","lon":-57.36954,"lat":-33.87049,"pop":4600},{"id":3443350,"name":"Cardoso","alt":["Cardozo","Maximo Tajes","Pueblo Cardozo"],"lon":-56.32657,"lat":-32.64345,"pop":0},{"id":3443344,"name":"Cardozo Chico","lon":-56.30704,"lat":-32.4566,"pop":0},{"id":3443342,"name":"Carlos Reyles","lon":-56.47652,"lat":-33.05658,"pop":976},{"id":3443341,"name":"Carmelo","alt":["Karmelas","Karmelo","Las Viboras","Las Víboras","ka mei luo","karmlw  arwgwyh","Кармело","Կարմելո","کارملو، اروگوئه","კარმელო","卡梅洛"],"lon":-58.28402,"lat":-34.00023,"pop":18041},{"id":3443326,"name":"Carpintería","alt":["Carpinteria","Paso de Carpinteria","Paso de Carpintería"],"lon":-56.18333,"lat":-32.83333,"pop":0},{"id":3480823,"name":"Carrasco","lon":-56.06056,"lat":-34.88528,"pop":0},{"id":10098077,"name":"Carrasco Norte","lon":-56.06692,"lat":-34.87467,"pop":0},{"id":10943621,"name":"Carreta Quemada","lon":-56.55232,"lat":-34.17262,"pop":0},{"id":10866757,"name":"Carumbé","alt":["Carumbe"],"lon":-56.60372,"lat":-31.52306,"pop":0},{"id":3443301,"name":"Casa Blanca","alt":["Casas Blancas"],"lon":-58.16151,"lat":-32.39684,"pop":0},{"id":10121513,"name":"Casaba","lon":-56.27446,"lat":-34.88484,"pop":0},{"id":10861755,"name":"Castellanos","lon":-55.95731,"lat":-34.37772,"pop":0},{"id":3443289,"name":"Castillos","alt":["Palmara de Castillos","Pueblo de San Vicente de Castillos","San Vicente de Castillos"],"lon":-53.85919,"lat":-34.19871,"pop":7541},{"id":3443290,"name":"Castillos","alt":["Castillo"],"lon":-57.66667,"lat":-33.88333,"pop":0},{"id":9883523,"name":"Castillos","lon":-53.82202,"lat":-34.16168,"pop":0},{"id":3443280,"name":"Casupá","alt":["Casupa","Estacion Casupa","Estación Casupá"],"lon":-55.64811,"lat":-34.09994,"pop":2402},{"id":3443256,"name":"Cebollatí","alt":["Cebollati","Pueblo Cebollati","Pueblo Cebollatí"],"lon":-53.79425,"lat":-33.26703,"pop":1609},{"id":3443253,"name":"Ceibal","lon":-55.51667,"lat":-32.88333,"pop":0},{"id":3443220,"name":"Centro","lon":-56.19444,"lat":-34.90528,"pop":0},{"id":3443217,"name":"Centurión","alt":["Centurion","Latorre"],"lon":-53.78839,"lat":-32.14485,"pop":0},{"id":3443214,"name":"Cerrezuelo","lon":-55.43333,"lat":-32.76667,"pop":0},{"id":3443212,"name":"Cerrillada","lon":-56.83333,"lat":-31.65,"pop":0},{"id":3443213,"name":"Cerrillada","lon":-54.70999,"lat":-31.43982,"pop":0},{"id":10944737,"name":"Cerrilladas de Saucedo","lon":-57.5206,"lat":-31.13925,"pop":0},{"id":10861691,"name":"Cerrillos al Sur","lon":-56.35614,"lat":-34.63688,"pop":0},{"id":3443207,"name":"Cerrito","lon":-56.08143,"lat":-34.57019,"pop":0},{"id":3443194,"name":"Cerro Alegre","lon":-57.95,"lat":-33.33333,"pop":0},{"id":3443193,"name":"Cerro Caqueira","lon":-55.48333,"lat":-30.93333,"pop":0},{"id":3443189,"name":"Cerro Chato","lon":-55.13333,"lat":-33.1,"pop":0},{"id":3443190,"name":"Cerro Chato","lon":-57.54004,"lat":-31.86279,"pop":0},{"id":10098317,"name":"Cerro Colorado","lon":-56.79895,"lat":-33.72621,"pop":0},{"id":3443181,"name":"Cerro Convento","lon":-55.65,"lat":-32.75,"pop":0},{"id":3443179,"name":"Cerro de las Armas","lon":-57.72325,"lat":-34.06596,"pop":0},{"id":3443178,"name":"Cerro de las Cuentas","lon":-54.59275,"lat":-32.6243,"pop":0},{"id":7731686,"name":"Cerro Ejido","lon":-56.46556,"lat":-30.42694,"pop":0},{"id":10121515,"name":"Cerro Norte","lon":-56.25987,"lat":-34.87143,"pop":0},{"id":10098401,"name":"Cerro Pelado","lon":-54.97674,"lat":-34.88153,"pop":0},{"id":3443169,"name":"Cerro Pelado del Este","lon":-55.15377,"lat":-31.47055,"pop":0},{"id":3443160,"name":"Cerro Vera","alt":["Vera"],"lon":-57.46667,"lat":-33.18333,"pop":0},{"id":10098531,"name":"Cerros Azules","lon":-55.36504,"lat":-34.76598,"pop":0},{"id":3443166,"name":"Cerros Blancos","lon":-54.8,"lat":-31.76667,"pop":0},{"id":3443164,"name":"Cerros de los Rochas","lon":-53.85,"lat":-34.16667,"pop":0},{"id":3439638,"name":"Cerros de Vera","alt":["Vera","Veras"],"lon":-56.81058,"lat":-31.59924,"pop":0},{"id":3443159,"name":"Chacarita","alt":["Balneario Chacarita"],"lon":-56.08333,"lat":-34.85,"pop":0},{"id":10944862,"name":"Chacras de Belén","alt":["Chacras de Belen"],"lon":-57.77372,"lat":-30.80745,"pop":0},{"id":10944755,"name":"Chacras de Constitución","alt":["Chacras de Constitucion"],"lon":-57.7893,"lat":-31.07248,"pop":0},{"id":10943701,"name":"Chacras de Dolores","lon":-58.21093,"lat":-33.55424,"pop":0},{"id":3443136,"name":"Chamberlain","lon":-56.47744,"lat":-32.68858,"pop":0},{"id":3443133,"name":"Chamizo","lon":-55.91673,"lat":-34.24132,"pop":0},{"id":3443134,"name":"Chamizo","lon":-56.68333,"lat":-34.16667,"pop":0},{"id":3443112,"name":"Chapicuy","lon":-57.88809,"lat":-31.66048,"pop":735},{"id":8555966,"name":"Chihuahua","lon":-55.0888,"lat":-34.8741,"pop":0},{"id":3443077,"name":"Chilcas","lon":-55.66667,"lat":-33.55,"pop":0},{"id":3443061,"name":"Chui","alt":["Chuj","Chuy","chwy","Чуй","Չույ","چوی"],"lon":-53.45926,"lat":-33.69792,"pop":9675},{"id":7838849,"name":"City Park","alt":["Parque Carrasco","Parque de Carrasco"],"lon":-56.00917,"lat":-34.85806,"pop":0},{"id":7602710,"name":"Ciudad de la Costa","alt":["S'judad-de-la-Kosta","Siudad de la Kosta","Sjudad de la Kost","Syudad de la Kosta","hai an cheng","siudadeudelakoseuta","sywdad dla kwsta","Сьюдад-де-ла-Коста","Սյուդադ դե լա Կոստա","سیوداد دلا کوستا","سیوداد دے لا کوستا","სიუდად-დე-ლა-კოსტა","シウダ・デ・ラ・コスタ","海岸城","시우다드데라코스타"],"lon":-55.952,"lat":-34.81972,"pop":0},{"id":10098634,"name":"Ciudad del Plata","lon":-56.38381,"lat":-34.767,"pop":0},{"id":3473789,"name":"Ciudad Vieja","alt":["Cidade Velha"],"lon":-56.20833,"lat":-34.90833,"pop":0},{"id":3443052,"name":"Clara","lon":-55.73224,"lat":-32.22414,"pop":0},{"id":10861473,"name":"Colinas de Solymar","lon":-55.95949,"lat":-34.80334,"pop":0},{"id":3443036,"name":"Colla","lon":-57.35,"lat":-34.06667,"pop":0},{"id":3443030,"name":"Colón","alt":["Colon","Villa Colon","Villa Colón"],"lon":-56.23333,"lat":-34.8,"pop":0},{"id":3443031,"name":"Colón","alt":["Coion","Colon"],"lon":-54.72034,"lat":-33.87642,"pop":0},{"id":10943927,"name":"Colonia Alemana","lon":-57.02524,"lat":-33.46183,"pop":0},{"id":3443021,"name":"Colonia América","lon":-56.98333,"lat":-34.2,"pop":0},{"id":3443019,"name":"Colonia Arrué","alt":["Colonia Arrue"],"lon":-58.15263,"lat":-34.0165,"pop":0},{"id":10944943,"name":"Colonia Brigadier General Rivera","lon":-56.55363,"lat":-30.40482,"pop":0},{"id":11171798,"name":"Colonia Cosmopolita","lon":-57.40187,"lat":-34.38481,"pop":0},{"id":3443013,"name":"Colonia del Sacramento","alt":["CYR","Ciudad de la Colonia del Sacramento","Colonia","Colonia do Sacramento","Colônia do Sacramento","Kolonia del Sakramento","Kolonia ntel Sakramento","Kolonija","Kolonija del Sakramentas","Kolonija del Sakramento","Kolonija del' Sakramento","Kolonija-del'-Sakramento","La Ciudad de Colonia","Sacramento","Sakramento koloniyasi","Sakramento koloniyası","cakramento kutiyerrap pakuti","ke luo ni ya·de er·sha jia mian du","kolloniadelsakeulamento","koloniya dela sakramento","kwlwnya dl sakramntw","kwlwnya dyl sakramyntw","qwlwnyh dl sqrmntw","Κολόνια ντελ Σακραμέντο","Колония дел Сакраменто","Колония дель Сакраменто","Колония-дель-Сакраменто","Колонија дел Сакраменто","Колонія-дель-Сакраменто","Կոլոնիա դել Սակրամենտո","קולוניה דל סקרמנטו","کولونیا دل ساکرامنتو","کولونیا دیل ساکرامینتو","কোলোনিয়া দেল সাক্রামেন্তো","சாக்ரமெந்தோ குடியேற்றப் பகுதி","კოლონია-დელ-საკრამენტო","コロニア・デル・サクラメント","科洛尼亞·德爾·沙加緬度","콜로니아델사크라멘토"],"lon":-57.83976,"lat":-34.46262,"pop":21714},{"id":10943830,"name":"Colonia Díaz","alt":["Colonia Diaz"],"lon":-58.03778,"lat":-33.32708,"pop":0},{"id":3443010,"name":"Colonia Diecinueve de Abril","alt":["Colonia 19 de Abril"],"lon":-57.8,"lat":-32.33333,"pop":0},{"id":3443009,"name":"Colonia Dieciocho de Julio","lon":-57.87492,"lat":-31.3579,"pop":0},{"id":3443007,"name":"Colonia España","lon":-57.64274,"lat":-30.36451,"pop":0},{"id":3443006,"name":"Colonia Española","alt":["Colonia Espanola","Espanola Colonia Agricola","Española Colonia Agrícola"],"lon":-57.16667,"lat":-34.4,"pop":0},{"id":3443005,"name":"Colonia Estrella","lon":-58.28926,"lat":-33.96401,"pop":0},{"id":10944685,"name":"Colonia Itapebí","alt":["Colonia Itapebi"],"lon":-57.40708,"lat":-31.33756,"pop":460},{"id":3442999,"name":"Colonia Jefferies","lon":-54.33333,"lat":-33.25,"pop":0},{"id":3442993,"name":"Colonia Lavalleja","alt":["Lavalleja"],"lon":-57.02332,"lat":-31.09386,"pop":956},{"id":3480820,"name":"Colonia Nicolich","lon":-56.02435,"lat":-34.81516,"pop":8902},{"id":8538180,"name":"Colonia Palma","lon":-57.67796,"lat":-30.58416,"pop":0},{"id":3442984,"name":"Colonia Rosario","alt":["Colonia Piamontesa","Colonia Valdense"],"lon":-57.28333,"lat":-34.41667,"pop":0},{"id":3442983,"name":"Colonia Rossell y Rius","alt":["Rossell y Rius"],"lon":-55.7,"lat":-33.18333,"pop":0},{"id":3442980,"name":"Colonia Suiza","alt":["Nueva Helvecia"],"lon":-57.21667,"lat":-34.31667,"pop":0},{"id":3439696,"name":"Colonia Valdense","alt":["Piamontesa","Valdense"],"lon":-57.26246,"lat":-34.33957,"pop":3235},{"id":8058822,"name":"Colonia Viñar","alt":["Colonia Vinar"],"lon":-57.6156,"lat":-30.46747,"pop":0},{"id":3442958,"name":"Conchillas","lon":-58.03393,"lat":-34.16477,"pop":401},{"id":3440958,"name":"Conciliación","alt":["Conciliacion","Pueblo Conciliacion","Pueblo Conciliación"],"lon":-56.23333,"lat":-34.83333,"pop":0},{"id":3442949,"name":"Conde","lon":-57.11667,"lat":-32.93333,"pop":0},{"id":3442942,"name":"Constancia","lon":-58.00741,"lat":-32.20657,"pop":0},{"id":3442933,"name":"Coquimbo","lon":-57.73333,"lat":-33.45,"pop":0},{"id":3443936,"name":"Cordon","lon":-56.18333,"lat":-34.9,"pop":0},{"id":3442926,"name":"Cordón","alt":["Cordon"],"lon":-56.16833,"lat":-34.905,"pop":0},{"id":8057940,"name":"Coronado","lon":-57.61119,"lat":-30.29785,"pop":0},{"id":3442925,"name":"Coronilla","lon":-54.73333,"lat":-31.91667,"pop":0},{"id":3442899,"name":"Corral de Piedra","lon":-56.45,"lat":-33.88333,"pop":0},{"id":3442895,"name":"Corrales","lon":-54.66667,"lat":-33.46667,"pop":0},{"id":3442879,"name":"Correa","lon":-53.66667,"lat":-33.36667,"pop":0},{"id":3442870,"name":"Cortume","lon":-55.15,"lat":-31.78333,"pop":0},{"id":3442867,"name":"Costa Azul","alt":["Balneario Costa Azul"],"lon":-55.6588,"lat":-34.76524,"pop":0},{"id":7645440,"name":"Costa Azul","lon":-54.15307,"lat":-34.62925,"pop":1090},{"id":11171838,"name":"Costa de Colla al Este","lon":-57.40971,"lat":-34.24757,"pop":0},{"id":11171837,"name":"Costa de Navarro","lon":-57.34083,"lat":-34.24573,"pop":0},{"id":10861705,"name":"Costa de Pando","lon":-55.97925,"lat":-34.56692,"pop":0},{"id":10865092,"name":"Costa de Sacra","lon":-58.03403,"lat":-32.35746,"pop":0},{"id":3442865,"name":"Costa de San José","alt":["Costa de San Jose","Costas de San Jose","Costas de San José"],"lon":-56.88333,"lat":-33.85,"pop":0},{"id":3442864,"name":"Costa de Víboras","alt":["Costa de Viboras","Costa de las Viboras","Costa de las Víboras"],"lon":-58.16667,"lat":-33.93333,"pop":0},{"id":10643057,"name":"Costas del Soldado","lon":-55.34511,"lat":-34.19058,"pop":0},{"id":3442851,"name":"Cruz de los Caminos","lon":-55.9629,"lat":-34.63456,"pop":0},{"id":3442852,"name":"Cruz de los Caminos","lon":-56.68333,"lat":-34.25,"pop":0},{"id":10174967,"name":"Cruz de los Caminos","lon":-54.96705,"lat":-32.23255,"pop":0},{"id":3442850,"name":"Cruz de Piedra","lon":-54.18333,"lat":-32.03333,"pop":0},{"id":8358381,"name":"Cuareim","lon":-57.56802,"lat":-30.22519,"pop":0},{"id":3442845,"name":"Cuaró","lon":-55.13333,"lat":-31.9,"pop":0},{"id":3442846,"name":"Cuaró","alt":["Cuaro"],"lon":-56.90455,"lat":-30.61174,"pop":0},{"id":3442834,"name":"Cuchilla Alta","alt":["Balneario Cuchilla Alta"],"lon":-55.49915,"lat":-34.791,"pop":0},{"id":3442833,"name":"Cuchilla Caraguatá","alt":["Caraguata","Caraguatá","Cuchilla Caraguata","Poblado Cuchilla Caraguata"],"lon":-54.98333,"lat":-32.23333,"pop":0},{"id":10634579,"name":"Cuchilla de Gazón","alt":["Cuchilla de Gazon"],"lon":-54.42295,"lat":-34.67083,"pop":0},{"id":10944766,"name":"Cuchilla de Guaviyú","alt":["Cuchilla de Guaviyu"],"lon":-56.63419,"lat":-31.03436,"pop":0},{"id":3442830,"name":"Cuchilla de Peralta","lon":-56.35497,"lat":-32.49194,"pop":0},{"id":3442832,"name":"Cuchilla del Ombú","lon":-55.69428,"lat":-31.77726,"pop":0},{"id":3442831,"name":"Cuchilla del Perdido","lon":-57.3,"lat":-33.58333,"pop":0},{"id":10943905,"name":"Cuchilla del Perdido","lon":-57.26488,"lat":-33.72084,"pop":0},{"id":3442829,"name":"Cuchilla Grande","lon":-54.45,"lat":-32.65,"pop":0},{"id":3442828,"name":"Cuchilla Manguera","alt":["Manguera","Poblado Cuchilla de la Manguera"],"lon":-55.38333,"lat":-31.35,"pop":0},{"id":3442819,"name":"Cufré","alt":["Cufre"],"lon":-57.10756,"lat":-34.19395,"pop":0},{"id":3442812,"name":"Cuñapirú","lon":-55.58333,"lat":-31.53333,"pop":0},{"id":3442805,"name":"Curticeras","lon":-55.55,"lat":-30.96667,"pop":0},{"id":3442803,"name":"Curtina","alt":["San Maximo","San Máximo"],"lon":-56.11667,"lat":-32.15,"pop":1037},{"id":3442785,"name":"Daymán","lon":-57.93571,"lat":-31.51241,"pop":0},{"id":3442779,"name":"De los Pastores","lon":-54.96667,"lat":-33.16667,"pop":0},{"id":3442778,"name":"Delta del Tigre","lon":-56.3645,"lat":-34.76488,"pop":17973},{"id":10098585,"name":"Diamante de La Pedrera","lon":-54.1411,"lat":-34.60255,"pop":0},{"id":3442769,"name":"Díaz","lon":-54.93333,"lat":-33.13333,"pop":0},{"id":3442767,"name":"Diecinueve de Abril","alt":["19 de Abril","Pueblo 19 de Abril"],"lon":-54.06718,"lat":-34.3628,"pop":0},{"id":3443731,"name":"Diecinueve de Junio","alt":["19 de Junio","Averias","Averías"],"lon":-54.32994,"lat":-33.6102,"pop":0},{"id":3440951,"name":"Dieciocho de Julio","alt":["Pueblo Nuevo"],"lon":-56.44296,"lat":-34.44238,"pop":0},{"id":3442766,"name":"Dieciocho de Julio","alt":["18 de Julio","Diez y Ocho de Julio","Pueblo 18 de Julia"],"lon":-53.55325,"lat":-33.68216,"pop":977},{"id":3442750,"name":"Dolores","alt":["Doloresas","doloresi","duo luo lei si","dwlwrs  arwgwyh","Долорес","Դոլորես","دولورس، اروگوئه","دولوریس، یوراگوئے","დოლორესი","多洛雷斯"],"lon":-58.21701,"lat":-33.53009,"pop":17174},{"id":3442727,"name":"Durazno","alt":["DZO","Duranzo","Durasnas","Durasno","dourasuno","du la si nuo","dulaseuno","durasno","dwrasnw","dwraznw","Дурасно","Դուրասնո","دورازنو","دوراسنو","დურასნო","ドゥラスノ","杜拉斯諾","두라스노"],"lon":-56.52361,"lat":-33.38056,"pop":33926},{"id":3442718,"name":"Echevarría","alt":["Echevarria","Echeverria","Echeverría"],"lon":-56.31667,"lat":-34.53333,"pop":0},{"id":3441051,"name":"Echeverry","alt":["Poblado Echeverry"],"lon":-55.96547,"lat":-31.69363,"pop":0},{"id":3442716,"name":"Ecilda Paullier","alt":["Santa Ecilda"],"lon":-57.04883,"lat":-34.35778,"pop":2395},{"id":10098438,"name":"Edén Rock","lon":-54.75582,"lat":-34.86502,"pop":0},{"id":3442714,"name":"Egaña","alt":["Egana","Pueblo Egana","Pueblo Egaña"],"lon":-57.62691,"lat":-33.60231,"pop":0},{"id":11171826,"name":"El Bañado","alt":["El Banado"],"lon":-57.9793,"lat":-34.13402,"pop":0},{"id":10637093,"name":"El Bellaco","lon":-54.55114,"lat":-33.43724,"pop":0},{"id":7838846,"name":"El Bosque","lon":-55.9731,"lat":-34.83784,"pop":0},{"id":10634558,"name":"El Canelón","alt":["El Canelon"],"lon":-54.41582,"lat":-34.59571,"pop":0},{"id":3442711,"name":"El Caño","lon":-57.66667,"lat":-34.4,"pop":0},{"id":10634645,"name":"El Caracol","lon":-54.53838,"lat":-34.78768,"pop":0},{"id":3442709,"name":"El Catete","lon":-54.21667,"lat":-32.95,"pop":0},{"id":3442708,"name":"El Ceibo","lon":-53.78333,"lat":-33.51667,"pop":0},{"id":3442706,"name":"El Cerro","lon":-58.28221,"lat":-33.98155,"pop":0},{"id":3442704,"name":"El Chaco","lon":-55.4,"lat":-32.96667,"pop":0},{"id":3442705,"name":"El Chaco","lon":-57.5133,"lat":-31.95896,"pop":0},{"id":3442703,"name":"El Chajá","lon":-53.95,"lat":-33.01667,"pop":0},{"id":10636405,"name":"El Chimango","lon":-54.1952,"lat":-33.82563,"pop":0},{"id":10098447,"name":"El Chorro","lon":-54.81281,"lat":-34.90205,"pop":0},{"id":10943931,"name":"El Coronilla","lon":-57.07701,"lat":-33.26079,"pop":0},{"id":11171846,"name":"El Cuadro","lon":-57.79953,"lat":-34.13804,"pop":0},{"id":3480814,"name":"El Dorado","lon":-56.2175,"lat":-34.69833,"pop":0},{"id":10098449,"name":"El Edén","lon":-55.05631,"lat":-34.63077,"pop":0},{"id":10866397,"name":"El Empalme","lon":-56.26594,"lat":-31.81649,"pop":0},{"id":11171780,"name":"El Ensueño","alt":["El Ensueno"],"lon":-57.60247,"lat":-34.42368,"pop":0},{"id":10944773,"name":"El Espinillar","lon":-57.84498,"lat":-30.95617,"pop":0},{"id":3442702,"name":"El Eucalipto","alt":["El Eucaliptus","Eucaliptus"],"lon":-57.26289,"lat":-31.89896,"pop":0},{"id":3442701,"name":"El General","lon":-57.82958,"lat":-34.42601,"pop":0},{"id":3442700,"name":"El Horno","lon":-57.48502,"lat":-31.9836,"pop":0},{"id":3442699,"name":"El Hueco","lon":-55.85,"lat":-33.95,"pop":0},{"id":3442697,"name":"El Infiernillo","lon":-55.68333,"lat":-33.93333,"pop":0},{"id":3442692,"name":"El Maturrango","alt":["Maturrango"],"lon":-53.93333,"lat":-34.06667,"pop":0},{"id":10862571,"name":"El Ombú","alt":["El Ombu"],"lon":-57.45562,"lat":-32.8578,"pop":0},{"id":10861472,"name":"El Pinar","lon":-55.88946,"lat":-34.79483,"pop":0},{"id":10642013,"name":"El Placer","lon":-54.88029,"lat":-34.91953,"pop":0},{"id":10862647,"name":"El Progreso","lon":-56.94853,"lat":-32.73246,"pop":0},{"id":3442687,"name":"El Semillero","lon":-57.69057,"lat":-34.33594,"pop":0},{"id":10643058,"name":"El Soldado","lon":-55.36217,"lat":-34.2057,"pop":0},{"id":3442686,"name":"El Tala","lon":-57.41254,"lat":-33.20338,"pop":0},{"id":3442685,"name":"El Tarugo","alt":["Tarugo"],"lon":-57.3,"lat":-32,"pop":0},{"id":10098454,"name":"El Tesoro","lon":-54.87019,"lat":-34.90328,"pop":0},{"id":10862616,"name":"El Totoral","lon":-56.97089,"lat":-33.43181,"pop":0},{"id":3442684,"name":"El Tropiezo","alt":["Tropiezo"],"lon":-57.78333,"lat":-31.4,"pop":0},{"id":3442683,"name":"Empalme Olmos","alt":["Estacion Olmos","Estación Olmos","Olmos"],"lon":-55.89268,"lat":-34.69753,"pop":4199},{"id":3442682,"name":"Empalme Sauce","lon":-56.07333,"lat":-34.71528,"pop":0},{"id":3442673,"name":"Escudero","lon":-57,"lat":-34.21667,"pop":0},{"id":3442670,"name":"Esperanza","alt":["Colonia Esperanza","Estacion Esperanza","Estación Esperanza"],"lon":-57.9483,"lat":-32.34984,"pop":0},{"id":3442665,"name":"Espinillar","lon":-54.2,"lat":-33.46667,"pop":0},{"id":3442661,"name":"Espinillo","lon":-58.28333,"lat":-33.61667,"pop":0},{"id":7914242,"name":"Estación Atlántida","lon":-55.7642,"lat":-34.74479,"pop":0},{"id":10642265,"name":"Estación José Ignacio","alt":["Estacion Jose Ignacio"],"lon":-54.71182,"lat":-34.68895,"pop":0},{"id":10861468,"name":"Estación La Floresta","alt":["Estacion La Floresta"],"lon":-55.68559,"lat":-34.73468,"pop":0},{"id":3442654,"name":"Estación Migues","alt":["Estacion Migues"],"lon":-55.62506,"lat":-34.52428,"pop":0},{"id":10642889,"name":"Estación Ortíz","alt":["Estacion Ortiz"],"lon":-55.39332,"lat":-34.33978,"pop":0},{"id":10861489,"name":"Estación Pedrera","alt":["Estacion Pedrera"],"lon":-55.8153,"lat":-34.61029,"pop":0},{"id":3440985,"name":"Estación Porvenir","alt":["Estacion Porvenir","Porvenir"],"lon":-57.85371,"lat":-32.37085,"pop":1055},{"id":10642890,"name":"Estación Solís","alt":["Estacion Solis"],"lon":-55.44781,"lat":-34.36629,"pop":0},{"id":3439904,"name":"Estación Tapia","alt":["Estacion Tapia","Tapia"],"lon":-55.75113,"lat":-34.56768,"pop":213},{"id":11979793,"name":"Estancia Bella Vista (historical)","lon":-58.15798,"lat":-32.57693,"pop":0},{"id":10862537,"name":"Estancia Bichadero","lon":-57.71294,"lat":-32.96927,"pop":0},{"id":10861486,"name":"Estanque de Pando","lon":-55.97063,"lat":-34.6944,"pop":0},{"id":3442641,"name":"Estanzuela","lon":-57.73333,"lat":-34.3,"pop":0},{"id":3442634,"name":"Fagúndez","alt":["Fagundez"],"lon":-56.58467,"lat":-30.69887,"pop":0},{"id":3442629,"name":"Falagian","lon":-55.16667,"lat":-34.36667,"pop":0},{"id":3442611,"name":"Federación","alt":["Federacion","Federaciõn"],"lon":-57.31827,"lat":-32.03802,"pop":0},{"id":10862625,"name":"Feliciano","lon":-56.80828,"lat":-33.18601,"pop":0},{"id":3442604,"name":"Fernández","lon":-54.13333,"lat":-32,"pop":0},{"id":3442603,"name":"Ferreira","lon":-56.95623,"lat":-31.10191,"pop":0},{"id":3442602,"name":"Ferrer","lon":-55.56667,"lat":-33.48333,"pop":0},{"id":3442598,"name":"Flor de Maroñas","alt":["Balneario Flor de Maronas","Balneario Flor de Maroñas","Flor de Maronas"],"lon":-56.11667,"lat":-34.85,"pop":0},{"id":3442597,"name":"Florencio Sánchez","alt":["Florencio Sanchez"],"lon":-57.37166,"lat":-33.87785,"pop":3716},{"id":3442596,"name":"Florentino","lon":-57.13333,"lat":-31.3,"pop":0},{"id":3442585,"name":"Florida","alt":["Ciudad de la Florida","Флорида"],"lon":-56.21417,"lat":-34.09556,"pop":32234},{"id":11171784,"name":"Fomento","lon":-57.2537,"lat":-34.43323,"pop":0},{"id":10861466,"name":"Fortín de Santa Rosa","alt":["Fortin de Santa Rosa"],"lon":-55.80809,"lat":-34.77083,"pop":0},{"id":3442582,"name":"Fraile Muerto","alt":["Frayle Muerto"],"lon":-54.53333,"lat":-32.51667,"pop":0},{"id":3442570,"name":"Franquia","lon":-57.5924,"lat":-30.2127,"pop":0},{"id":3442568,"name":"Fray Bentos","alt":["FZB","Frai Bentosas","Fraj Bentos","Fraj-Bentos","Frej Bentos","Independencia","Villa Fray Bentos","Villa Independencia","Villa de Fray Bentos","fray bntws","fray byntws","fu lai ben tuo si","peulaibentoseu","Фрай Бентос","Фрай-Бентос","Фрей Бентос","Ֆրայ Բենտոս","فرای بنتوس","فرای بینتوس","ფრაი-ბენტოსი","弗賴本托斯","프라이벤토스"],"lon":-58.31067,"lat":-33.11651,"pop":23279},{"id":3442564,"name":"Fray Marcos","lon":-55.7345,"lat":-34.19388,"pop":0},{"id":10643213,"name":"Gaetán","alt":["Gaetan"],"lon":-55.4811,"lat":-34.12905,"pop":0},{"id":10866292,"name":"Gallinal","lon":-57.48016,"lat":-31.8847,"pop":700},{"id":3442551,"name":"Garibaldi","lon":-57.82745,"lat":-31.33929,"pop":354},{"id":3442546,"name":"Garzón","alt":["Estacion Garzon","Estación Garzón","Garzon"],"lon":-54.54502,"lat":-34.59132,"pop":0},{"id":3442528,"name":"General Enrique Martínez","alt":["Charqueada","Enrique Martinez","General Enrique Martinez","La Charqueada","Poblado General Enrique Martinez","Pueblo La Charqueada"],"lon":-53.80524,"lat":-33.20388,"pop":1430},{"id":3442526,"name":"Gerona","lon":-55.2555,"lat":-34.7649,"pop":0},{"id":3442525,"name":"Gervasio","lon":-53.5,"lat":-33.88333,"pop":0},{"id":3442517,"name":"Goní","lon":-56.48333,"lat":-33.48333,"pop":0},{"id":3442516,"name":"Goñi","alt":["Estacion Goni","Estación Goñi","Goni"],"lon":-56.4129,"lat":-33.52032,"pop":0},{"id":3442513,"name":"González","alt":["Gonzalez"],"lon":-56.87423,"lat":-34.22917,"pop":0},{"id":3442514,"name":"González","lon":-55.96667,"lat":-33.08333,"pop":0},{"id":3442453,"name":"Grecco","alt":["Greco","Las Flores"],"lon":-57.04397,"lat":-32.81454,"pop":0},{"id":3442450,"name":"Gregorio Aznáres","alt":["Gregorio Aznares","Gregorio Aznarez","Gregorio Aznárez"],"lon":-55.39673,"lat":-34.74657,"pop":0},{"id":10641918,"name":"Guardia Vieja","lon":-55.02359,"lat":-34.73632,"pop":0},{"id":3442439,"name":"Guaviyú","lon":-54.83333,"lat":-31.48333,"pop":0},{"id":3441048,"name":"Guaviyú de Arapey","alt":["Guaviyu","Guaviyu de Arapey","Guaviyú","Paso Guaviyu del Arapey","Paso Guaviyú del Arapey","Poblado Guaviyu","Poblado Guaviyú"],"lon":-56.68742,"lat":-31.08884,"pop":0},{"id":3442418,"name":"Guayabos","lon":-57.31594,"lat":-32.26919,"pop":0},{"id":10944930,"name":"Guayubirá","alt":["Guayubira"],"lon":-56.39326,"lat":-30.50457,"pop":0},{"id":10861464,"name":"Guazu-Virá","alt":["Guazu-Vira"],"lon":-55.61261,"lat":-34.7655,"pop":0},{"id":3442400,"name":"Guerrero","lon":-57.68333,"lat":-33.85,"pop":0},{"id":3442398,"name":"Guichón","alt":["Guichon"],"lon":-57.19778,"lat":-32.35846,"pop":5051},{"id":10642737,"name":"Higueritas","lon":-55.28203,"lat":-34.34417,"pop":0},{"id":3442359,"name":"Horqueta","alt":["Horqueta de Castillos"],"lon":-53.95,"lat":-34.11667,"pop":0},{"id":3442345,"name":"Hospital","alt":["Poblado del Hospital"],"lon":-54.65,"lat":-31.68333,"pop":0},{"id":3442336,"name":"Illescas","lon":-55.33148,"lat":-33.60889,"pop":0},{"id":3442328,"name":"Independencia","lon":-56.39833,"lat":-34.35167,"pop":0},{"id":8057961,"name":"Ingeniero Agrónomo Alfredo Mones Quintela","alt":["Calpica Itacumbu","Calpica Itacumbú","Ingeniero Agronomo Alfredo Mones Quintela"],"lon":-57.66376,"lat":-30.37375,"pop":0},{"id":3442311,"name":"Ingeniero Luis Andreoni","alt":["Ingeniero Andreoni"],"lon":-55.50556,"lat":-34.41494,"pop":0},{"id":3442308,"name":"Ingenio José Serrato","lon":-53.91667,"lat":-33.25,"pop":0},{"id":3442299,"name":"Isidoro Noblía","lon":-54.12309,"lat":-31.96218,"pop":2331},{"id":3442285,"name":"Isla Patrulla","alt":["Maria Isabel","Villa Maria Isabel Isla de Patrulla"],"lon":-54.58333,"lat":-32.98333,"pop":0},{"id":3442263,"name":"Ismael Cortinas","lon":-57.06667,"lat":-33.41667,"pop":0},{"id":3443766,"name":"Ismael Cortinas","alt":["Arroyo Grande"],"lon":-57.08979,"lat":-33.96062,"pop":0},{"id":3442255,"name":"Itapebí","alt":["Itapebi","Itapeby"],"lon":-57.70497,"lat":-31.28625,"pop":0},{"id":3442248,"name":"Ituzaingó","alt":["Ituzaingo","Pueblo Ituzaingo","Pueblo Ituzaingó"],"lon":-56.11667,"lat":-34.85,"pop":0},{"id":3442249,"name":"Ituzaingó","alt":["Ituzaingo"],"lon":-56.42488,"lat":-34.42028,"pop":771},{"id":10098107,"name":"Jacinto Vera","lon":-56.16983,"lat":-34.87454,"pop":0},{"id":9072742,"name":"Jardines de Pando","lon":-55.9656,"lat":-34.6861,"pop":0},{"id":3442245,"name":"Jaureguiberry","alt":["Balneario Jaureguiberry"],"lon":-55.40455,"lat":-34.78606,"pop":0},{"id":3442244,"name":"Javier de Viana","lon":-56.78489,"lat":-30.43314,"pop":0},{"id":3442239,"name":"Jiménez","lon":-55.78333,"lat":-33,"pop":0},{"id":3442236,"name":"Joaquín Suárez","alt":["J. Suarez","Joaquin Suarez","Pueblo Joaquin Suarez","Pueblo Joaquín Suárez","Suarez","Suárez"],"lon":-56.0347,"lat":-34.73501,"pop":6570},{"id":10342017,"name":"Joaquin Swarez","lon":-57.6123,"lat":-34.27311,"pop":0},{"id":3442233,"name":"José Batlle y Ordóñez","alt":["Batlle y Ordonez","Batlle y Ordoñez","Jose Batlle y Ordonez"],"lon":-55.11667,"lat":-33.46667,"pop":2203},{"id":3442231,"name":"José Enrique Rodó","alt":["Drabble","Drable","E. Robo","J.E. Rodo","Jose Enrique Rodo","Rodo"],"lon":-57.53153,"lat":-33.69618,"pop":2120},{"id":3442228,"name":"José Ignacio","lon":-56.73333,"lat":-34.68333,"pop":0},{"id":3442229,"name":"José Ignacio","lon":-54.63733,"lat":-34.84428,"pop":0},{"id":3442221,"name":"José Pedro Varela","alt":["J.P. Varela","Jose P. Varela","Jose Pedro Varela","José P. Varela"],"lon":-54.53586,"lat":-33.45451,"pop":5118},{"id":10943757,"name":"Juan González","alt":["Juan Gonzalez"],"lon":-58.19202,"lat":-34.05863,"pop":0},{"id":10943911,"name":"Juan Jackson","lon":-57.22846,"lat":-33.91442,"pop":0},{"id":3442208,"name":"Juan José Castro","alt":["Juan J. Castro","Juan Jose Castro"],"lon":-56.74411,"lat":-33.49397,"pop":0},{"id":3442206,"name":"Juan L. Lacaze","alt":["J.L. Lacaze","Juan Lacaze","Pueblo Juan L. Lacaze"],"lon":-57.45285,"lat":-34.41888,"pop":12816},{"id":3442199,"name":"Juan Soler","lon":-56.80433,"lat":-34.32319,"pop":0},{"id":3442238,"name":"Juanicó","alt":["Joanico","Joanicó","Juanico"],"lon":-56.25334,"lat":-34.59454,"pop":1305},{"id":3442194,"name":"Julio María Sanz","lon":-54.15,"lat":-33.15,"pop":0},{"id":10861916,"name":"Juncal","lon":-56.18512,"lat":-34.09708,"pop":0},{"id":3442168,"name":"Kilómetro 71","lon":-56.4,"lat":-34.36667,"pop":0},{"id":3442165,"name":"Kiyú","alt":["Kiyu"],"lon":-56.74957,"lat":-34.69412,"pop":0},{"id":7602115,"name":"La Aguada","lon":-54.16045,"lat":-34.63737,"pop":0},{"id":3442164,"name":"La Alegría","lon":-55.58333,"lat":-32.6,"pop":0},{"id":8058796,"name":"La Azotea","lon":-57.66748,"lat":-30.51366,"pop":0},{"id":3442162,"name":"La Barra","lon":-54.85397,"lat":-34.91196,"pop":0},{"id":3442163,"name":"La Barra","lon":-53.79533,"lat":-34.335,"pop":0},{"id":10098114,"name":"La Blanqueada","lon":-56.15359,"lat":-34.88737,"pop":0},{"id":3442158,"name":"La Bolsa","lon":-57.2,"lat":-31.25,"pop":0},{"id":3442159,"name":"La Bolsa","lon":-57.03574,"lat":-31.05211,"pop":0},{"id":3442160,"name":"La Bolsa","lon":-56.3366,"lat":-30.84614,"pop":0},{"id":10944567,"name":"La Bolsa","lon":-57.79583,"lat":-31.42866,"pop":0},{"id":10943553,"name":"La Boyada","lon":-56.98768,"lat":-34.40745,"pop":0},{"id":3442157,"name":"La Calavera","lon":-54.26667,"lat":-32.93333,"pop":0},{"id":3442156,"name":"La Calera","alt":["Calera"],"lon":-55.41667,"lat":-31.45,"pop":0},{"id":10098411,"name":"La Capuera","lon":-55.12897,"lat":-34.85414,"pop":0},{"id":10098311,"name":"La Casilla","lon":-56.9472,"lat":-33.67025,"pop":0},{"id":3442153,"name":"La Chiva","lon":-54.01667,"lat":-33.25,"pop":0},{"id":10098117,"name":"La Comercial","lon":-56.16803,"lat":-34.88718,"pop":0},{"id":10943699,"name":"La Concordia","alt":["Estancia Concordia"],"lon":-58.42651,"lat":-33.56512,"pop":0},{"id":3442150,"name":"La Coronilla","alt":["Balneario La Coronilla"],"lon":-53.51581,"lat":-33.89432,"pop":0},{"id":3442151,"name":"La Coronilla","alt":["Coronilla"],"lon":-53.85803,"lat":-33.55791,"pop":510},{"id":10862666,"name":"La Coronilla","lon":-56.75319,"lat":-32.60977,"pop":0},{"id":3442149,"name":"La Cruz","lon":-56.23849,"lat":-33.92994,"pop":0},{"id":3442146,"name":"La Cuchilla","lon":-53.39175,"lat":-32.60431,"pop":0},{"id":10943590,"name":"La Cuchilla","lon":-56.53161,"lat":-34.36477,"pop":0},{"id":10098567,"name":"La Esmeralda","lon":-53.69757,"lat":-34.15727,"pop":0},{"id":3442140,"name":"La Esperanza","lon":-55.13333,"lat":-33,"pop":0},{"id":3442139,"name":"La Estanzuela","alt":["Estanzuela"],"lon":-57.7228,"lat":-34.32877,"pop":0},{"id":3442138,"name":"La Floresta","alt":["Floresta"],"lon":-55.68141,"lat":-34.75572,"pop":1107},{"id":3442135,"name":"La Florida","lon":-57.80226,"lat":-32.74842,"pop":0},{"id":8058705,"name":"La Garrapata","lon":-57.34782,"lat":-30.60281,"pop":0},{"id":3442121,"name":"La Lata","lon":-54.41667,"lat":-31.73333,"pop":0},{"id":10943729,"name":"La Loma","lon":-58.303,"lat":-33.42238,"pop":0},{"id":3442119,"name":"La Macana","lon":-56.19315,"lat":-34.03575,"pop":0},{"id":3442118,"name":"La Mazamorra","lon":-55.5,"lat":-32.53333,"pop":0},{"id":3442114,"name":"La Micaela","lon":-53.9,"lat":-32.63333,"pop":0},{"id":3442113,"name":"La Mina","lon":-54.15,"lat":-31.9,"pop":0},{"id":10861474,"name":"La Montañesa","alt":["La Montanesa"],"lon":-55.87972,"lat":-34.72,"pop":0},{"id":10861475,"name":"La Palmita","lon":-55.80228,"lat":-34.68951,"pop":0},{"id":3442105,"name":"La Paloma","alt":["Puerto de la Paloma"],"lon":-54.16452,"lat":-34.66268,"pop":3495},{"id":3442106,"name":"La Paloma","lon":-55.5827,"lat":-32.72689,"pop":1567},{"id":10861733,"name":"La Paloma","lon":-56.15213,"lat":-34.48826,"pop":0},{"id":3442100,"name":"La Paraguaya","alt":["Canada Paraguaya","Cañada Paraguaya"],"lon":-58.08333,"lat":-33.58333,"pop":0},{"id":3442098,"name":"La Paz","lon":-56.2259,"lat":-34.76031,"pop":19913},{"id":3442099,"name":"La Paz","alt":["Colonia Piamontesa","Pueblo de la Paz","Villa de la Paz"],"lon":-57.30956,"lat":-34.34775,"pop":0},{"id":3442094,"name":"La Pedrera","alt":["Balneario La Pedrera","Playa La Pedrera","Punta Rubia"],"lon":-54.12352,"lat":-34.59211,"pop":0},{"id":3442095,"name":"La Pedrera","lon":-56.86667,"lat":-33.5,"pop":0},{"id":3442096,"name":"La Pedrera","lon":-54.13333,"lat":-32.35,"pop":0},{"id":10944648,"name":"La Pedrera","lon":-56.01357,"lat":-31.7214,"pop":0},{"id":10642391,"name":"La Plata","lon":-55.30203,"lat":-34.43241,"pop":0},{"id":3442084,"name":"La Querencia","lon":-55.61667,"lat":-34.63333,"pop":0},{"id":10634561,"name":"La Ribiera","lon":-54.32662,"lat":-34.54519,"pop":30},{"id":10098534,"name":"La Sierra","lon":-55.40015,"lat":-34.74734,"pop":0},{"id":10098122,"name":"La Teja","lon":-56.23404,"lat":-34.86477,"pop":0},{"id":3442044,"name":"La Tentación","alt":["La Tentacion"],"lon":-57.74511,"lat":-32.48618,"pop":0},{"id":3442045,"name":"La Tentaciõn","lon":-57.75,"lat":-32.48333,"pop":0},{"id":3442040,"name":"La Tuna","alt":["Las Tunas","Playa La Tuna","Playa de La Tuna"],"lon":-55.56173,"lat":-34.78077,"pop":0},{"id":3442039,"name":"La Unión","lon":-57.75,"lat":-32.75,"pop":0},{"id":10862561,"name":"La Unión","alt":["La Union"],"lon":-57.91031,"lat":-32.8431,"pop":0},{"id":3442144,"name":"Ladrillos","lon":-55.28333,"lat":-33.75,"pop":0},{"id":7838847,"name":"Lagomar","lon":-55.9832,"lat":-34.83768,"pop":0},{"id":3442085,"name":"Lapuente","alt":["Poblado Lapuente","Yaguan","Yaguari","Yaguarí"],"lon":-54.96546,"lat":-31.47339,"pop":0},{"id":3442086,"name":"Lapuente","lon":-54.91667,"lat":-31.41667,"pop":321},{"id":10943738,"name":"Lares","lon":-57.79957,"lat":-33.83364,"pop":0},{"id":3442076,"name":"Larrayos","lon":-55.01667,"lat":-32.16667,"pop":0},{"id":3442074,"name":"Larrosa","lon":-55.08333,"lat":-33.38333,"pop":0},{"id":10636630,"name":"Las Achiras","lon":-54.62369,"lat":-33.7259,"pop":0},{"id":3442073,"name":"Las Brujas","lon":-56.33333,"lat":-34.63333,"pop":0},{"id":3442072,"name":"Las Cañas","alt":["Canas","Cañas","Las Canas","Puntas de las Canas","Puntas de las Cañas"],"lon":-55.51667,"lat":-32.93333,"pop":0},{"id":10943734,"name":"Las Cañas","alt":["Las Canas"],"lon":-58.35826,"lat":-33.16441,"pop":0},{"id":9072749,"name":"Las Canteras","lon":-56.1058,"lat":-34.8714,"pop":0},{"id":10634642,"name":"Las Chacras","lon":-54.29648,"lat":-34.45831,"pop":0},{"id":10636332,"name":"Las Cholgas","lon":-53.51411,"lat":-33.90773,"pop":0},{"id":10641708,"name":"Las Cumbres","lon":-55.03166,"lat":-34.8468,"pop":0},{"id":3442066,"name":"Las Flores","alt":["Flores","Playa Las Flores"],"lon":-55.32709,"lat":-34.81524,"pop":0},{"id":3442067,"name":"Las Flores","lon":-55.33333,"lat":-34.75,"pop":0},{"id":3442068,"name":"Las Flores","lon":-57.57086,"lat":-32.39643,"pop":0},{"id":3442069,"name":"Las Flores","alt":["Carpinteria","Carpintería","Poblado Las Flores"],"lon":-55.21667,"lat":-31.81667,"pop":0},{"id":3442064,"name":"Las Garzas","alt":["Balneario Las Garzas"],"lon":-54.32469,"lat":-34.69666,"pop":0},{"id":3442057,"name":"Las Piedras","alt":["Las Pedras","Las Piedrasas","Las Pjedras","Las-P'edras","Piedras","San Isidrio","Villa de las Piedras","la si bi de la si","lasa piyedrasa","laseupiedeulaseu","Лас Пиедрас","Лас-Пьедрас","Լաս Պեդրաս","لاس پیڈراس، یوراگوئے","لاس‌پیدراس، اروگوئه","লাস পিয়েদ্রাস","ლას-პიედრასი","ラス・ピエドラス","拉斯彼德拉斯","라스피에드라스"],"lon":-56.21915,"lat":-34.7302,"pop":69682},{"id":3442058,"name":"Las Piedras","lon":-57.58174,"lat":-30.26204,"pop":2185},{"id":3442053,"name":"Las Ratas","lon":-54.25,"lat":-32.08333,"pop":0},{"id":3442049,"name":"Las Toscas","alt":["Balneario Las Toscas"],"lon":-55.73789,"lat":-34.76464,"pop":0},{"id":3442050,"name":"Las Toscas","lon":-55.71667,"lat":-34.73333,"pop":3146},{"id":3442051,"name":"Las Toscas","alt":["Paso de las Toscas"],"lon":-55.0143,"lat":-32.17663,"pop":0},{"id":7576513,"name":"Las Vegas","lon":-55.82977,"lat":-34.66258,"pop":0},{"id":3442047,"name":"Las Violetas","lon":-57.13333,"lat":-33.6,"pop":0},{"id":3442071,"name":"Lascano","alt":["Lazcano"],"lon":-54.2065,"lat":-33.67235,"pop":6976},{"id":3442031,"name":"Laureles","alt":["Poblado Laureles"],"lon":-55.43333,"lat":-31.68333,"pop":0},{"id":3442032,"name":"Laureles","alt":["Bella Aurora"],"lon":-57.52548,"lat":-31.49901,"pop":0},{"id":3442033,"name":"Laureles","lon":-55.85,"lat":-31.36667,"pop":0},{"id":3442010,"name":"Lavaderos","alt":["Lavaderos del Este"],"lon":-56.1,"lat":-34.9,"pop":0},{"id":10637766,"name":"Lechiguana de Corrales de Cebollatí","alt":["Lechiguana de Corrales de Cebollati"],"lon":-54.25967,"lat":-33.34263,"pop":0},{"id":10098127,"name":"Lezica","lon":-56.25476,"lat":-34.79062,"pop":0},{"id":3441988,"name":"Libertad","alt":["Liberfad"],"lon":-56.61739,"lat":-34.63459,"pop":10166},{"id":3441977,"name":"Lluveras","lon":-57.06414,"lat":-31.10152,"pop":0},{"id":8058697,"name":"Local Feria Don Félix","alt":["Local Feria Don Felix"],"lon":-57.69251,"lat":-30.68811,"pop":0},{"id":8058715,"name":"Local Feria Itacumbú","alt":["Local Feria Itacumbu"],"lon":-57.41529,"lat":-30.4848,"pop":0},{"id":8469056,"name":"Lomas","lon":-54.17341,"lat":-34.59032,"pop":0},{"id":3441968,"name":"Lomas de Carmelo","lon":-58.27815,"lat":-34.01318,"pop":0},{"id":3441962,"name":"Lorenzo Geyres","alt":["Queguay"],"lon":-57.91681,"lat":-32.07709,"pop":0},{"id":3441959,"name":"Los Agregados","lon":-55.9,"lat":-32.78333,"pop":0},{"id":3441958,"name":"Los Ahogados","lon":-56.93333,"lat":-33.53333,"pop":0},{"id":10943825,"name":"Los Arrayanes","lon":-58.03854,"lat":-33.23321,"pop":0},{"id":3441956,"name":"Los Camejos","lon":-54.81667,"lat":-33.11667,"pop":0},{"id":10641276,"name":"Los Ceibos","lon":-54.22562,"lat":-33.18211,"pop":0},{"id":10641919,"name":"Los Ceibos","lon":-54.96711,"lat":-34.76438,"pop":0},{"id":3441954,"name":"Los Cerrillos","alt":["Cerrillos"],"lon":-56.35639,"lat":-34.605,"pop":2508},{"id":3441953,"name":"Los Cerros de San Juan","lon":-57.93073,"lat":-34.21871,"pop":0},{"id":3441952,"name":"Los Feos","lon":-55.33333,"lat":-32.3,"pop":0},{"id":3441951,"name":"Los Furtado","lon":-55.9,"lat":-32.26667,"pop":0},{"id":3441950,"name":"Los Furtados","lon":-55.75,"lat":-32.25,"pop":0},{"id":3441274,"name":"Los Mellizos","alt":["Paso de los Mellizos"],"lon":-57.15907,"lat":-32.51977,"pop":0},{"id":3441948,"name":"Los Mezquitas","lon":-56.08333,"lat":-32.9,"pop":0},{"id":3441944,"name":"Los Novillos","alt":["Novillos","Poblado Paso de los Novillos","Poblado de los Novillos"],"lon":-55.68333,"lat":-31.98333,"pop":0},{"id":3441940,"name":"Los Potreros","lon":-55.95,"lat":-31.25,"pop":0},{"id":3441939,"name":"Los Rosanos","lon":-56.17583,"lat":-31.81686,"pop":0},{"id":10636492,"name":"Los Tacuruses","lon":-53.85496,"lat":-33.3626,"pop":0},{"id":3441937,"name":"Los Talas","lon":-54.49056,"lat":-34.09307,"pop":0},{"id":3441938,"name":"Los Talas","lon":-54.78333,"lat":-33.33333,"pop":0},{"id":3441936,"name":"Los Titanes","alt":["Balneario Los Titanes"],"lon":-55.56697,"lat":-34.77978,"pop":0},{"id":3441935,"name":"Los Vásquez","alt":["Los Vasquez","Poblado Vasquez","Vazquez","Vázquez"],"lon":-55.43333,"lat":-31.88333,"pop":0},{"id":3441927,"name":"Lunarejo","lon":-55.98333,"lat":-31.1,"pop":0},{"id":3441920,"name":"Machado","lon":-57,"lat":-33.86667,"pop":0},{"id":3441921,"name":"Machado","lon":-55.61667,"lat":-33.35,"pop":0},{"id":3441909,"name":"Maguna","lon":-54.65,"lat":-33.46667,"pop":0},{"id":3441903,"name":"Mal Abrigo","alt":["Mal Abriga"],"lon":-56.95265,"lat":-34.14697,"pop":0},{"id":3441894,"name":"Maldonado","alt":["Mal'donado","Maldonadas","San Fernando de Maldonado","ma er duo na duo","maldonado","maldwnadw  arwgwyh","marudonado","Малдонадо","Мальдонадо","Մալդոնադո","مالدونادو، اروگوئه","مالدونادو، یوراگوئے","მალდონადო","マルドナド","馬爾多納多","말도나도"],"lon":-54.95,"lat":-34.9,"pop":55478},{"id":7914030,"name":"Malvin","lon":-56.09943,"lat":-34.89121,"pop":0},{"id":9072748,"name":"Malvín Norte","lon":-56.1168,"lat":-34.881,"pop":0},{"id":3441870,"name":"Manantiales","alt":["Playa Manantiales"],"lon":-54.82625,"lat":-34.90452,"pop":0},{"id":3441853,"name":"Manga","lon":-56.1,"lat":-34.81667,"pop":0},{"id":3441846,"name":"Mangrullo","lon":-54.06667,"lat":-32.11667,"pop":0},{"id":10642770,"name":"Marco de Los Reyes","lon":-54.98519,"lat":-34.39185,"pop":0},{"id":3441814,"name":"María Albina","alt":["Maria Albina","Villa Maria Albina","Villa María Albina"],"lon":-54.6783,"lat":-33.39003,"pop":0},{"id":3441813,"name":"María Cejas","alt":["Arroyo Maria Cejas","Arroyo María Cejas","Maria Cejas"],"lon":-56.18333,"lat":-33.08333,"pop":0},{"id":3441812,"name":"María Isabel","lon":-54,"lat":-33.8,"pop":0},{"id":3441807,"name":"Marincho","lon":-57.13333,"lat":-33.23333,"pop":0},{"id":10861467,"name":"Marindia","lon":-55.82406,"lat":-34.77433,"pop":0},{"id":3441803,"name":"Mariscala","alt":["La Mariscala"],"lon":-54.77732,"lat":-34.04085,"pop":1626},{"id":3441797,"name":"Maroñas","alt":["Maronas"],"lon":-56.11667,"lat":-34.85,"pop":0},{"id":3441795,"name":"Martín Chico","lon":-58.20711,"lat":-34.16121,"pop":0},{"id":3441029,"name":"Martinote","alt":["Poblado Martinote"],"lon":-55.97678,"lat":-31.87654,"pop":0},{"id":3441789,"name":"Masoller","lon":-56.00453,"lat":-31.08122,"pop":0},{"id":3441781,"name":"Mataojo","lon":-56.38333,"lat":-34.5,"pop":0},{"id":10862722,"name":"Mataojo","lon":-57.25655,"lat":-32.64715,"pop":0},{"id":3441764,"name":"Mataojo Chico","lon":-56.28333,"lat":-31.18333,"pop":0},{"id":3441744,"name":"Mederos","lon":-55.23333,"lat":-32.9,"pop":0},{"id":3441742,"name":"Medina","lon":-54.83333,"lat":-33.11667,"pop":0},{"id":10098131,"name":"Melilla","lon":-56.29068,"lat":-34.75769,"pop":0},{"id":3441702,"name":"Melo","alt":["Ciudad de Melo","MLZ","Mel","Melas","mei luo","mello","melo","mero","mlw  arwgwyh","Мел","Мело","Մելո","ملو، اروگوئه","میلو، یوراگوئے","মেলো","მელო","メロ","梅洛","멜로"],"lon":-54.1675,"lat":-32.37028,"pop":51023},{"id":3441695,"name":"Menafra","lon":-57.48456,"lat":-32.55823,"pop":0},{"id":3441692,"name":"Mendizabal","alt":["Poblado Mendizabal"],"lon":-54.15,"lat":-33.05,"pop":0},{"id":3441691,"name":"Mendoza","lon":-56.21441,"lat":-34.28211,"pop":0},{"id":3441686,"name":"Mendoza Chico","lon":-56.21667,"lat":-34.23755,"pop":0},{"id":3441684,"name":"Mercedes","alt":["Ciudad de Mercedes","Mersedes","Mersedesas","mei sai de si","meleusedeseu","mersedesa","mersedesi","merusedesu","mrsds  arwgwyh","Μερσέδες","Мерседес","Մերսեդես","مرسدس، اروگوئه","میرسیدیس، یوراگوئے","মের্সেদেস","მერსედესი","メルセデス","梅塞德斯","메르세데스"],"lon":-58.03047,"lat":-33.2524,"pop":42359},{"id":3441681,"name":"Merinos","lon":-56.90429,"lat":-32.38486,"pop":528},{"id":3441679,"name":"Miguelete","alt":["Colonia Miguelete"],"lon":-57.64792,"lat":-34.00646,"pop":999},{"id":11171828,"name":"Miguelete de Conchillas","lon":-57.85214,"lat":-34.1058,"pop":0},{"id":3441674,"name":"Migues","alt":["Miguez"],"lon":-55.62793,"lat":-34.48759,"pop":2109},{"id":3441665,"name":"Minas","alt":["Ciudad de Minas","Lavalleja","Minasas","mi na si","minaseu","minasi","minasu","mynas  arwgwyh","Минас","Мінас","Մինաս","میناس، اروگوئه","میناس، یوراگوئے","მინასი","ミナス","米納斯","미나스"],"lon":-55.23771,"lat":-34.37589,"pop":38025},{"id":3441659,"name":"Minas de Corrales","alt":["Corrales"],"lon":-55.47075,"lat":-31.57375,"pop":3788},{"id":11171868,"name":"Minas de Narancio","lon":-57.92063,"lat":-34.18189,"pop":0},{"id":3441653,"name":"Minuano","alt":["Cantera del Minuano","Poblado del Minuano"],"lon":-57.45079,"lat":-34.36329,"pop":0},{"id":3441654,"name":"Minuano","lon":-53.76667,"lat":-32.06667,"pop":0},{"id":3441643,"name":"Moirones","alt":["Poblado Moirones"],"lon":-54.98547,"lat":-31.60427,"pop":0},{"id":3441637,"name":"Molles","alt":["Carlos Reyles"],"lon":-56.48333,"lat":-33.05,"pop":0},{"id":3441600,"name":"Molles Chico","lon":-55.21667,"lat":-33.5,"pop":0},{"id":10636635,"name":"Molles de Cañada Grande","alt":["Molles de Canada Grande"],"lon":-54.54265,"lat":-33.6221,"pop":0},{"id":3441597,"name":"Molles del Pescado","lon":-55.2,"lat":-33.46667,"pop":0},{"id":3441577,"name":"Montes","lon":-55.56219,"lat":-34.49339,"pop":1760},{"id":3441575,"name":"Montevideo","alt":["Ciudad de Montevideo","MVD","Mantehvideha","Montebideo","Montevidejas","Montevideu","Montevidiejos","Montevidéu","Montevidėjas","Montevídeó","Muntivideu","Muntividew","Muntividèu","Muntividëw","Urbs Montis Videi","mantibhiri'o","meantevidiyea","meng de wei de ya","meng te wei duo","montebide'o","montebide-o","montebideo","montevide'o","montevidi'o","montevidiyo","montevitiyo","mwntfydw","mwnth wydyw","mwntybydyw","mxn te wi de xo","Μοντεβιδέο","Мантэвідэа","Монтевидео","Монтевідео","Մոնտևիդեո","מאנטעווידעא","מונטווידאו","مونتفيدو","مونته ویدئو","مونته‌ویدئ","مونته‌ویدئو","مونتیبیدیو","مونتېۋىدېئو","मोण्टेवीडियो","मोन्तेविदेओ","মোন্তেবিদেও","ਮੋਂਤੇਵੀਦਿਓ","ମଣ୍ଟିଭିଡ଼ିଓ","மொண்டேவீடியோ","മൊണ്ടേവീഡിയോ","มอนเตวิเดโอ","མཱོན་ཊི་ཝི་ཌོ།","မွန်တီဗစ်ဒီအိုမြို့","მონტევიდეო","ሞንቴቪዴዎ","モンテビデオ","蒙得维的亚","蒙特維多","몬테비데오"],"lon":-56.18816,"lat":-34.90328,"pop":1270737},{"id":3441570,"name":"Montevideo Chico","lon":-56.51667,"lat":-32.25,"pop":0},{"id":3441562,"name":"Morató","alt":["Morato","Ovidio Morato","Ovidio Morató"],"lon":-56.69789,"lat":-32.37904,"pop":0},{"id":3441556,"name":"Mouriño","alt":["Mourino","Pueblo Mourino","Pueblo Mouriño"],"lon":-56.13333,"lat":-32.9,"pop":0},{"id":3441544,"name":"Musi","lon":-56.51667,"lat":-31.08333,"pop":0},{"id":3441540,"name":"Nando","alt":["Chuy","El Chuy"],"lon":-54.0847,"lat":-32.17435,"pop":0},{"id":10861469,"name":"Neptunia","lon":-55.87999,"lat":-34.78837,"pop":0},{"id":3441499,"name":"Nico Pérez","alt":["Nico Perez"],"lon":-55.15,"lat":-33.48333,"pop":0},{"id":3441484,"name":"Nueva Carrara","lon":-55.2623,"lat":-34.71805,"pop":0},{"id":3441483,"name":"Nueva Helvecia","alt":["Colonia Suiza","Nuehva-Ehl'vesija","Nueva Elvesia","nwywa hlwka","xin ai er wei xi ya","Нуэва-Эльвесия","Նուեվա Էլվեսիա","نوئوا هلوکا","نویوا ہیلویسیا","新埃爾韋西亞"],"lon":-57.23333,"lat":-34.3,"pop":10054},{"id":3441481,"name":"Nueva Palmira","alt":["Nuehva-Pal'mira","nwywa palmyra","xin pa er mi la","Нуэва-Пальмира","نوئوا پالمیرا","نویوا پالمیرا","新帕爾米拉"],"lon":-58.41176,"lat":-33.87031,"pop":9857},{"id":3441476,"name":"Nuevo Berlín","alt":["Nuevo Berlin"],"lon":-58.05858,"lat":-32.97974,"pop":2450},{"id":3441475,"name":"Nuevo París","alt":["Balneario Nuevo Paris","Nuevo Paris"],"lon":-56.23333,"lat":-34.85,"pop":0},{"id":3442989,"name":"Nuevo Paysandú","alt":["Colonia Nuevo Paysandu","Colonia Nuevo Paysandú","Nuevo Paysandu"],"lon":-58.07727,"lat":-32.26991,"pop":0},{"id":11171785,"name":"Nuevo Torino","lon":-57.26385,"lat":-34.36891,"pop":0},{"id":10098414,"name":"Ocean Park","lon":-55.11515,"lat":-34.86896,"pop":0},{"id":3441456,"name":"Olivera","lon":-56.87805,"lat":-31.11902,"pop":0},{"id":3441442,"name":"Ombúes de Lavalle","alt":["Colonia Ombues de Lavalle","Colonia Ombúes de Lavalle","Ombues de Lavalle"],"lon":-57.80959,"lat":-33.93783,"pop":3390},{"id":3441441,"name":"Ombúes de Oribe","lon":-56.35578,"lat":-33.29621,"pop":0},{"id":3441439,"name":"Oratorio","alt":["El Oratorio"],"lon":-53.98333,"lat":-33.98333,"pop":0},{"id":3441438,"name":"Ordeig","lon":-56.70715,"lat":-34.70402,"pop":0},{"id":3441437,"name":"Orgoroso","lon":-57.51733,"lat":-32.38001,"pop":0},{"id":3441436,"name":"Oribe","lon":-57.11667,"lat":-31.5,"pop":0},{"id":3441421,"name":"Padula","alt":["Puerto Gomez","Puerto Gómez"],"lon":-53.63333,"lat":-33,"pop":0},{"id":3441420,"name":"Paguero","lon":-56.76862,"lat":-30.63738,"pop":0},{"id":3441414,"name":"Pajas Blancas","alt":["Playa Pajas Blancas"],"lon":-56.33345,"lat":-34.86751,"pop":0},{"id":3480825,"name":"Pajas Blancas","lon":-56.33417,"lat":-34.80167,"pop":2000},{"id":10098139,"name":"Palermo","lon":-56.17842,"lat":-34.91016,"pop":0},{"id":3441399,"name":"Palma","lon":-57.68333,"lat":-30.6,"pop":0},{"id":3441384,"name":"Palma Sola","lon":-57.51667,"lat":-30.68333,"pop":0},{"id":7646991,"name":"Palmar","lon":-57.46073,"lat":-33.06249,"pop":456},{"id":3441392,"name":"Palmar de Castillos","alt":["Castillos","Palmares de Castillos"],"lon":-53.93506,"lat":-34.26608,"pop":0},{"id":3441391,"name":"Palmar de Quebracho","alt":["Palmares de Quebracho"],"lon":-57.7339,"lat":-31.89002,"pop":0},{"id":10636535,"name":"Palmares de la Coronilla","lon":-53.48398,"lat":-33.84907,"pop":0},{"id":3441377,"name":"Palmitas","lon":-57.80079,"lat":-33.50719,"pop":2123},{"id":10943714,"name":"Palo Solo","lon":-58.02352,"lat":-33.82885,"pop":0},{"id":3441370,"name":"Palomas","lon":-57.60934,"lat":-31.08087,"pop":0},{"id":3441358,"name":"Pan de Azúcar","alt":["Pan de Azucar"],"lon":-55.23582,"lat":-34.7787,"pop":6597},{"id":3441354,"name":"Pando","alt":["Villa de Pando","Пандо"],"lon":-55.9584,"lat":-34.71716,"pop":24047},{"id":10865109,"name":"Pandule","lon":-57.4629,"lat":-32.38458,"pop":0},{"id":10861507,"name":"Parada Cabrera","lon":-56.2545,"lat":-34.62384,"pop":0},{"id":3441316,"name":"Parada Herrería","alt":["Parada Herreria"],"lon":-57.79234,"lat":-31.36698,"pop":0},{"id":10861697,"name":"Parador Tajes","lon":-56.46726,"lat":-34.60848,"pop":0},{"id":3441308,"name":"Parallé","alt":["Paralle"],"lon":-54.31612,"lat":-34.22154,"pop":0},{"id":8058737,"name":"Paredón","alt":["Paredon"],"lon":-57.78886,"lat":-30.66478,"pop":0},{"id":10098141,"name":"Parque Batlle","lon":-56.14546,"lat":-34.89427,"pop":0},{"id":7914622,"name":"Parque del Plata","lon":-55.72077,"lat":-34.75871,"pop":0},{"id":10944673,"name":"Parque José Luis","alt":["Parque Jose Luis"],"lon":-57.94296,"lat":-31.28962,"pop":0},{"id":10642052,"name":"Parque Medina","lon":-54.89273,"lat":-34.79826,"pop":0},{"id":10098238,"name":"Parque Rodó","lon":-56.16677,"lat":-34.91136,"pop":0},{"id":10641917,"name":"Partido Oeste","lon":-54.96102,"lat":-34.71879,"pop":0},{"id":3441294,"name":"Paso Ataques","alt":["Estacion Ataques","Estación Ataques","Paso de Ataques","Passo de Ataques"],"lon":-55.66667,"lat":-31.1,"pop":0},{"id":3443671,"name":"Paso Barrancas","alt":["Barrancas"],"lon":-53.80593,"lat":-33.63406,"pop":0},{"id":10174965,"name":"Paso Bonilla","lon":-55.97929,"lat":-31.80763,"pop":510},{"id":3443462,"name":"Paso Campamento","alt":["Campamento"],"lon":-56.7818,"lat":-30.78904,"pop":0},{"id":3441291,"name":"Paso Cementerio","lon":-56.74197,"lat":-31.40267,"pop":0},{"id":3441290,"name":"Paso de Antolín","alt":["Paso Antolin","Paso Antolín","Paso de Antolin"],"lon":-57.78333,"lat":-34.2,"pop":0},{"id":3441292,"name":"Paso de Carrasco","lon":-56.05222,"lat":-34.86028,"pop":15393},{"id":3441289,"name":"Paso de Ceferino","alt":["Pablado Paso de Ceferino","Paso Ceferino"],"lon":-56.07664,"lat":-31.51973,"pop":0},{"id":10098244,"name":"Paso de la Arena","lon":-56.31231,"lat":-34.82099,"pop":0},{"id":3441287,"name":"Paso de la Cadena","lon":-56.14835,"lat":-34.44227,"pop":0},{"id":3441286,"name":"Paso de la Horqueta","lon":-57.88152,"lat":-34.23775,"pop":0},{"id":3441285,"name":"Paso de la Laguna","lon":-57.53333,"lat":-30.96667,"pop":0},{"id":10866750,"name":"Paso de las Cañas","alt":["Paso de las Canas"],"lon":-56.98638,"lat":-31.46428,"pop":0},{"id":3441284,"name":"Paso de las Carretas","lon":-56.04824,"lat":-31.56344,"pop":0},{"id":3441282,"name":"Paso de las Piedras","lon":-53.48333,"lat":-32.51667,"pop":0},{"id":3441283,"name":"Paso de las Piedras","lon":-56.63333,"lat":-31.66667,"pop":0},{"id":10861690,"name":"Paso de las Toscas","lon":-56.35408,"lat":-34.67168,"pop":0},{"id":3441276,"name":"Paso de León","alt":["Paso de Leon","Paso del Leon","Paso del León"],"lon":-57.0882,"lat":-30.12703,"pop":0},{"id":3441275,"name":"Paso de los Carros","lon":-57.43236,"lat":-31.98025,"pop":0},{"id":10862540,"name":"Paso de los Cobres","lon":-57.55299,"lat":-32.94515,"pop":0},{"id":10861868,"name":"Paso de los Novillos","lon":-56.40115,"lat":-34.16603,"pop":0},{"id":10642886,"name":"Paso de Los Talas","lon":-54.52198,"lat":-34.10874,"pop":0},{"id":3441273,"name":"Paso de los Toros","alt":["Paso-de-los-Toros","Santa Isabel","pa suo de luo si tuo luo si","Пасо-де-лос-Торос","Պասո դե լոս Տորոս","پاسو د لوس‌تروس","پاسو دے لوس توروس","帕索德洛斯托羅斯"],"lon":-56.51667,"lat":-32.81667,"pop":12985},{"id":3441268,"name":"Paso de Pache","lon":-56.28185,"lat":-34.4291,"pop":0},{"id":3441267,"name":"Paso de Piriz","lon":-54.06667,"lat":-33.05,"pop":0},{"id":3441259,"name":"Paso de Soca","alt":["Paso Soca"],"lon":-56.73475,"lat":-32.63347,"pop":0},{"id":3441281,"name":"Paso del Bañado","lon":-53.93333,"lat":-34.2,"pop":0},{"id":10861692,"name":"Paso del Bote","lon":-56.45163,"lat":-34.62098,"pop":0},{"id":3441280,"name":"Paso del Centurión","lon":-53.75,"lat":-32.16667,"pop":0},{"id":3441279,"name":"Paso del Cerro","lon":-55.83318,"lat":-31.47818,"pop":0},{"id":10943644,"name":"Paso del Guaycurú","alt":["Paso del Guaycuru"],"lon":-56.98436,"lat":-33.9849,"pop":0},{"id":3441271,"name":"Paso del Parque","lon":-54.78333,"lat":-31.9,"pop":0},{"id":10866448,"name":"Paso del Parque","lon":-57.04529,"lat":-31.77149,"pop":0},{"id":3441260,"name":"Paso del Potrero","alt":["Paso Potrero","Paso del Potrero de Arerungua","Paso del Potrero de Arerunguá"],"lon":-56.83835,"lat":-31.43802,"pop":0},{"id":3441269,"name":"Paso del Tapado","lon":-55.33333,"lat":-31.25,"pop":0},{"id":10861730,"name":"Paso Espinosa","lon":-56.27924,"lat":-34.49428,"pop":0},{"id":3441266,"name":"Paso Francos","lon":-56.28333,"lat":-34.45,"pop":0},{"id":11171788,"name":"Paso Hospital","lon":-57.67568,"lat":-34.12665,"pop":0},{"id":3441262,"name":"Paso Molino","alt":["Paso del Molino"],"lon":-56.21919,"lat":-34.85706,"pop":0},{"id":10944745,"name":"Paso Nuevo del Arapey","lon":-56.66341,"lat":-31.12686,"pop":0},{"id":10861701,"name":"Paso Palomeque","lon":-56.25783,"lat":-34.51591,"pop":0},{"id":3441261,"name":"Paso Pereira","lon":-55.23333,"lat":-32.46667,"pop":0},{"id":3441258,"name":"Paso Toscas","lon":-56.25,"lat":-34.45,"pop":0},{"id":11171790,"name":"Pastoreo","lon":-57.35133,"lat":-34.33138,"pop":0},{"id":10944874,"name":"Patitas","lon":-57.18958,"lat":-30.90736,"pop":0},{"id":3441247,"name":"Pavón","alt":["Pavon"],"lon":-56.90439,"lat":-34.31169,"pop":0},{"id":3441243,"name":"Paysandú","alt":["Ciudad de Paysandu","Ciudad de Paysandú","PDU","Paisandu","Pajsandu","Paysandu","pai sang du","paisandou","paisandu","payasandu","paysandw","piy san du","Пайсанду","Պայսանդու","پایساندو","পায়সান্দু","ไปย์ซันดู","პაისანდუ","パイサンドゥー","派桑杜","파이산두"],"lon":-58.08072,"lat":-32.3171,"pop":73249},{"id":3441239,"name":"Pedernal","lon":-55.78333,"lat":-34.36667,"pop":0},{"id":3441230,"name":"Pedrera","lon":-55.83333,"lat":-34.58333,"pop":0},{"id":3441205,"name":"Peñarol","alt":["Penarol","Penarol-Lavalleja","Peñarol–Lavalleja"],"lon":-56.18333,"lat":-34.81667,"pop":0},{"id":3441206,"name":"Peñarol","lon":-54.33333,"lat":-31.78333,"pop":0},{"id":3441198,"name":"Pepe Núñez","alt":["Pepe Nunez"],"lon":-56.38677,"lat":-31.4543,"pop":0},{"id":3441196,"name":"Peralta","lon":-56.36115,"lat":-32.49382,"pop":0},{"id":10634580,"name":"Picada Tolosa","lon":-54.50247,"lat":-34.64339,"pop":0},{"id":11171793,"name":"Piedra de los Indios","lon":-57.84151,"lat":-34.377,"pop":0},{"id":3441150,"name":"Piedra del Toro","lon":-55.88278,"lat":-34.70108,"pop":0},{"id":3441147,"name":"Piedra Pintada","alt":["Colonia Pintado","Pintado Colonia Agricola","Pintado Colonia Agrícola"],"lon":-56.35267,"lat":-30.52417,"pop":0},{"id":3441102,"name":"Piedra Sola","lon":-56.30978,"lat":-32.08292,"pop":0},{"id":3441122,"name":"Piedras Blancas","alt":["Balneario Piedras Blancas"],"lon":-56.13944,"lat":-34.82861,"pop":0},{"id":3441114,"name":"Piedras Coloradas","lon":-57.60901,"lat":-32.37183,"pop":1094},{"id":3441111,"name":"Piedras de Afilar","lon":-55.51894,"lat":-34.74189,"pop":0},{"id":3441097,"name":"Piedritas","lon":-55.65,"lat":-34.33333,"pop":0},{"id":10861470,"name":"Pinamar","lon":-55.85879,"lat":-34.78693,"pop":0},{"id":10641928,"name":"Pinares","lon":-54.98632,"lat":-34.90841,"pop":0},{"id":3441092,"name":"Pinchazo","lon":-57.1,"lat":-31.3,"pop":0},{"id":3441091,"name":"Piñera","alt":["Pinera"],"lon":-57.0486,"lat":-32.3269,"pop":0},{"id":10944947,"name":"Pintadito","lon":-56.45675,"lat":-30.43219,"pop":0},{"id":3441087,"name":"Pintado","lon":-56.30698,"lat":-33.83465,"pop":0},{"id":3441082,"name":"Pintado Grande","lon":-56.42298,"lat":-30.51582,"pop":0},{"id":3441076,"name":"Pirarajá","alt":["Piraraja","Santa Maria","Santa Maria del Piraraja","Santa María","Santa María del Pirarajá"],"lon":-54.75736,"lat":-33.7397,"pop":0},{"id":3441074,"name":"Piriápolis","alt":["Piriapolis","pi li ya bo li si","pyryaplys","pyryapwlys","Пириаполис","پیریاپلیس","پیریاپولیس","皮里亞波利斯"],"lon":-55.27471,"lat":-34.86287,"pop":7968},{"id":3441071,"name":"Plácido Rosas","alt":["Placido Rosas","Rosas"],"lon":-53.71763,"lat":-32.75533,"pop":0},{"id":3441068,"name":"Platón","lon":-55.68333,"lat":-31,"pop":0},{"id":9883531,"name":"Playa Grande","lon":-55.302,"lat":-34.84977,"pop":0},{"id":7729799,"name":"Playa Hermosa","lon":-55.30046,"lat":-34.83734,"pop":0},{"id":3441064,"name":"Playa Verde","lon":-55.30597,"lat":-34.83243,"pop":0},{"id":10098415,"name":"Playa Verde","lon":-55.31462,"lat":-34.82663,"pop":0},{"id":3441063,"name":"Poblado Batoví","alt":["Batovi","Batoví","Poblado Batovi"],"lon":-55.93333,"lat":-31.91667,"pop":0},{"id":3441062,"name":"Poblado Berruti","alt":["Berruti"],"lon":-55.23333,"lat":-31.43333,"pop":0},{"id":3441061,"name":"Poblado Celeste","alt":["Celeste"],"lon":-57.06667,"lat":-31.3,"pop":0},{"id":3441060,"name":"Poblado Cerro Batoví","alt":["Cerro Batovi","Cerro Batoví","Poblado Cerro Batovi"],"lon":-56,"lat":-31.88333,"pop":0},{"id":3441059,"name":"Poblado Cerro Chato","alt":["Cerro Chato"],"lon":-56.03333,"lat":-32.45,"pop":0},{"id":3441058,"name":"Poblado Cerro del Pastoreo","alt":["Cerro Pastoreo"],"lon":-56.1,"lat":-31.7,"pop":0},{"id":3441057,"name":"Poblado de Castro","alt":["Los Castros"],"lon":-56.43333,"lat":-32.83333,"pop":0},{"id":3441056,"name":"Poblado de Heriberto","alt":["Heriberto"],"lon":-55.5,"lat":-31.81667,"pop":0},{"id":3441054,"name":"Poblado de los Cuadrados","alt":["Los Cuadrado"],"lon":-55.95,"lat":-32.16667,"pop":0},{"id":3441053,"name":"Poblado de los Morales","alt":["Rincon de Pereyra","Rincón de Pereyra"],"lon":-55.35,"lat":-32.4,"pop":0},{"id":3441055,"name":"Poblado del Minuano","alt":["Minuano"],"lon":-55.03333,"lat":-32.45,"pop":0},{"id":3441052,"name":"Poblado del Turupí","alt":["Poblado del Turupi","Turupi","Turupí"],"lon":-55.28333,"lat":-32.18333,"pop":0},{"id":3441050,"name":"Poblado Godoy","alt":["Godoy"],"lon":-56.01667,"lat":-31.76667,"pop":0},{"id":3441049,"name":"Poblado Goyo Martínez","alt":["Goyo Martinez","Poblado Goyo Martinez"],"lon":-55.88333,"lat":-31.9,"pop":0},{"id":3441047,"name":"Poblado La Chilca","alt":["La Chirca"],"lon":-54.63333,"lat":-32.05,"pop":0},{"id":3441046,"name":"Poblado La Hilera","alt":["La Hilera"],"lon":-55.65812,"lat":-32.07856,"pop":0},{"id":3441045,"name":"Poblado La Humedad","alt":["La Humedad"],"lon":-54.86667,"lat":-32.05,"pop":0},{"id":3441043,"name":"Poblado La Morcona","alt":["La Morcona"],"lon":-56.06667,"lat":-32.18333,"pop":0},{"id":3441037,"name":"Poblado la Villa","alt":["Vila"],"lon":-55.08333,"lat":-31.36667,"pop":0},{"id":3441044,"name":"Poblado Lambari","alt":["Lambare","Lambaré"],"lon":-55.96667,"lat":-31.51667,"pop":0},{"id":3441042,"name":"Poblado Las Arenas","alt":["Las Arenas"],"lon":-55.06667,"lat":-32.01667,"pop":0},{"id":3441041,"name":"Poblado Las Chircas","alt":["Las Chircas"],"lon":-55.06667,"lat":-32.38333,"pop":0},{"id":3441040,"name":"Poblado Laura","alt":["Laura"],"lon":-54.88333,"lat":-32.15,"pop":0},{"id":3441039,"name":"Poblado Laureles","alt":["Laureles"],"lon":-55.86667,"lat":-31.38333,"pop":0},{"id":3441038,"name":"Poblado Lavalleja","alt":["Lavalleja"],"lon":-55.96667,"lat":-31.81667,"pop":0},{"id":3441036,"name":"Poblado Los Coitinhos","alt":["Los Coitinhos"],"lon":-55.98333,"lat":-31.83333,"pop":0},{"id":3441035,"name":"Poblado Los García","alt":["Los Garcia","Poblado Los Garcia"],"lon":-54.95,"lat":-32.15,"pop":0},{"id":3441034,"name":"Poblado Los Gómez","alt":["Los Gomez","Poblado Los Gomez"],"lon":-55.03333,"lat":-32.18333,"pop":0},{"id":3441033,"name":"Poblado Los Grozos","alt":["Los Grozos"],"lon":-56,"lat":-31.85,"pop":0},{"id":3441032,"name":"Poblado Los Laureles","alt":["Laureles","Paso de Laureles"],"lon":-56.03333,"lat":-32.5,"pop":0},{"id":3441031,"name":"Poblado Los Rodríguez","alt":["Los Rodriguez","Poblado Los Rodriguez"],"lon":-56.25,"lat":-31.76667,"pop":0},{"id":3441030,"name":"Poblado los Silveira","alt":["Los Silveyra"],"lon":-54.91667,"lat":-32.26667,"pop":0},{"id":3441028,"name":"Poblado Montevideo Chico","alt":["Montevideo Chico"],"lon":-55.6,"lat":-32.21667,"pop":0},{"id":3441027,"name":"Poblado Paso Hondo","alt":["Paso Hondo","Paso Hondo del Arroyo Malo"],"lon":-55.88333,"lat":-32.33333,"pop":0},{"id":10636660,"name":"Poblado Pedro Aramendía","alt":["Poblado Pedro Aramendia"],"lon":-54.61954,"lat":-33.63783,"pop":0},{"id":3441026,"name":"Poblado Rincón de Giloca","alt":["Poblado Rincon de Giloca","Rincon de Giloca","Rincón de Giloca"],"lon":-55.76667,"lat":-31.83333,"pop":0},{"id":3441025,"name":"Poblado Rincón de la Bolsa","alt":["Poblado Rincon de la Bolsa","Rincon de la Bolsa","Rincón de la Bolsa"],"lon":-55.91667,"lat":-31.81667,"pop":0},{"id":3441024,"name":"Poblado Rincón de la Laguna","alt":["Poblado Rincon de la Laguna","Rincon de la Laguna","Rincón de la Laguna"],"lon":-55.48333,"lat":-32,"pop":0},{"id":3441023,"name":"Poblado Rincón de los Muchadas","alt":["Poblado Rincon de los Muchadas","Rincon de los Machado","Rincón de los Machado"],"lon":-56.01667,"lat":-32.21667,"pop":0},{"id":3441022,"name":"Poblado Rivera Chico","alt":["Rivera Chico"],"lon":-55.66667,"lat":-32.03333,"pop":0},{"id":3441021,"name":"Poblado Rolón","alt":["Poblado Rolon","Rolon","Rolón"],"lon":-55.96667,"lat":-32.33333,"pop":0},{"id":3441020,"name":"Poblado San Benito","alt":["San Benito"],"lon":-56.16667,"lat":-32.46667,"pop":0},{"id":3441019,"name":"Poblado San Ramón","alt":["Poblado San Ramon","San Ramon","San Ramón"],"lon":-55.05,"lat":-31.96667,"pop":0},{"id":3441018,"name":"Poblado Sauce de Batoví","alt":["Poblado Sauce de Batovi","Sauce Batovi","Sauce Batoví"],"lon":-56.01667,"lat":-31.91667,"pop":0},{"id":3441016,"name":"Poblado Segarra","alt":["Segarra"],"lon":-55.16667,"lat":-31.5,"pop":0},{"id":3441015,"name":"Poblado Sosa","alt":["Carqueja","Sosa"],"lon":-57.11667,"lat":-31.23333,"pop":0},{"id":3441014,"name":"Poblado Varese","alt":["Varese"],"lon":-57.15,"lat":-31.3,"pop":0},{"id":3441013,"name":"Poblado Zambullón","alt":["Poblado Zambullon","Zambullon","Zambullón"],"lon":-55.78333,"lat":-32.03333,"pop":0},{"id":3441012,"name":"Poblado Zapucay","alt":["Minas de Zapucay","Zapucay"],"lon":-55.33333,"lat":-31.71667,"pop":0},{"id":3441011,"name":"Pocitos","lon":-56.15222,"lat":-34.90972,"pop":0},{"id":10098249,"name":"Pocitos Nuevo","lon":-56.13986,"lat":-34.9074,"pop":0},{"id":3441004,"name":"Polanco de Ibargoyen","lon":-55.26667,"lat":-33.93333,"pop":0},{"id":3441003,"name":"Polanco del Yi","alt":["Paso Polanco del Yi"],"lon":-56.15635,"lat":-33.48687,"pop":0},{"id":3441009,"name":"Polanco Norte","alt":["Polanco"],"lon":-55.12167,"lat":-33.87517,"pop":0},{"id":3441000,"name":"Polanco Sur","lon":-55.16725,"lat":-33.89828,"pop":0},{"id":10943752,"name":"Polancos","lon":-58.27596,"lat":-33.87778,"pop":0},{"id":8057939,"name":"Portones de Hierro y Campodónico","alt":["Campodonico","Campodónico","Portones de Hierro y Campodonico"],"lon":-57.56388,"lat":-30.27301,"pop":0},{"id":3440984,"name":"Porvenir","lon":-57.96961,"lat":-32.39273,"pop":1159},{"id":10098254,"name":"Prado","lon":-56.20275,"lat":-34.86403,"pop":0},{"id":3440963,"name":"Progreso","alt":["Ingeniero Eduardo Garcia de Zuniga","Ingeniero Eduardo García de Zúñiga"],"lon":-56.21758,"lat":-34.66737,"pop":16244},{"id":10943739,"name":"Pueblo Castillos","lon":-57.74748,"lat":-33.85005,"pop":0},{"id":3443261,"name":"Pueblo Cayetano","alt":["Cayetano"],"lon":-56.77109,"lat":-31.24217,"pop":0},{"id":3440959,"name":"Pueblo Centenario","lon":-56.46667,"lat":-32.86667,"pop":1136},{"id":3440957,"name":"Pueblo Cuchilla","lon":-56.86667,"lat":-32.08333,"pop":0},{"id":3440956,"name":"Pueblo de Arriba","lon":-55.46667,"lat":-31.75,"pop":0},{"id":3440955,"name":"Pueblo de Barro","alt":["Pueblo del Barro"],"lon":-55.38333,"lat":-32.05,"pop":0},{"id":3440954,"name":"Pueblo de la Arena","lon":-57,"lat":-33.03333,"pop":0},{"id":3440953,"name":"Pueblo del Sauce","alt":["Poblado del Sauce","Sauce"],"lon":-54.65,"lat":-33.68333,"pop":0},{"id":3441782,"name":"Pueblo Fernández","alt":["Fernandez","Fernández","Mataojito","Mataojo","Pueblo Fernandez"],"lon":-56.3676,"lat":-31.17853,"pop":0},{"id":3440952,"name":"Pueblo Ferrocarril","alt":["Ferro Carril"],"lon":-56.21667,"lat":-34.8,"pop":0},{"id":3441080,"name":"Pueblo Pintos","alt":["Pintos"],"lon":-56.83838,"lat":-33.88403,"pop":0},{"id":3440092,"name":"Pueblo Sequeira","alt":["Sequeira"],"lon":-56.87044,"lat":-30.9892,"pop":1149},{"id":3440948,"name":"Puerto Amaro","alt":["Amaro"],"lon":-53.48333,"lat":-32.75,"pop":0},{"id":10634562,"name":"Puerto de los Botes","lon":-54.31852,"lat":-34.54483,"pop":0},{"id":3440947,"name":"Puerto Platero","alt":["Platero"],"lon":-57.64026,"lat":-34.43661,"pop":0},{"id":10636508,"name":"Puimayen","lon":-53.40925,"lat":-33.77411,"pop":0},{"id":8555965,"name":"Punta Ballena","lon":-55.0391,"lat":-34.88832,"pop":0},{"id":3440942,"name":"Punta Carretas","lon":-56.15972,"lat":-34.92278,"pop":0},{"id":9883533,"name":"Punta Colorada","lon":-55.2596,"lat":-34.90061,"pop":0},{"id":6691980,"name":"Punta del Diablo","lon":-53.5405,"lat":-34.04583,"pop":300},{"id":3440939,"name":"Punta del Este","alt":["PDP","Pounta ntel Este","Punta del Estė","Punta del' Ehste","Punta-del'-Ehste","Punta-del'-Este","Punte del Este","ai si te jiao cheng","pun ta del xe s te","puntadel-eseute","pwnta dl asth","Πούντα ντελ Έστε","Пунта дел Есте","Пунта дель Эсте","Пунта-дель-Есте","Пунта-дель-Эсте","פונטה דל אסטה","پونتا دل استه","پونتا دیل ایستے","ปุนตาเดลเอสเต","プンタ・デル・エステ","埃斯特角城","푼타델에스테"],"lon":-54.93382,"lat":-34.94747,"pop":9277},{"id":7914084,"name":"Punta Gorda","lon":-56.08175,"lat":-34.89265,"pop":0},{"id":10098419,"name":"Punta Negra","lon":-55.21686,"lat":-34.88931,"pop":0},{"id":10098586,"name":"Punta Rubia","lon":-54.12011,"lat":-34.57768,"pop":0},{"id":3440936,"name":"Puntas de Cañada Grande","alt":["Puntas de Canada Grande"],"lon":-56.73915,"lat":-34.40789,"pop":0},{"id":3440935,"name":"Puntas de Cañas","lon":-56.91667,"lat":-31.63333,"pop":0},{"id":3440934,"name":"Puntas de Corrales","lon":-55.2,"lat":-31.31667,"pop":0},{"id":10642314,"name":"Puntas de José Ignacio","alt":["Puntas de Jose Ignacio"],"lon":-54.58663,"lat":-34.42094,"pop":0},{"id":11171827,"name":"Puntas de Juan González","alt":["Puntas de Juan Gonzalez"],"lon":-57.93597,"lat":-34.10241,"pop":0},{"id":3440929,"name":"Puntas de Maciel","lon":-56.36301,"lat":-33.62229,"pop":0},{"id":10861569,"name":"Puntas de Pantanoso","lon":-56.06014,"lat":-34.54293,"pop":0},{"id":10643034,"name":"Puntas de Santa Lucía","alt":["Puntas de Santa Lucia"],"lon":-55.16086,"lat":-34.19187,"pop":0},{"id":3480812,"name":"Puntas de Valdéz","alt":["Puntas de Valdez"],"lon":-56.70097,"lat":-34.5855,"pop":1491},{"id":10866732,"name":"Puntas de Valentín","alt":["Puntas de Valentin"],"lon":-57.13294,"lat":-31.49686,"pop":0},{"id":3440937,"name":"Puntas del Buricayupí","alt":["Buricayupi","Buricayupí","Puntas de Buricayupi","Puntas de Buricayupí","Puntas del Buricayupi","Sauce Buricayupi","Sauce Buricayupí"],"lon":-57.34286,"lat":-31.86284,"pop":0},{"id":10943926,"name":"Puntas del Marincho","lon":-57.04969,"lat":-33.52217,"pop":0},{"id":3440932,"name":"Puntas del Parao","lon":-54.37872,"lat":-32.72512,"pop":0},{"id":10943661,"name":"Puntas del Rosario","lon":-57.17936,"lat":-33.97852,"pop":0},{"id":3440931,"name":"Puntas del Sauce","lon":-57.0195,"lat":-33.82146,"pop":0},{"id":3440930,"name":"Puntas del Tala","lon":-57.55,"lat":-33.38333,"pop":0},{"id":3440927,"name":"Puntas Duraznito","alt":["Duraznito"],"lon":-57.53333,"lat":-33.65,"pop":0},{"id":3440924,"name":"Quebracho","lon":-54.63333,"lat":-32.68333,"pop":0},{"id":3440925,"name":"Quebracho","lon":-57.9014,"lat":-31.93526,"pop":2853},{"id":10865335,"name":"Queguay Chico","lon":-56.91517,"lat":-32.08637,"pop":0},{"id":3440898,"name":"Quiebra Yugos","lon":-56.16667,"lat":-31.66667,"pop":0},{"id":3440892,"name":"Quintana","lon":-56.39462,"lat":-31.34837,"pop":0},{"id":10862746,"name":"Rabón","alt":["Rabon"],"lon":-57.96888,"lat":-32.52616,"pop":0},{"id":3440880,"name":"Radial Conchillas","lon":-58.00787,"lat":-34.12133,"pop":0},{"id":10943567,"name":"Radial Ruta Tres","lon":-56.76036,"lat":-34.55076,"pop":0},{"id":3440879,"name":"Rafael Perazza","lon":-56.7971,"lat":-34.52335,"pop":1274},{"id":3440878,"name":"Raigón","alt":["Raigon"],"lon":-56.66299,"lat":-34.34024,"pop":0},{"id":3440868,"name":"Ramón Saravia","lon":-55.05,"lat":-33.01667,"pop":0},{"id":3440867,"name":"Ramón Trigo","alt":["Ramon Trigo","Trigo"],"lon":-54.63733,"lat":-32.34864,"pop":0},{"id":3440866,"name":"Ramos","alt":["La Reforma"],"lon":-56.43333,"lat":-31.28333,"pop":0},{"id":3440864,"name":"Rancherío Tejera","lon":-56.46667,"lat":-33.33333,"pop":0},{"id":3440857,"name":"Real de San Carlos","alt":["Real San Carlos"],"lon":-57.88333,"lat":-34.43333,"pop":0},{"id":3440855,"name":"Reboledo","lon":-55.64742,"lat":-33.99113,"pop":0},{"id":3440844,"name":"Reducto","lon":-56.18333,"lat":-34.88333,"pop":0},{"id":3440831,"name":"Reynold","lon":-55.85,"lat":-33.06667,"pop":0},{"id":3440830,"name":"Riachuelo","lon":-57.71051,"lat":-34.43232,"pop":0},{"id":3440823,"name":"Riffó","lon":-56.3,"lat":-34.53333,"pop":0},{"id":3440822,"name":"Rincón","alt":["Rincon"],"lon":-53.83333,"lat":-32.78333,"pop":0},{"id":10943560,"name":"Rincón de Buschental","alt":["Rincon de Buschental"],"lon":-56.52652,"lat":-34.58846,"pop":0},{"id":10636632,"name":"Rincón de Cebollatí","alt":["Rincon de Cebollati"],"lon":-54.45538,"lat":-33.65328,"pop":0},{"id":10943866,"name":"Rincón de Cololó","alt":["Rincon de Cololo"],"lon":-57.87219,"lat":-33.0455,"pop":0},{"id":3440809,"name":"Rincón de Coronel","lon":-53.96667,"lat":-32.7,"pop":0},{"id":3440808,"name":"Rincón de Cuadra","alt":["Cuchilla de Cuadra","Pantanosa de Cuadra","Rincon de Cuadra"],"lon":-56.41667,"lat":-33.38333,"pop":0},{"id":10866692,"name":"Rincón de Freitas","alt":["Rincon de Freitas"],"lon":-56.17279,"lat":-31.61195,"pop":0},{"id":3440807,"name":"Rincón de Gutiérrez","lon":-54.75,"lat":-33.2,"pop":0},{"id":3440806,"name":"Rincón de la Aldea","alt":["Poblado Rincon de la Aldea","Poblado Rincón de la Aldea","Rincon Aldea","Rincon de la Aldea","Rincón Aldea"],"lon":-56.06667,"lat":-31.75,"pop":0},{"id":10641674,"name":"Rincón de los Francos","alt":["Rincon de los Francos"],"lon":-54.62241,"lat":-33.17274,"pop":0},{"id":3440802,"name":"Rincón de los Negros","lon":-57.46667,"lat":-32.71667,"pop":0},{"id":3440801,"name":"Rincón de los Olivera","alt":["Rincon de los Olivera","Rincon de los Oliveras","Rincón de los Oliveras"],"lon":-53.84793,"lat":-34.30303,"pop":0},{"id":10645471,"name":"Rincón de Mariscala","alt":["Rincon de Mariscala"],"lon":-54.58557,"lat":-33.93474,"pop":0},{"id":3440798,"name":"Rincón de Moraes","lon":-55.86667,"lat":-31.3,"pop":0},{"id":3440797,"name":"Rincón de Pacheco","alt":["Rincon de Pacheco"],"lon":-56.16263,"lat":-30.70537,"pop":0},{"id":3440796,"name":"Rincón de Py","lon":-54.41667,"lat":-32.5,"pop":0},{"id":3440795,"name":"Rincón de Valentín","alt":["Rincon de Valentin","Rincon de Valentines","Rincón de Valentines"],"lon":-57.20176,"lat":-31.28066,"pop":0},{"id":3440794,"name":"Rincón de Velázquez","lon":-56.33333,"lat":-34.4,"pop":0},{"id":3440793,"name":"Rincón de Vidal","lon":-56.38333,"lat":-34.38333,"pop":0},{"id":3440792,"name":"Rincón de Yaguarí","lon":-55.18333,"lat":-31.81667,"pop":0},{"id":3440805,"name":"Rincón del Bonete","lon":-56.42548,"lat":-32.83308,"pop":0},{"id":3440803,"name":"Rincón del Cololó","lon":-57.43333,"lat":-33.08333,"pop":0},{"id":10861506,"name":"Rincón del Colorado","alt":["Rincon del Colorado"],"lon":-56.33291,"lat":-34.68893,"pop":0},{"id":3440800,"name":"Rincón del Pino","alt":["Rincon del Pino"],"lon":-56.83483,"lat":-34.50326,"pop":0},{"id":3440791,"name":"Río Branco","alt":["Artigas","La Cuchilla","Rio Branco","Rio Branko","Rio-Branko","li ao bu lan ke","liobeulangko","ryw brankw  arwgwyh","Рио-Бранко","Ռիո Բրանկո","ریو برانکو، اروگوئه","ریو برانکو، یوراگوئے","里奧布蘭科","리오브랑코"],"lon":-53.38583,"lat":-32.59802,"pop":14604},{"id":3440785,"name":"Risso","lon":-57.57275,"lat":-33.62168,"pop":0},{"id":3440781,"name":"Rivera","alt":["RVY","Villa de Rivera","li wei la","libela","ri be ra","ribera","rivera","rybrh","ryfyra","rywra","rywyra","Ривера","Рівера","Ռիվերա","ריברה","ريفيرا","ریورا","ریویرا","রিবেরা","รีเบรา","რივერა","リベラ","里韦拉","리베라"],"lon":-55.55076,"lat":-30.90534,"pop":64631},{"id":3440777,"name":"Rocha","alt":["Ciudad de Rocha","Roca","Roča","locha","luo qia","rocha","rwcha","Роча","Ռոչա","روچا","روچا، یوراگوئے","როჩა","ロチャ","羅恰","로차"],"lon":-54.33333,"lat":-34.48333,"pop":25515},{"id":3440762,"name":"Rodríguez","alt":["Concordia","Rodriguez"],"lon":-56.53797,"lat":-34.381,"pop":2604},{"id":3440758,"name":"Roja","lon":-56.68333,"lat":-33.21667,"pop":0},{"id":3440756,"name":"Rolón","lon":-55.98333,"lat":-33.11667,"pop":0},{"id":3440757,"name":"Rolón","alt":["Puntas de Rolon","Puntas de Rolón","Rolon"],"lon":-56.89082,"lat":-32.63731,"pop":0},{"id":3440747,"name":"Rosario","alt":["Villa del Rosario","luo sa li ao","rwzaryw  arwgwyh","Росарио","Ռոսարիո","روزاریو، اروگوئه","روساریو، یوراگوئے","羅薩里奧"],"lon":-57.35,"lat":-34.31667,"pop":10085},{"id":11171800,"name":"Rosario y Colla","lon":-57.33503,"lat":-34.27533,"pop":0},{"id":3440731,"name":"Saca Chispas","lon":-57.58333,"lat":-33.16667,"pop":0},{"id":3440732,"name":"Saca Chispas","lon":-57.28333,"lat":-31.86667,"pop":0},{"id":3440726,"name":"Salamanca","lon":-54.66667,"lat":-34.16667,"pop":0},{"id":3440722,"name":"Salinas","alt":["Balneario Salinas","Balneario de Pando"],"lon":-55.83954,"lat":-34.77731,"pop":0},{"id":3440714,"name":"Salto","alt":["Ciudad del Salto","STY","Sal'to","Salta","Saltas","sa er tuo","sal to","salato","salto","saltw  arwgwyh","saltw  awrwghway","saruto","sltw","Салто","Сальто","Սալտո","סלטו","سالتو، أوروغواي","سالتو، اروگوئه","سالتو، یوراگوئے","साल्तो","সালতো","ซัลโต","სალტო","サルト","萨尔托","살토"],"lon":-57.96667,"lat":-31.38333,"pop":99823},{"id":3440705,"name":"San Antonio","lon":-56.08036,"lat":-34.4513,"pop":1453},{"id":3440706,"name":"San Antonio","lon":-57.75903,"lat":-31.35127,"pop":0},{"id":10098597,"name":"San Antonio","lon":-54.07857,"lat":-34.54789,"pop":0},{"id":3440698,"name":"San Bautista","lon":-55.95861,"lat":-34.44016,"pop":1905},{"id":3440696,"name":"San Carlos","alt":["San Karlos","San Karlosas","San-Karlos","Villa de San Carlos","san karlws  arwgwyh","sankaleulloseu","sheng ka luo si","Сан-Карлос","Սան Կարլոս","سان کارلوس، اروگوئه","سان کارلوس، یوراگوئے","სან-კარლოსი","聖卡洛斯","산카를로스"],"lon":-54.91824,"lat":-34.79123,"pop":27471},{"id":3440685,"name":"San Dios","lon":-57.51667,"lat":-33.86667,"pop":0},{"id":3440686,"name":"San Díos","alt":["San Dios"],"lon":-57.75736,"lat":-33.10088,"pop":0},{"id":3440684,"name":"San Félix","alt":["San Felix"],"lon":-58.10094,"lat":-32.34631,"pop":1718},{"id":9883535,"name":"San Francisco","lon":-55.26943,"lat":-34.88537,"pop":0},{"id":3440674,"name":"San Gabriel","lon":-55.88683,"lat":-34.0388,"pop":0},{"id":3440666,"name":"San Gregorio","alt":["Costa de San Gregorio"],"lon":-56.75249,"lat":-33.9382,"pop":0},{"id":3440656,"name":"San Gregorio de Polanco","alt":["San Gregorio"],"lon":-55.83333,"lat":-32.61667,"pop":0},{"id":3440654,"name":"San Jacinto","lon":-55.87151,"lat":-34.54465,"pop":3954},{"id":3440653,"name":"San Javier","alt":["Colonia San Javier","San Khav'er","Сан Хавьер"],"lon":-58.1332,"lat":-32.66523,"pop":1781},{"id":3440652,"name":"San Jorge","alt":["Cerro San Jorge","Sauce de San Jorge"],"lon":-55.89622,"lat":-32.84236,"pop":0},{"id":3440640,"name":"San José de las Cañas","alt":["San Jose de Canas","San Jose de las Canas","San José de Cañas"],"lon":-55.48333,"lat":-32.83333,"pop":0},{"id":3440639,"name":"San José de Mayo","alt":["Ciudad de San Jose","Ciudad de San José","San Chose de Majas","San Jose","San Jose de Mayo","San José","San Khose de Majo","San Xose de Mayo","San-Khose-de-Majo","san khwzh dmayw","san-khose-de-maio","sanhosedemayo","sheng he sai de ma yue","Сан Хосе де Майо","Сан-Хосе-де-Майо","Սան Խոսե դե Մայո","سان خوزه دمایو","سان خوسے دے ماجو","სან-ხოსე-დე-მაიო","聖何塞德馬約","산호세데마요"],"lon":-56.71361,"lat":-34.3375,"pop":36529},{"id":3440637,"name":"San Juan","alt":["Puntas de San Juan"],"lon":-57.46667,"lat":-33.93333,"pop":0},{"id":11171821,"name":"San Juan","lon":-57.79939,"lat":-34.20403,"pop":0},{"id":3440622,"name":"San Luis","alt":["Balneario San Luis"],"lon":-55.59069,"lat":-34.7686,"pop":0},{"id":3440626,"name":"San Luis","lon":-54.55,"lat":-31.56667,"pop":0},{"id":3440627,"name":"San Luis","lon":-56.3,"lat":-30.91667,"pop":0},{"id":10341404,"name":"San Luis","lon":-57.55008,"lat":-34.24076,"pop":0},{"id":3440617,"name":"San Luis al Medio","alt":["Costa de San Luis","Olivera","Paso de San Luis","San Luis"],"lon":-53.71658,"lat":-33.60349,"pop":0},{"id":11171842,"name":"San Luis Sánchez","alt":["San Luis Sanchez"],"lon":-57.67321,"lat":-34.17276,"pop":0},{"id":3440616,"name":"San Martín","lon":-57.61667,"lat":-33.75,"pop":0},{"id":3440604,"name":"San Pedro","lon":-57.82848,"lat":-34.29374,"pop":0},{"id":11171795,"name":"San Pedro Norte","lon":-57.82767,"lat":-34.28369,"pop":0},{"id":3440597,"name":"San Rafael","lon":-54.89811,"lat":-34.92965,"pop":0},{"id":3440596,"name":"San Ramón","alt":["San Ramon"],"lon":-55.95571,"lat":-34.29155,"pop":7133},{"id":10943760,"name":"San Roque","lon":-58.06414,"lat":-34.03837,"pop":0},{"id":3440589,"name":"San Servando","lon":-53.3,"lat":-32.63333,"pop":0},{"id":3440692,"name":"Sánchez","alt":["Pueblo Sanchez","Pueblo Sanchez Grande","Pueblo Sauce","Pueblo Sánchez Grande","Sanchez","Sanchez Chico","Sanchez Grande"],"lon":-57.755,"lat":-32.8138,"pop":0},{"id":3440688,"name":"Sánchez Grande","alt":["Pueblo Sanchez","Sanchez Grande"],"lon":-57.71667,"lat":-32.83333,"pop":0},{"id":10943918,"name":"Santa Adelaida","lon":-57.15439,"lat":-33.76544,"pop":0},{"id":3440584,"name":"Santa Ana","alt":["Balneario Santa Ana"],"lon":-55.46785,"lat":-34.78697,"pop":0},{"id":11171779,"name":"Santa Ana","lon":-57.59543,"lat":-34.42105,"pop":0},{"id":3440581,"name":"Santa Bernardina","lon":-56.52498,"lat":-33.3536,"pop":1094},{"id":3440580,"name":"Santa Catalina","lon":-57.48824,"lat":-33.791,"pop":1067},{"id":10121511,"name":"Santa Catalina","lon":-56.29373,"lat":-34.88938,"pop":0},{"id":3440577,"name":"Santa Clara de Olimar","alt":["Olimar Santa Clara","Pueblo Olimar","Santa Clara","Santa Clara del Olimar"],"lon":-54.94447,"lat":-32.92254,"pop":2341},{"id":10862744,"name":"Santa Elisa","lon":-58.14717,"lat":-32.47548,"pop":0},{"id":3440572,"name":"Santa Fernandina","alt":["Santa Ernestina"],"lon":-55.55,"lat":-31.55,"pop":0},{"id":10098590,"name":"Santa Isabel","lon":-54.36902,"lat":-34.71431,"pop":0},{"id":10634569,"name":"Santa Isabel","lon":-54.10014,"lat":-34.55721,"pop":0},{"id":3440571,"name":"Santa Lucía","alt":["San Juan Bautista","Santa Lucia"],"lon":-56.39056,"lat":-34.45333,"pop":16438},{"id":3440569,"name":"Santa Lucía del Este","alt":["Balneario Santa Lucia","Balneario Santa Lucía","Santa Lucia","Santa Lucia del Este","Santa Lucía"],"lon":-55.53652,"lat":-34.78931,"pop":0},{"id":10098500,"name":"Santa Mónica","lon":-54.6993,"lat":-34.84973,"pop":0},{"id":10943549,"name":"Santa Regina","lon":-57.19264,"lat":-34.43732,"pop":0},{"id":3440554,"name":"Santa Rosa","lon":-56.03795,"lat":-34.49819,"pop":3727},{"id":10943767,"name":"Santa Rosa","lon":-57.9961,"lat":-34.08448,"pop":0},{"id":3440549,"name":"Santa Teresa","lon":-57.71667,"lat":-34.43333,"pop":2657},{"id":3440541,"name":"Santiago Vázquez","alt":["Santiago","Santiago Vazquez"],"lon":-56.35,"lat":-34.79028,"pop":1468},{"id":3440530,"name":"Sarandí","lon":-57.9,"lat":-33.95,"pop":0},{"id":3440531,"name":"Sarandí","alt":["Sarandi","Sarandi de Barcelo","Sarandí de Barceló"],"lon":-53.71667,"lat":-32.48333,"pop":0},{"id":10943766,"name":"Sarandí Campana","alt":["Sarandi Campana"],"lon":-57.95617,"lat":-34.0361,"pop":0},{"id":3440417,"name":"Sarandí de Aceguá","lon":-54.2,"lat":-32.01667,"pop":0},{"id":3440414,"name":"Sarandí de Cebollatí","lon":-54.53333,"lat":-33.71667,"pop":0},{"id":3440413,"name":"Sarandí de Cuaró","alt":["Sarandi de Cuaro"],"lon":-56.65978,"lat":-30.87418,"pop":0},{"id":3440411,"name":"Sarandí de Gutiérrez","lon":-54.6,"lat":-33.53333,"pop":0},{"id":3440397,"name":"Sarandí de Navarro","alt":["Sarandi","Sarandi de Navarro","Sarandí"],"lon":-56.86579,"lat":-32.54365,"pop":0},{"id":8058695,"name":"Sarandí de Yacuy","alt":["Sarandi de Yacuy"],"lon":-57.62962,"lat":-30.74095,"pop":0},{"id":3440532,"name":"Sarandí del Arapey","alt":["Sarandi","Sarandi del Arapey","Sarandí"],"lon":-56.21537,"lat":-30.9875,"pop":0},{"id":10098508,"name":"Sarandí del Mataojo","lon":-55.03818,"lat":-34.67275,"pop":0},{"id":3440400,"name":"Sarandí del Yi","alt":["Sarandi del Yi"],"lon":-55.63333,"lat":-33.35,"pop":7176},{"id":3440394,"name":"Sarandí Grande","alt":["Sarandi","Sarandi Grande","Sarandí","Villa Sarandi","Villa Sarandí"],"lon":-56.33333,"lat":-33.73333,"pop":6130},{"id":3440379,"name":"Sauce","lon":-56.06431,"lat":-34.65191,"pop":5910},{"id":3440380,"name":"Sauce","alt":["Sauce del Yi","Sauce del Yí"],"lon":-56.78333,"lat":-33.2,"pop":0},{"id":3440381,"name":"Sauce","alt":["Sauce Chico de Laureles"],"lon":-57.58333,"lat":-31.51667,"pop":0},{"id":3442688,"name":"Sauce","alt":["El Sauce"],"lon":-57.73176,"lat":-32.90521,"pop":0},{"id":10865593,"name":"Sauce de Abajo","lon":-57.64236,"lat":-32.12346,"pop":0},{"id":10642831,"name":"Sauce de Aiguá","alt":["Sauce de Aigua"],"lon":-54.72641,"lat":-34.26165,"pop":0},{"id":10865634,"name":"Sauce de Buricayupí","alt":["Sauce de Buricayupi"],"lon":-57.53885,"lat":-31.9979,"pop":0},{"id":8555964,"name":"Sauce de Portezuelo","lon":-55.13961,"lat":-34.8729,"pop":0},{"id":3441017,"name":"Sauce de Tranqueras","alt":["Poblado Sause de Tranqueras","Sauce Tranqueras"],"lon":-55.92538,"lat":-31.85155,"pop":0},{"id":3440138,"name":"Sauce del Queguay","alt":["Sauce Queguay","Sauce de Queguay"],"lon":-57.61172,"lat":-32.09158,"pop":0},{"id":3440145,"name":"Sauce del Yi","lon":-55.63193,"lat":-33.46675,"pop":0},{"id":3440115,"name":"Sauce Solo de Río Negro","alt":["Poblado Rio Negro","Poblado Río Negro","Rio Negro","Río Negro","Sauce Solo","Sauce Solo de Rio Negro"],"lon":-54.86667,"lat":-32.1,"pop":0},{"id":3440135,"name":"Saucedo","lon":-57.52928,"lat":-31.10761,"pop":0},{"id":3440114,"name":"Sauzal","lon":-55.55,"lat":-30.93333,"pop":0},{"id":3440102,"name":"Sayago","alt":["Savago"],"lon":-56.23333,"lat":-34.83333,"pop":0},{"id":3440099,"name":"Scavino","alt":["Pueblo Scavino"],"lon":-57.04829,"lat":-34.36934,"pop":0},{"id":7838848,"name":"Shangrila","lon":-55.99806,"lat":-34.84639,"pop":0},{"id":3440087,"name":"Sierra de Lunarejo","lon":-55.88333,"lat":-31.23333,"pop":0},{"id":10861463,"name":"Sierra del Mar","lon":-55.47013,"lat":-34.79169,"pop":0},{"id":3440076,"name":"Soca","alt":["Doctor Francisco Soca","Doctor Soca","Francisco Soca","Mosquitos"],"lon":-55.702,"lat":-34.68432,"pop":1742},{"id":3440068,"name":"Solís","lon":-55.45,"lat":-34.33333,"pop":0},{"id":3443700,"name":"Solís","alt":["Balneario Solis","Balneario Solís","Solis"],"lon":-55.37986,"lat":-34.79326,"pop":0},{"id":3440063,"name":"Solís de Mataojo","alt":["Solis","Solis Grande","Solis de Mataojo","Solís","Solís Grande"],"lon":-55.46808,"lat":-34.59951,"pop":2825},{"id":10098545,"name":"Solís Grande","lon":-55.43899,"lat":-34.71304,"pop":0},{"id":10642370,"name":"Solís Grande","alt":["Solis Grande"],"lon":-55.53088,"lat":-34.47819,"pop":0},{"id":7838845,"name":"Solymar","lon":-55.9637,"lat":-34.82906,"pop":0},{"id":3440045,"name":"Soto","lon":-57.55486,"lat":-31.97528,"pop":0},{"id":3440046,"name":"Soto","lon":-54.16667,"lat":-31.98333,"pop":0},{"id":3440047,"name":"Soto","lon":-56.6,"lat":-31.03333,"pop":0},{"id":3440034,"name":"Tacuarembó","alt":["San Fructuoso","TAW","Tacuarembo","Takuarembo","Villa de San Fructuoso","Villa de Tacuarembo","ta kua lun bo","takkuvarimpo","takuarenbo","takwalembo","takwarmbw","takwarymbw","Такуарембо","Տակուարեմբո","تاکوآرمبو","تاکواریمبو","தக்குவாறிம்போ","ტაკუარემბო","タクアレンボー","塔夸伦博","타콰렘보"],"lon":-55.98111,"lat":-31.71694,"pop":51854},{"id":3440021,"name":"Tala","lon":-55.76375,"lat":-34.34349,"pop":4949},{"id":10861942,"name":"Talita","lon":-56.0422,"lat":-33.92522,"pop":0},{"id":3439928,"name":"Tamanduá","alt":["Puntas Tamandua","Puntas Tamanduá","Tamandua"],"lon":-56.50699,"lat":-30.46433,"pop":0},{"id":3439925,"name":"Tambores","lon":-56.24438,"lat":-31.87743,"pop":1561},{"id":3439902,"name":"Tarariras","alt":["J. Suarez","J. Suárez","Joaquin Suarez","Joaquín Suárez","Suarez","Suárez"],"lon":-57.61866,"lat":-34.26555,"pop":6632},{"id":3439897,"name":"Tarumán","alt":["Taruman"],"lon":-56.66771,"lat":-30.47362,"pop":0},{"id":3439889,"name":"Termas del Arapey","alt":["Arapey"],"lon":-57.52087,"lat":-30.9475,"pop":184},{"id":10866703,"name":"Termas del Daymán","alt":["Termas del Dayman"],"lon":-57.90794,"lat":-31.45264,"pop":0},{"id":3439883,"name":"Tiatucurá","alt":["Tiatocura","Tiatucura","Villa Maria"],"lon":-56.54386,"lat":-32.34413,"pop":0},{"id":3439838,"name":"Toledo","lon":-56.09469,"lat":-34.73807,"pop":4397},{"id":3439839,"name":"Toledo","lon":-54.56667,"lat":-32.53333,"pop":0},{"id":3439840,"name":"Toledo","lon":-54.01667,"lat":-32.5,"pop":0},{"id":3439831,"name":"Tomás Gomensoro","alt":["Tomas Gomensoro"],"lon":-57.43609,"lat":-30.4287,"pop":2872},{"id":3439829,"name":"Tomás Paz","alt":["Tomas Paz"],"lon":-57.69628,"lat":-31.63282,"pop":0},{"id":3439827,"name":"Topador","alt":["El Topador"],"lon":-56.82055,"lat":-30.29768,"pop":124},{"id":3439817,"name":"Toro Negro","alt":["Ceferino"],"lon":-56.63333,"lat":-31.35,"pop":0},{"id":3439803,"name":"Totoral del Sauce","alt":["Totoral"],"lon":-55.99327,"lat":-34.66091,"pop":0},{"id":3439787,"name":"Tranqueras","alt":["Paso Tranqueras"],"lon":-55.75,"lat":-31.2,"pop":7235},{"id":3439788,"name":"Tranqueras","lon":-55.75,"lat":-31.16667,"pop":0},{"id":3439781,"name":"Treinta y Tres","alt":["TYT","Treinta i Tresas","Trejnta i Tres","Trejnta-i-Tres","Treynta i Tres","Villa de Treinta y Tres","san shi san ren cheng","teuleintaiteuleseu","trynta ay trs","trynta y trys","Трейнта и Трес","Трейнта-и-Трес","Трейнта-і-Трес","Տրեյնտա ի Տրես","ترینتا ای ترس","ترینتا ی تریس","ტრეინტა-ი-ტრესი","トレインタ・イ・トレス","三十三人城","트레인타이트레스"],"lon":-54.38333,"lat":-33.23333,"pop":25653},{"id":3439778,"name":"Tres Árboles","lon":-56.71667,"lat":-32.4,"pop":0},{"id":3439772,"name":"Tres Bocas","lon":-57.83333,"lat":-33.73333,"pop":0},