[{"id":4035399,"name":"A‘ufaga","alt":["A`ufaga"],"lon":-171.53356,"lat":-14.04058,"pop":459},{"id":7106277,"name":"A’ele","lon":-171.82699,"lat":-13.82516,"pop":0},{"id":7106276,"name":"A’elefou","lon":-171.82853,"lat":-13.81715,"pop":0},{"id":4035414,"name":"A’opo","alt":["A'opo"],"lon":-172.51931,"lat":-13.53975,"pop":390},{"id":4035432,"name":"Afega","alt":["Afenga"],"lon":-171.85308,"lat":-13.79726,"pop":1895},{"id":7106273,"name":"Afia","lon":-172.02167,"lat":-13.84359,"pop":0},{"id":4035430,"name":"Afiamalu","lon":-171.71674,"lat":-13.91657,"pop":0},{"id":4035427,"name":"Aganoa","lon":-171.76635,"lat":-14.03068,"pop":0},{"id":4035426,"name":"Ahners","lon":-171.74704,"lat":-13.83354,"pop":0},{"id":7106297,"name":"Alafua","lon":-171.78607,"lat":-13.85713,"pop":0},{"id":7106302,"name":"Alamagoto","lon":-171.77586,"lat":-13.84642,"pop":0},{"id":7106444,"name":"Aleisa","lon":-171.87473,"lat":-13.86154,"pop":0},{"id":4035416,"name":"Amaile","alt":["Faleulu","Siufaga","Usoali'i","Usoali’i"],"lon":-171.42897,"lat":-13.99723,"pop":221},{"id":7106325,"name":"Apai","lon":-172.11807,"lat":-13.84754,"pop":0},{"id":4035413,"name":"Apia","alt":["APW","Apiae","Apija","Apio","Apiya","Apía","a pi ya","abya","api'a","apia","apiya","appiya","apya","xa pi xa","΄Aπια","Απία","Апиæ","Апиа","Апия","Апија","Апіа","Апія","אפיה","آپیا","أبيا","आपिया","ਆਪੀਆ","ஆப்பியா","അപിയ","อาปีอา","ཨ་པི་ཡ།","აპია","አፒያ","アピア","阿皮亚","阿皮亞","아피아"],"lon":-171.76666,"lat":-13.83333,"pop":40407},{"id":7106232,"name":"Apolimafou","lon":-172.06447,"lat":-13.86181,"pop":0},{"id":7109449,"name":"Apolimatuai","lon":-172.15101,"lat":-13.82021,"pop":0},{"id":4035407,"name":"Asaga","lon":-172.20383,"lat":-13.60454,"pop":337},{"id":7106456,"name":"Asau","alt":["AAU"],"lon":-172.63784,"lat":-13.51963,"pop":6643},{"id":4035400,"name":"Auala","alt":["Amvalea"],"lon":-172.65245,"lat":-13.5167,"pop":574},{"id":4035397,"name":"Avao","lon":-172.36249,"lat":-13.44883,"pop":276},{"id":4035396,"name":"Avatā","lon":-172.78317,"lat":-13.49474,"pop":302},{"id":7106311,"name":"Avele","lon":-171.76258,"lat":-13.86944,"pop":0},{"id":7109439,"name":"Casala","lon":-171.93213,"lat":-13.85625,"pop":0},{"id":4035387,"name":"Etemuli","lon":-171.55741,"lat":-14.04066,"pop":0},{"id":4035386,"name":"Eva","lon":-171.62954,"lat":-13.87959,"pop":266},{"id":7106332,"name":"Faaala","lon":-172.29289,"lat":-13.75792,"pop":0},{"id":7106307,"name":"Faatoia","lon":-171.75311,"lat":-13.84182,"pop":0},{"id":4035382,"name":"Faga","lon":-172.18357,"lat":-13.65978,"pop":0},{"id":7106404,"name":"Fagae’e","lon":-172.44141,"lat":-13.46888,"pop":0},{"id":4035381,"name":"Fagafau","lon":-172.67023,"lat":-13.64026,"pop":273},{"id":7667651,"name":"Fagali'i","lon":-171.74166,"lat":-13.84833,"pop":0},{"id":4035377,"name":"Fagali‘i","alt":["Fagali`i","Fangalii"],"lon":-171.73694,"lat":-13.84314,"pop":0},{"id":4035372,"name":"Fagamalo","lon":-172.34901,"lat":-13.44219,"pop":294},{"id":7106393,"name":"Fagasā","lon":-172.69007,"lat":-13.51615,"pop":0},{"id":4035371,"name":"Fai’a’ai","alt":["Fai'a'ai"],"lon":-172.64112,"lat":-13.6703,"pop":421},{"id":7106351,"name":"Falealia","lon":-172.45933,"lat":-13.77231,"pop":0},{"id":4035367,"name":"Faleālupo","alt":["Falealupo","Vaotupua"],"lon":-172.78768,"lat":-13.50103,"pop":183},{"id":7106392,"name":"Falealupo-uta","lon":-172.73471,"lat":-13.53978,"pop":0},{"id":4035347,"name":"Faleapuna","alt":["Faleapunga","Falepuna"],"lon":-171.59235,"lat":-13.87761,"pop":584},{"id":4035365,"name":"Faleaseela","lon":-171.97003,"lat":-13.93529,"pop":0},{"id":4035362,"name":"Faleasi‘u","lon":-171.92864,"lat":-13.80742,"pop":0},{"id":4035361,"name":"Faleata","lon":-171.78955,"lat":-13.84442,"pop":0},{"id":4035359,"name":"Faleatiu","lon":-171.97895,"lat":-13.82885,"pop":847},{"id":7106286,"name":"Faleauniu","lon":-171.8222,"lat":-13.84824,"pop":0},{"id":4035358,"name":"Falefa","alt":["Falifa","Naneivi","Sagapolu","Sanonu"],"lon":-171.58805,"lat":-13.88695,"pop":1346},{"id":4035354,"name":"Falelatai","lon":-172.016,"lat":-13.91247,"pop":0},{"id":4035352,"name":"Falelima","lon":-172.72204,"lat":-13.59572,"pop":416},{"id":7106293,"name":"Falemauga","lon":-171.84027,"lat":-13.88096,"pop":0},{"id":7106327,"name":"Falemoa","lon":-172.11748,"lat":-13.84344,"pop":0},{"id":4035350,"name":"Faleolo","lon":-172.01499,"lat":-13.82746,"pop":16},{"id":4035351,"name":"Faleolo","lon":-172.78333,"lat":-13.48333,"pop":0},{"id":4035349,"name":"Falepouma‘a","lon":-171.7,"lat":-13.91667,"pop":0},{"id":7106405,"name":"Faletagaloa","lon":-172.42649,"lat":-13.46972,"pop":0},{"id":4035346,"name":"Faleu","lon":-172.10618,"lat":-13.85893,"pop":0},{"id":4035345,"name":"Faleula","alt":["Falula"],"lon":-171.83126,"lat":-13.79457,"pop":2592},{"id":4035341,"name":"Falevai","lon":-172.0062,"lat":-13.91632,"pop":202},{"id":4035340,"name":"Falevao","lon":-171.58658,"lat":-13.92067,"pop":552},{"id":7106316,"name":"Fasafasa","lon":-171.80898,"lat":-13.91534,"pop":0},{"id":4035336,"name":"Fasito‘otai","alt":["Fasito`otai"],"lon":-171.96309,"lat":-13.82568,"pop":0},{"id":4035335,"name":"Fasito‘outa","alt":["Fasito`outa","Fasitouta"],"lon":-171.94063,"lat":-13.81163,"pop":2098},{"id":7106367,"name":"Fatausi","lon":-172.17882,"lat":-13.67651,"pop":0},{"id":4035332,"name":"Fatuvalu","lon":-172.43441,"lat":-13.46937,"pop":170},{"id":4035331,"name":"Fausaga","lon":-171.82444,"lat":-14.0006,"pop":303},{"id":4035342,"name":"Fetaulaiga","alt":["Faleulu"],"lon":-171.58299,"lat":-13.99839,"pop":0},{"id":7106445,"name":"Fiaga","lon":-171.85419,"lat":-13.86022,"pop":0},{"id":4035327,"name":"Foailalo","alt":["Foa Lalo","Foalelo"],"lon":-172.60453,"lat":-13.70226,"pop":0},{"id":4035326,"name":"Foailuga","alt":["Foa Luga"],"lon":-172.60924,"lat":-13.69666,"pop":0},{"id":7106368,"name":"Fogapoā","alt":["Fogapoa"],"lon":-172.17716,"lat":-13.67264,"pop":0},{"id":4035325,"name":"Fogasavai’i","alt":["Fogasavai'i"],"lon":-172.62672,"lat":-13.68026,"pop":380},{"id":4035324,"name":"Fogatuli","lon":-172.6465,"lat":-13.66146,"pop":273},{"id":7106361,"name":"Foua","lon":-172.21055,"lat":-13.7301,"pop":0},{"id":4035323,"name":"Fuailolo‘o","alt":["Fuailalo","Fuailolo`o"],"lon":-172.04588,"lat":-13.84474,"pop":0},{"id":7669219,"name":"Fugalei","lon":-171.77811,"lat":-13.83604,"pop":0},{"id":4035318,"name":"Fusi","lon":-171.82943,"lat":-13.99591,"pop":447},{"id":4035319,"name":"Fusi","lon":-171.6218,"lat":-13.88645,"pop":764},{"id":7106366,"name":"Fusi","lon":-172.18312,"lat":-13.68013,"pop":0},{"id":4035316,"name":"Gagaemalae","lon":-172.59833,"lat":-13.71027,"pop":0},{"id":7106241,"name":"Gagaifoolevao","lon":-171.95532,"lat":-13.96451,"pop":0},{"id":4035310,"name":"Gataivai","alt":["Gaitavai"],"lon":-172.38802,"lat":-13.7736,"pop":1141},{"id":4035309,"name":"Gautavai","lon":-172.38392,"lat":-13.77618,"pop":171},{"id":4035306,"name":"Ili’ili","lon":-171.7041,"lat":-14.03226,"pop":30},{"id":4035304,"name":"Iva","lon":-172.20324,"lat":-13.71019,"pop":0},{"id":7045199,"name":"Kosena","lon":-171.59756,"lat":-13.99533,"pop":0},{"id":7106284,"name":"Lafi","lon":-171.8467,"lat":-13.84989,"pop":0},{"id":7106294,"name":"Laloanea","lon":-171.85138,"lat":-13.88163,"pop":0},{"id":4035301,"name":"Lalomalava","lon":-172.20038,"lat":-13.70178,"pop":399},{"id":4035300,"name":"Lalomanu","lon":-171.43925,"lat":-14.04454,"pop":704},{"id":4035297,"name":"Lalomauga","lon":-171.56667,"lat":-13.9,"pop":406},{"id":4035298,"name":"Lalomauga","lon":-171.95,"lat":-13.86667,"pop":0},{"id":4035299,"name":"Lalomauga","alt":["Lalamauga"],"lon":-171.60067,"lat":-13.91563,"pop":0},{"id":7106305,"name":"Lalovaea","lon":-171.76664,"lat":-13.83987,"pop":0},{"id":4035296,"name":"Lalovi","lon":-172.05722,"lat":-13.85171,"pop":322},{"id":4035295,"name":"Lanafala","lon":-171.75,"lat":-13.9,"pop":0},{"id":4035294,"name":"Lano","alt":["Lauo"],"lon":-172.19919,"lat":-13.61749,"pop":706},{"id":4035289,"name":"Lara Lafa","lon":-171.73333,"lat":-13.85,"pop":0},{"id":4035288,"name":"Lata","lon":-171.44635,"lat":-14.04579,"pop":0},{"id":4035284,"name":"Lauli’i","alt":["Lauli'i"],"lon":-171.70438,"lat":-13.86392,"pop":0},{"id":7109491,"name":"Le Aisa","lon":-172.41649,"lat":-13.52123,"pop":0},{"id":7106411,"name":"Le Piu Tai","lon":-172.39307,"lat":-13.45547,"pop":0},{"id":7106410,"name":"Le Piu Uta","lon":-172.38144,"lat":-13.46363,"pop":0},{"id":7667632,"name":"Le'auva'a","lon":-171.85,"lat":-13.8,"pop":0},{"id":7106374,"name":"Le’eka","lon":-172.51282,"lat":-13.77348,"pop":0},{"id":4035280,"name":"Leagiagi","alt":["Leagiaga"],"lon":-172.41793,"lat":-13.46147,"pop":124},{"id":4035279,"name":"Lealaalii","lon":-171.92428,"lat":-13.80631,"pop":0},{"id":7106459,"name":"Leaoa","lon":-171.77564,"lat":-13.89715,"pop":0},{"id":4035264,"name":"Leatupe","alt":["Letaupe"],"lon":-171.58262,"lat":-14.03922,"pop":0},{"id":7106292,"name":"Leaupuni","lon":-171.83166,"lat":-13.88403,"pop":0},{"id":4035277,"name":"Leauva‘a","lon":-171.87348,"lat":-13.79774,"pop":0},{"id":7106443,"name":"Leavaa-uta","lon":-171.88166,"lat":-13.85335,"pop":0},{"id":4035275,"name":"Lefaga","lon":-171.4488,"lat":-14.04554,"pop":0},{"id":7106406,"name":"Lefagaoali’i","alt":["Lefagaoali'i"],"lon":-172.41869,"lat":-13.46752,"pop":0},{"id":7669215,"name":"Lelata","lon":-171.75729,"lat":-13.84316,"pop":0},{"id":4035273,"name":"Lelepa","lon":-172.36047,"lat":-13.44544,"pop":213},{"id":7106306,"name":"Leone","lon":-171.75766,"lat":-13.83519,"pop":0},{"id":4035270,"name":"Lepā","alt":["Lepa"],"lon":-171.51919,"lat":-14.04125,"pop":172},{"id":7106446,"name":"Lepale","lon":-171.91626,"lat":-13.87385,"pop":0},{"id":4035268,"name":"Lepea","lon":-171.79,"lat":-13.83575,"pop":720},{"id":7106323,"name":"Lepuia’i","alt":["Lepuia'i"],"lon":-172.11317,"lat":-13.85659,"pop":0},{"id":7106313,"name":"Letava","alt":["Lietava"],"lon":-171.76566,"lat":-13.87812,"pop":0},{"id":4035263,"name":"Letogo","alt":["Letongo"],"lon":-171.72167,"lat":-13.85252,"pop":533},{"id":4035261,"name":"Letui","lon":-172.47079,"lat":-13.49527,"pop":273},{"id":7106304,"name":"Leufisa","lon":-171.76414,"lat":-13.84703,"pop":0},{"id":4035260,"name":"Leulumoega","alt":["Leulumoenga"],"lon":-171.96127,"lat":-13.82297,"pop":1458},{"id":4035258,"name":"Leusoali’i","lon":-171.68991,"lat":-13.86396,"pop":371},{"id":4035256,"name":"Levi","lon":-171.88277,"lat":-13.79766,"pop":125},{"id":4035255,"name":"Levī","alt":["Levi"],"lon":-172.01095,"lat":-13.91361,"pop":989},{"id":4035254,"name":"Lona","lon":-171.54292,"lat":-13.94209,"pop":218},{"id":4035251,"name":"Lotofaga","alt":["Lotofago","Lotofanga"],"lon":-171.57036,"lat":-14.04288,"pop":622},{"id":4035252,"name":"Lotofagā","alt":["Lotofaga","Lotofanga"],"lon":-171.85781,"lat":-13.97643,"pop":1126},{"id":7106249,"name":"Lotofagauta","lon":-171.85136,"lat":-13.97552,"pop":0},{"id":7106298,"name":"Lotopa","lon":-171.78704,"lat":-13.8467,"pop":0},{"id":7106434,"name":"Lu’ua","lon":-172.18774,"lat":-13.65279,"pop":0},{"id":4035250,"name":"Luatuanu‘u","alt":["Luatuanu`u"],"lon":-171.67828,"lat":-13.86296,"pop":0},{"id":4035249,"name":"Lufilufi","lon":-171.59857,"lat":-13.87449,"pop":1074},{"id":4035424,"name":"Ma’agao","alt":["Alaloa","Ma'agao"],"lon":-171.90543,"lat":-13.83093,"pop":0},{"id":4035237,"name":"Maalauli","alt":["Malauli"],"lon":-171.72913,"lat":-13.8425,"pop":0},{"id":4035248,"name":"Maasina","alt":["Masima"],"lon":-171.5569,"lat":-13.94318,"pop":160},{"id":4035244,"name":"Magia","alt":["Mangia"],"lon":-171.98548,"lat":-13.82892,"pop":0},{"id":4035243,"name":"Magiagi","lon":-171.74923,"lat":-13.85118,"pop":0},{"id":7106433,"name":"Malae","lon":-172.18903,"lat":-13.64748,"pop":0},{"id":7090898,"name":"Malaela","lon":-171.4253,"lat":-14.02073,"pop":0},{"id":4035242,"name":"Malaemalu","lon":-171.64302,"lat":-14.03269,"pop":0},{"id":4035240,"name":"Malaetele","lon":-172.78333,"lat":-13.48333,"pop":0},{"id":4035236,"name":"Malie","lon":-171.8469,"lat":-13.80044,"pop":2189},{"id":4035235,"name":"Malololelei","lon":-171.77836,"lat":-13.90564,"pop":0},{"id":4035234,"name":"Malua","lon":-171.9027,"lat":-13.79909,"pop":371},{"id":4035231,"name":"Manase","lon":-172.37647,"lat":-13.44796,"pop":158},{"id":4035229,"name":"Maninoa","lon":-171.78833,"lat":-14.00861,"pop":366},{"id":7106234,"name":"Manono-uta","lon":-172.06409,"lat":-13.89091,"pop":0},{"id":4035226,"name":"Manunu","lon":-171.56667,"lat":-13.9,"pop":284},{"id":7041881,"name":"Manunu","lon":-171.61792,"lat":-13.91604,"pop":0},{"id":7106353,"name":"Maota","alt":["MXS"],"lon":-172.26422,"lat":-13.7465,"pop":0},{"id":7106346,"name":"Masalaolao","lon":-172.44517,"lat":-13.77434,"pop":0},{"id":7106457,"name":"Matafa‘a","lon":-171.97921,"lat":-13.94249,"pop":0},{"id":4035224,"name":"Matafagatele","alt":["Matafangatele"],"lon":-171.7438,"lat":-13.83909,"pop":0},{"id":4035223,"name":"Matafele","lon":-171.76799,"lat":-13.82965,"pop":0},{"id":4035221,"name":"Matailiili","lon":-171.93513,"lat":-13.81053,"pop":0},{"id":4035220,"name":"Matanofo","lon":-171.98333,"lat":-13.91667,"pop":80},{"id":7106447,"name":"Matānofo","lon":-172.00666,"lat":-13.91598,"pop":0},{"id":4035218,"name":"Matapunga","lon":-172.03333,"lat":-13.85,"pop":0},{"id":4035217,"name":"Matatufu","lon":-171.58376,"lat":-14.04355,"pop":397},{"id":4035213,"name":"Matautu","lon":-171.67763,"lat":-14.03831,"pop":854},{"id":4035214,"name":"Matautu","lon":-171.95071,"lat":-13.96979,"pop":350},{"id":4035215,"name":"Matautu","lon":-172.01269,"lat":-13.91322,"pop":0},{"id":4035216,"name":"Matāutu","alt":["Matautu"],"lon":-171.75674,"lat":-13.82742,"pop":203},{"id":7106257,"name":"Matāutu","alt":["Matautu"],"lon":-171.44047,"lat":-14.04694,"pop":0},{"id":4035209,"name":"Matavai","lon":-171.64768,"lat":-14.03208,"pop":1308},{"id":7106468,"name":"Matavai","lon":-172.417,"lat":-13.47374,"pop":0},{"id":7106453,"name":"Matega","lon":-172.69796,"lat":-13.61333,"pop":0},{"id":7106422,"name":"Mauga","lon":-172.31519,"lat":-13.47572,"pop":0},{"id":4035201,"name":"Moamoa","lon":-171.78541,"lat":-13.86655,"pop":0},{"id":4035200,"name":"Moata‘a","alt":["Moata`a","Mootaa"],"lon":-171.74828,"lat":-13.83745,"pop":0},{"id":7106335,"name":"Mosula","lon":-172.3219,"lat":-13.75662,"pop":0},{"id":4035197,"name":"Moto‘otua","alt":["Moto`otua"],"lon":-171.76286,"lat":-13.84562,"pop":0},{"id":7045201,"name":"Mount Vaipu","lon":-171.60881,"lat":-13.9777,"pop":0},{"id":4035196,"name":"Mulifanua","lon":-172.03602,"lat":-13.83183,"pop":4508},{"id":4035192,"name":"Mulinu’u","alt":["Mulinu'u"],"lon":-171.77793,"lat":-13.8175,"pop":0},{"id":4035187,"name":"Mulivai","alt":["Malivai"],"lon":-171.80234,"lat":-14.00385,"pop":449},{"id":7106418,"name":"Mumea","lon":-172.37419,"lat":-13.47836,"pop":0},{"id":4035185,"name":"Musumusu","lon":-171.55875,"lat":-13.9303,"pop":75},{"id":4035184,"name":"Mutiatele","alt":["Muliatele"],"lon":-171.42506,"lat":-14.01507,"pop":283},{"id":7109440,"name":"Nafanua","lon":-171.76306,"lat":-13.85598,"pop":0},{"id":4035181,"name":"Namoa","lon":-171.8,"lat":-14.01667,"pop":0},{"id":4035177,"name":"Nefunefu","lon":-172.02044,"lat":-13.91199,"pop":141},{"id":4035176,"name":"Neiafu","lon":-172.75225,"lat":-13.56653,"pop":0},{"id":4035166,"name":"Niusuatia","lon":-171.83856,"lat":-13.98432,"pop":331},{"id":7106343,"name":"Nofoa","lon":-172.43191,"lat":-13.77486,"pop":0},{"id":4035174,"name":"Nofoali‘i","alt":["Nofoali`i"],"lon":-171.95873,"lat":-13.8217,"pop":1828},{"id":7106334,"name":"Nu’ualofa","lon":-172.30587,"lat":-13.75652,"pop":0},{"id":4035172,"name":"Nuu","lon":-172.47351,"lat":-13.78465,"pop":0},{"id":7106278,"name":"Nuu","lon":-171.8332,"lat":-13.82493,"pop":0},{"id":7106373,"name":"Nuuuta","lon":-172.46624,"lat":-13.77754,"pop":0},{"id":7109441,"name":"Olo","lon":-172.03136,"lat":-13.85408,"pop":0},{"id":7106436,"name":"Oloiti","lon":-172.21443,"lat":-13.64342,"pop":0},{"id":7106283,"name":"Olosega","lon":-171.85363,"lat":-13.84185,"pop":0},{"id":7106270,"name":"Paepae‘alā","alt":["Paepae`ala"],"lon":-172.04032,"lat":-13.83611,"pop":0},{"id":7106330,"name":"Pagai","lon":-172.10368,"lat":-13.84743,"pop":0},{"id":4035155,"name":"Paia","lon":-172.40592,"lat":-13.47243,"pop":308},{"id":7106377,"name":"Palapala","lon":-172.57481,"lat":-13.7274,"pop":0},{"id":4035153,"name":"Palauli","lon":-172.29858,"lat":-13.75859,"pop":0},{"id":4035149,"name":"Papa","lon":-172.36515,"lat":-13.77202,"pop":0},{"id":4035150,"name":"Papa","alt":["Papa Uta"],"lon":-172.71516,"lat":-13.53077,"pop":284},{"id":7106426,"name":"Papalaulelei","lon":-172.2388,"lat":-13.55316,"pop":0},{"id":4035145,"name":"Papaloloa","lon":-171.75458,"lat":-13.85675,"pop":0},{"id":7106317,"name":"Papaoga","lon":-171.80263,"lat":-13.92316,"pop":0},{"id":7106318,"name":"Papapapaitai","lon":-171.77416,"lat":-13.94233,"pop":0},{"id":4035144,"name":"Papase’ea","lon":-171.80625,"lat":-13.8621,"pop":0},{"id":4035142,"name":"Pata","lon":-172.02181,"lat":-13.91107,"pop":549},{"id":4035141,"name":"Patamea","lon":-172.30678,"lat":-13.52463,"pop":597},{"id":7106300,"name":"Pesega","lon":-171.78407,"lat":-13.83735,"pop":0},{"id":7106281,"name":"Petesa-fou","lon":-171.81827,"lat":-13.83325,"pop":0},{"id":7046416,"name":"Pinipini","lon":-171.54414,"lat":-14.04362,"pop":0},{"id":7106336,"name":"Pitonuu","lon":-172.32401,"lat":-13.76294,"pop":0},{"id":4035139,"name":"Piu","alt":["Gaogao"],"lon":-171.63045,"lat":-14.02308,"pop":69},{"id":4035138,"name":"Piula","lon":-171.59713,"lat":-13.87381,"pop":0},{"id":4035137,"name":"Poutasi","lon":-171.69275,"lat":-14.0295,"pop":378},{"id":7106442,"name":"Poutoga","lon":-171.86731,"lat":-13.85084,"pop":0},{"id":4035135,"name":"Pu’apu’a","alt":["Pu'apu'a"],"lon":-172.20984,"lat":-13.58996,"pop":0},{"id":7106430,"name":"Pugaoa","lon":-172.23279,"lat":-13.61871,"pop":0},{"id":4035132,"name":"Puipa’a","alt":["Pui Pau","Puipa'a"],"lon":-171.81849,"lat":-13.80318,"pop":0},{"id":4035130,"name":"Puleia","lon":-172.37761,"lat":-13.77614,"pop":262},{"id":7106438,"name":"Punaiseesee","lon":-172.2752,"lat":-13.62841,"pop":0},{"id":4035126,"name":"Sa’aga","lon":-171.77175,"lat":-14.02837,"pop":490},{"id":7106250,"name":"Sa’agafou","lon":-171.75931,"lat":-14.01045,"pop":0},{"id":4035125,"name":"Sa’anapu","lon":-171.87596,"lat":-13.9928,"pop":0},{"id":4035123,"name":"Sa’asa’ai","alt":["Sa'asa'ai","Sasaai"],"lon":-172.1942,"lat":-13.63714,"pop":520},{"id":4035120,"name":"Safa’atoa","alt":["Safa'atoa"],"lon":-171.96578,"lat":-13.94202,"pop":0},{"id":4035121,"name":"Safa’i","alt":["Safa","Safa'i"],"lon":-172.33971,"lat":-13.44654,"pop":0},{"id":7106413,"name":"Safe’e","lon":-172.40739,"lat":-13.45255,"pop":0},{"id":4035118,"name":"Safotu","lon":-172.40177,"lat":-13.45132,"pop":1207},{"id":4035117,"name":"Safotulafai","alt":["Safatulafei","Safotulafei"],"lon":-172.17768,"lat":-13.67147,"pop":0},{"id":7106365,"name":"Safua","lon":-172.19934,"lat":-13.69941,"pop":0},{"id":4035116,"name":"Safune","lon":-171.81271,"lat":-13.80502,"pop":0},{"id":7109494,"name":"Safune","lon":-172.42279,"lat":-13.47169,"pop":0},{"id":4035113,"name":"Sagone","lon":-172.61864,"lat":-13.68733,"pop":776},{"id":4035112,"name":"Saina","lon":-171.80659,"lat":-13.81702,"pop":230},{"id":4035111,"name":"Saipipi","lon":-172.1979,"lat":-13.62921,"pop":705},{"id":4035110,"name":"Sala’ilua","alt":["Sala'ilua","Salealua"],"lon":-172.59517,"lat":-13.71626,"pop":0},{"id":7109460,"name":"Salalologa New Township","lon":-172.22223,"lat":-13.76891,"pop":0},{"id":4035108,"name":"Salamumu","lon":-171.9219,"lat":-13.99813,"pop":0},{"id":4035106,"name":"Salani","lon":-171.56667,"lat":-14,"pop":524},{"id":4035107,"name":"Salani","lon":-171.60832,"lat":-14.03425,"pop":0},{"id":4035105,"name":"Sale’a’aumua","alt":["Sale'a'aumua","Saleamua","Saleaumua"],"lon":-171.42559,"lat":-14.00873,"pop":544},{"id":4035099,"name":"Sale’aula","lon":-172.33521,"lat":-13.44894,"pop":597},{"id":4035095,"name":"Sale’imoa","alt":["Sale'imoa"],"lon":-171.89098,"lat":-13.80314,"pop":0},{"id":4035103,"name":"Saleapaga","lon":-171.50456,"lat":-14.04173,"pop":0},{"id":4035097,"name":"Salei’a","alt":["Salei'a"],"lon":-172.36797,"lat":-13.4495,"pop":275},{"id":4035096,"name":"Saleilua","lon":-171.6984,"lat":-14.02882,"pop":604},{"id":7106363,"name":"Salelavalu-tai","lon":-172.19733,"lat":-13.72109,"pop":0},{"id":4035094,"name":"Salelavalu-uta","alt":["Salelavalu"],"lon":-172.20427,"lat":-13.7202,"pop":0},{"id":4035093,"name":"Salelesi","lon":-171.62592,"lat":-13.88367,"pop":411},{"id":4035092,"name":"Salelologa","alt":["Salelolonga"],"lon":-172.21023,"lat":-13.72766,"pop":0},{"id":4035091,"name":"Salepou‘a‘e","alt":["Salepou`a`e"],"lon":-171.89432,"lat":-13.80358,"pop":774},{"id":4035089,"name":"Salesatele","lon":-171.61951,"lat":-14.03478,"pop":330},{"id":7109470,"name":"Saletagaloa","lon":-172.20833,"lat":-13.72817,"pop":0},{"id":4035090,"name":"Saletele","alt":["Salesatele"],"lon":-171.55564,"lat":-13.91204,"pop":160},{"id":8714434,"name":"Saleufi","lon":-171.77118,"lat":-13.83483,"pop":0},{"id":4035085,"name":"Salimu","lon":-171.56136,"lat":-13.93215,"pop":62},{"id":4035086,"name":"Salimu","lon":-172.11667,"lat":-13.65,"pop":250},{"id":7106432,"name":"Salimu","lon":-172.18923,"lat":-13.64386,"pop":0},{"id":7106329,"name":"Salua","lon":-172.10503,"lat":-13.84549,"pop":0},{"id":4035083,"name":"Saluafata","lon":-171.60244,"lat":-13.87551,"pop":0},{"id":4035080,"name":"Sama‘i","lon":-172.00518,"lat":-13.91684,"pop":0},{"id":4035079,"name":"Samalaeulu","lon":-172.30015,"lat":-13.50098,"pop":789},{"id":4035078,"name":"Samamea","alt":["Spitzerberg"],"lon":-171.53122,"lat":-13.93375,"pop":89},{"id":4035076,"name":"Samataitai","alt":["Samata"],"lon":-172.66578,"lat":-13.64614,"pop":0},{"id":7106382,"name":"Samataiuta","lon":-172.65725,"lat":-13.64926,"pop":0},{"id":4035075,"name":"Samatau","lon":-172.05706,"lat":-13.89964,"pop":939},{"id":4035074,"name":"Samauga","lon":-171.56667,"lat":-13.91667,"pop":289},{"id":4035073,"name":"Samea","lon":-172.0411,"lat":-13.83758,"pop":150},{"id":4035071,"name":"Samusu","lon":-171.42635,"lat":-14.00122,"pop":686},{"id":7106264,"name":"Samusu-uta","lon":-171.46205,"lat":-13.9941,"pop":0},{"id":4035066,"name":"Sapapali’i","alt":["Sapapali'i"],"lon":-172.1918,"lat":-13.68726,"pop":877},{"id":7106435,"name":"Sapini","lon":-172.18605,"lat":-13.65597,"pop":0},{"id":4035065,"name":"Sapo’e","lon":-171.60186,"lat":-14.04074,"pop":105},{"id":4035064,"name":"Sapulu","lon":-171.92229,"lat":-13.80472,"pop":957},{"id":7106360,"name":"Sapulu","lon":-172.21649,"lat":-13.7328,"pop":0},{"id":4035063,"name":"Sapunaoa","lon":-171.62703,"lat":-14.03728,"pop":408},{"id":4035062,"name":"Sasina","lon":-172.4492,"lat":-13.46995,"pop":566},{"id":7046412,"name":"Sasita","lon":-171.56098,"lat":-14.0401,"pop":0},{"id":4035061,"name":"Satalo","lon":-171.63201,"lat":-14.03819,"pop":356},{"id":4035060,"name":"Sataoa","alt":["Saautaua"],"lon":-171.86317,"lat":-13.98758,"pop":0},{"id":7106248,"name":"Sataoauta","lon":-171.86615,"lat":-13.97673,"pop":0},{"id":4035059,"name":"Satapuala","lon":-171.97963,"lat":-13.83535,"pop":1412},{"id":4035057,"name":"Sataputu","lon":-172.55,"lat":-13.68333,"pop":0},{"id":4035056,"name":"Sataua","lon":-172.69436,"lat":-13.51742,"pop":771},{"id":4035053,"name":"Satitoa","lon":-171.43022,"lat":-14.0276,"pop":522},{"id":4035052,"name":"Sato’alepai","alt":["Sato'alepai"],"lon":-172.34484,"lat":-13.44361,"pop":235},{"id":7106331,"name":"Satoi","lon":-172.10169,"lat":-13.85093,"pop":0},{"id":4035051,"name":"Satufia","lon":-172.32769,"lat":-13.77345,"pop":0},{"id":7106341,"name":"Satufiauta","lon":-172.35229,"lat":-13.75527,"pop":0},{"id":4035050,"name":"Satui","lon":-171.94491,"lat":-13.81464,"pop":104},{"id":4035049,"name":"Satuiatua","lon":-172.60058,"lat":-13.70805,"pop":304},{"id":7106328,"name":"Satuilagi","lon":-172.10772,"lat":-13.84123,"pop":0},{"id":4035047,"name":"Satuimalufilufi","lon":-172.06014,"lat":-13.85621,"pop":0},{"id":4035045,"name":"Satupa‘itea","alt":["Satupa`itea","Satupaitea"],"lon":-172.32686,"lat":-13.76593,"pop":0},{"id":4035042,"name":"Sauago","alt":["Asauana","Samauga","Sauango","Sauano"],"lon":-171.56203,"lat":-13.91069,"pop":0},{"id":4035040,"name":"Saumaga","lon":-172.41468,"lat":-13.45773,"pop":0},{"id":4035038,"name":"Sauniatu","lon":-171.62163,"lat":-13.92492,"pop":81},{"id":4035037,"name":"Savaia","lon":-171.95711,"lat":-13.95514,"pop":395},{"id":4035033,"name":"Savalalo","lon":-171.77247,"lat":-13.83011,"pop":0},{"id":7106289,"name":"Se’ese’e","lon":-171.8071,"lat":-13.85474,"pop":0},{"id":4035023,"name":"Si’umu","alt":["Si'umu","Siumu Village"],"lon":-171.77682,"lat":-14.00943,"pop":0},{"id":4035021,"name":"Si’uniu","alt":["Si'uniu"],"lon":-171.61735,"lat":-14.02065,"pop":104},{"id":4035020,"name":"Si’upapa","lon":-171.51245,"lat":-14.04127,"pop":53},{"id":4035029,"name":"Sili","lon":-172.37733,"lat":-13.75602,"pop":868},{"id":7106274,"name":"Sina","lon":-171.99482,"lat":-13.83908,"pop":0},{"id":7106303,"name":"Sinamoga","lon":-171.77923,"lat":-13.8508,"pop":0},{"id":4035025,"name":"Siu’faga","lon":-172.03915,"lat":-13.90686,"pop":0},{"id":7106344,"name":"Siuniu","lon":-172.43626,"lat":-13.77415,"pop":0},{"id":4035019,"name":"Siusega","lon":-171.81397,"lat":-13.84432,"pop":2226},{"id":4035018,"name":"Siutu","lon":-172.59541,"lat":-13.72099,"pop":648},{"id":4035017,"name":"Siuvao","lon":-172.66667,"lat":-13.56667,"pop":0},{"id":4035016,"name":"Sogi","alt":["Songi"],"lon":-171.77373,"lat":-13.82837,"pop":0},{"id":4035015,"name":"Solaua","alt":["Solaua Plantation"],"lon":-171.62971,"lat":-13.93225,"pop":0},{"id":7106419,"name":"Sologa","lon":-172.36725,"lat":-13.47124,"pop":0},{"id":4035014,"name":"Solomea","lon":-172.26353,"lat":-13.51735,"pop":0},{"id":4035013,"name":"Solosolo","lon":-171.64181,"lat":-13.87504,"pop":1487},{"id":4035011,"name":"Suga","lon":-171.72196,"lat":-13.84907,"pop":0},{"id":4035007,"name":"Taelefaga","lon":-171.56961,"lat":-13.94285,"pop":183},{"id":7106285,"name":"Tafa’igata","alt":["Tafa'igata"],"lon":-171.83001,"lat":-13.85089,"pop":0},{"id":4035004,"name":"Tafagamanu","lon":-171.96025,"lat":-13.94818,"pop":314},{"id":4035003,"name":"Tafatafa","lon":-171.6544,"lat":-14.03147,"pop":224},{"id":4035000,"name":"Tafitoala","lon":-171.81238,"lat":-14.00703,"pop":393},{"id":4034999,"name":"Tafua","lon":-172.2538,"lat":-13.7927,"pop":403},{"id":7106275,"name":"Tafue","lon":-171.92509,"lat":-13.84314,"pop":0},{"id":4034998,"name":"Taga","lon":-172.5111,"lat":-13.794,"pop":680},{"id":7106299,"name":"Talimatau","lon":-171.79621,"lat":-13.84248,"pop":0},{"id":7106349,"name":"Tamasaga","lon":-172.4547,"lat":-13.77554,"pop":0},{"id":7106378,"name":"Tanoaalea","alt":["Tanoaalei`a","Tanoaalei‘a"],"lon":-172.58577,"lat":-13.72245,"pop":0},{"id":4034995,"name":"Tanugamanono","alt":["Tanumamanono"],"lon":-171.75921,"lat":-13.85099,"pop":0},{"id":7109422,"name":"Tanumalala","lon":-171.94075,"lat":-13.89451,"pop":0},{"id":7106287,"name":"Tanumapua","lon":-171.82049,"lat":-13.86272,"pop":0},{"id":4034994,"name":"Tanuoa","lon":-171.9,"lat":-13.8,"pop":0},{"id":7106291,"name":"Tapatapao","lon":-171.83083,"lat":-13.87596,"pop":0},{"id":4034992,"name":"Tapueleele","lon":-172.23622,"lat":-13.64675,"pop":228},{"id":4034988,"name":"Taumuafa","lon":-171.78333,"lat":-13.83333,"pop":0},{"id":7046389,"name":"Ti’avea","lon":-171.4678,"lat":-13.97621,"pop":0},{"id":4034985,"name":"Tiapapata","lon":-171.77158,"lat":-13.88932,"pop":0},{"id":4034982,"name":"Tiavi","lon":-171.7815,"lat":-13.92527,"pop":0},{"id":7046413,"name":"To-le-sua","lon":-171.54888,"lat":-14.03899,"pop":0},{"id":7046414,"name":"To-sua","lon":-171.54867,"lat":-14.04094,"pop":0},{"id":4034891,"name":"Toamua","alt":["Tuamua"],"lon":-171.81205,"lat":-13.80781,"pop":778},{"id":7667547,"name":"Togafuafua","lon":-171.76639,"lat":-13.83539,"pop":0},{"id":7090912,"name":"Togitogiga","lon":-171.72095,"lat":-14.01684,"pop":0},{"id":7046415,"name":"Toloavatu","lon":-171.55114,"lat":-14.04178,"pop":0},{"id":7106290,"name":"Tua‘efu","lon":-171.799,"lat":-13.85719,"pop":0},{"id":4034972,"name":"Tuana‘i","alt":["Tuana`i"],"lon":-171.86158,"lat":-13.79956,"pop":0},{"id":4034971,"name":"Tuasivi","alt":["Tuasavi"],"lon":-172.17559,"lat":-13.6676,"pop":365},{"id":4034969,"name":"Tufu","lon":-172.36667,"lat":-13.76667,"pop":0},{"id":4034968,"name":"Tufulele","lon":-171.91602,"lat":-13.80496,"pop":905},{"id":4034967,"name":"Tufutafoe","alt":["Tutu Tafoe","Tutu Tafu"],"lon":-172.78963,"lat":-13.53073,"pop":330},{"id":4034965,"name":"Tulaele","alt":["Tulaele Farm"],"lon":-171.79007,"lat":-13.83782,"pop":0},{"id":4034963,"name":"Tulivae","lon":-172.06492,"lat":-13.89099,"pop":0},{"id":4034962,"name":"Uafato","alt":["Atoe"],"lon":-171.5154,"lat":-13.95202,"pop":301},{"id":4034959,"name":"Uliamoa","lon":-172.31667,"lat":-13.68333,"pop":0},{"id":7106288,"name":"Ululoloa","lon":-171.81052,"lat":-13.85685,"pop":0},{"id":4034957,"name":"Ulutogia","lon":-171.43345,"lat":-14.03341,"pop":195},{"id":4034953,"name":"Utuali‘i","lon":-171.90848,"lat":-13.79996,"pop":0},{"id":4034951,"name":"Utufa’alalafa","lon":-171.42589,"lat":-14.00372,"pop":89},{"id":4034949,"name":"Utulaelae","lon":-171.60604,"lat":-14.03952,"pop":166},{"id":4034948,"name":"Utuloa","lon":-172.63501,"lat":-13.50813,"pop":34},{"id":7106247,"name":"Utumalama Point","lon":-171.88902,"lat":-14.00201,"pop":0},{"id":7106337,"name":"Vaega","lon":-172.32666,"lat":-13.77007,"pop":0},{"id":7106340,"name":"Vaegauta","lon":-172.33393,"lat":-13.75574,"pop":0},{"id":7106372,"name":"Vai’a’ata","lon":-172.24547,"lat":-13.65804,"pop":0},{"id":7106364,"name":"Vai’afai","alt":["Vai'afai"],"lon":-172.2041,"lat":-13.70558,"pop":0},{"id":4034904,"name":"Vai’ula","lon":-171.66112,"lat":-14.03983,"pop":0},{"id":4034939,"name":"Vaiala","lon":-171.75396,"lat":-13.82877,"pop":221},{"id":7106342,"name":"Vaiala","lon":-172.38102,"lat":-13.77306,"pop":0},{"id":4034937,"name":"Vaiālua","lon":-171.95565,"lat":-13.81849,"pop":0},{"id":7109421,"name":"Vaiaumoe","lon":-171.97578,"lat":-13.89846,"pop":0},{"id":4034930,"name":"Vaie’e","alt":["Vaie'e","Vaijee'itai","Vaijee’itai","Vaiyee' Itai","Vaiyee’ Itai"],"lon":-171.83095,"lat":-13.98811,"pop":497},{"id":4034935,"name":"Vaifoa","lon":-171.84213,"lat":-13.79837,"pop":0},{"id":4034934,"name":"Vaigaga","lon":-171.79484,"lat":-13.82369,"pop":760},{"id":4034932,"name":"Vaigalu","lon":-171.52306,"lat":-14.04015,"pop":97},{"id":7106236,"name":"Vailavea","lon":-172.05373,"lat":-13.90256,"pop":0},{"id":7106463,"name":"Vailele","lon":-171.72317,"lat":-13.84568,"pop":0},{"id":4034924,"name":"Vailima","lon":-171.76126,"lat":-13.86417,"pop":1462},{"id":4034921,"name":"Vailoa","lon":-171.43534,"lat":-14.03888,"pop":336},{"id":4034923,"name":"Vailoa","lon":-171.79126,"lat":-13.83123,"pop":0},{"id":4034938,"name":"Vailoa","lon":-172.30698,"lat":-13.75551,"pop":769},{"id":7090909,"name":"Vailoa","lon":-171.61135,"lat":-14.03424,"pop":0},{"id":7106408,"name":"Vailolo","lon":-172.39737,"lat":-13.47257,"pop":0},{"id":4034920,"name":"Vailu‘utai","alt":["Vailu`utai","Vailutai"],"lon":-171.96912,"lat":-13.82916,"pop":0},{"id":4034919,"name":"Vaimauga","lon":-171.74585,"lat":-13.85212,"pop":0},{"id":4034918,"name":"Vaimoa","lon":-172.03333,"lat":-13.85,"pop":0},{"id":4034917,"name":"Vaimoso","lon":-171.77713,"lat":-13.83655,"pop":0},{"id":7109484,"name":"Vaiola","lon":-172.24125,"lat":-13.65278,"pop":0},{"id":7106451,"name":"Vaipapa","lon":-171.99707,"lat":-13.86051,"pop":0},{"id":7106280,"name":"Vaipoto","lon":-171.83366,"lat":-13.83935,"pop":0},{"id":4034914,"name":"Vaipouli","lon":-172.36897,"lat":-13.4657,"pop":171},{"id":7090908,"name":"Vaipu","lon":-171.5829,"lat":-13.96741,"pop":0},{"id":4034913,"name":"Vaipu’a","alt":["Vaipu'a"],"lon":-172.63375,"lat":-13.67783,"pop":417},{"id":7106308,"name":"Vaipuna","lon":-171.75372,"lat":-13.83124,"pop":0},{"id":4034912,"name":"Vaisala","lon":-172.67522,"lat":-13.51439,"pop":599},{"id":4034908,"name":"Vaitele","alt":["Vaitele Plantation"],"lon":-171.80604,"lat":-13.82933,"pop":0},{"id":7106282,"name":"Vaitele-uta","lon":-171.8102,"lat":-13.83188,"pop":0},{"id":7106333,"name":"Vaito‘omuli","alt":["Vaito`omuli"],"lon":-172.30267,"lat":-13.75804,"pop":0},{"id":7106301,"name":"Vaitoloa","lon":-171.78909,"lat":-13.83342,"pop":0},{"id":4034903,"name":"Vaiusu","alt":["Vaiasa"],"lon":-171.79333,"lat":-13.82678,"pop":2043},{"id":4034900,"name":"Vaivase","lon":-171.74667,"lat":-13.84519,"pop":0},{"id":7106310,"name":"Vaivase-uta","lon":-171.74491,"lat":-13.85642,"pop":0},{"id":7106312,"name":"Vaoala","lon":-171.76339,"lat":-13.87406,"pop":0},{"id":4034905,"name":"Vaotupua","alt":["Vaitupua"],"lon":-172.79079,"lat":-13.50309,"pop":0},{"id":4034897,"name":"Vaovai","lon":-171.67951,"lat":-14.03602,"pop":577},{"id":4034896,"name":"Vavau","lon":-171.54855,"lat":-14.04268,"pop":383}]