[{"id":11523315,"name":"17","lon":31.37855,"lat":-20.77206,"pop":0},{"id":7507144,"name":"Abraham","lon":31.53834,"lat":-19.71392,"pop":0},{"id":7370440,"name":"Adam","lon":29.65054,"lat":-16.37261,"pop":0},{"id":895798,"name":"Adylinn","lon":30.98889,"lat":-17.76222,"pop":0},{"id":895758,"name":"Alexandra Park","lon":31.05222,"lat":-17.79417,"pop":0},{"id":895710,"name":"Amandas","alt":["Mhanda"],"lon":30.95,"lat":-17.36667,"pop":0},{"id":895694,"name":"Amby","lon":31.11528,"lat":-17.83333,"pop":0},{"id":1106385,"name":"Angus Ranch","lon":31.96389,"lat":-20.41944,"pop":0},{"id":895658,"name":"Antelope Mine","alt":["Antelope"],"lon":28.45,"lat":-21.05,"pop":0},{"id":895657,"name":"Antenior","lon":29.03333,"lat":-20.98333,"pop":0},{"id":895635,"name":"Arcadia","lon":31.05333,"lat":-17.84333,"pop":0},{"id":895634,"name":"Arcadia South","lon":31.06667,"lat":-17.85,"pop":0},{"id":895633,"name":"Arcadia West","lon":31.06667,"lat":-17.86667,"pop":0},{"id":895631,"name":"Arcturus","alt":["Arcturas"],"lon":31.33127,"lat":-17.78271,"pop":0},{"id":895626,"name":"Ardbennie","lon":31.02722,"lat":-17.87806,"pop":0},{"id":1085520,"name":"Arlington","alt":["Arlington Estate"],"lon":31.09472,"lat":-17.91306,"pop":0},{"id":1106040,"name":"Ascot","lon":28.61,"lat":-20.16139,"pop":0},{"id":1085472,"name":"Ashbrittle","lon":31.03111,"lat":-17.76861,"pop":0},{"id":1106411,"name":"Ashdown Park","lon":30.98278,"lat":-17.79361,"pop":0},{"id":1106397,"name":"Aspindale Park","lon":30.955,"lat":-17.87083,"pop":0},{"id":895577,"name":"Athlone","lon":31.13333,"lat":-17.82,"pop":0},{"id":1106407,"name":"Avenues","lon":31.03944,"lat":-17.81889,"pop":0},{"id":895545,"name":"Avoca","lon":29.53333,"lat":-20.8,"pop":0},{"id":1085487,"name":"Avon Rise","lon":31.04167,"lat":-17.7825,"pop":0},{"id":895540,"name":"Avondale","alt":["Avondale Township"],"lon":31.03472,"lat":-17.79611,"pop":0},{"id":895538,"name":"Avondale West","lon":31.02417,"lat":-17.7825,"pop":0},{"id":895536,"name":"Avonlea","lon":31.0125,"lat":-17.77306,"pop":0},{"id":895526,"name":"Babblespruit","lon":32.61667,"lat":-20.3,"pop":0},{"id":1106424,"name":"Ballantyne Park","lon":31.10306,"lat":-17.77167,"pop":0},{"id":895470,"name":"Balule","lon":27.95,"lat":-20.1,"pop":0},{"id":7507427,"name":"Banga","lon":31.87427,"lat":-19.97933,"pop":0},{"id":8300463,"name":"Bangala","lon":31.22914,"lat":-20.69166,"pop":0},{"id":895442,"name":"Bangamakuni","alt":["Bangamukumi"],"lon":27.65719,"lat":-19.36318,"pop":0},{"id":12047292,"name":"Bangure","lon":31.76233,"lat":-19.53401,"pop":0},{"id":895417,"name":"Banket","alt":["Banket Junction"],"lon":30.4,"lat":-17.38333,"pop":9641},{"id":1106379,"name":"Bannockburn","lon":29.89899,"lat":-20.27841,"pop":0},{"id":10942241,"name":"Barapate","lon":30.82729,"lat":-20.27085,"pop":0},{"id":1106064,"name":"Barbour Fields","lon":28.57,"lat":-20.12889,"pop":0},{"id":1106117,"name":"Barham Green","lon":28.56833,"lat":-20.19167,"pop":0},{"id":1085500,"name":"Barrington","lon":30.95833,"lat":-17.93889,"pop":0},{"id":8468984,"name":"Baruru","lon":32.07982,"lat":-19.70154,"pop":0},{"id":7507081,"name":"Basera","lon":31.61427,"lat":-19.67103,"pop":0},{"id":7446876,"name":"Baswi","lon":31.70794,"lat":-19.15437,"pop":0},{"id":895329,"name":"Battlefields","alt":["Battlefield"],"lon":29.83333,"lat":-18.6,"pop":0},{"id":895326,"name":"Bauhinia","lon":31.03333,"lat":-17.36667,"pop":0},{"id":7465019,"name":"Bayane","lon":27.69444,"lat":-19.77462,"pop":0},{"id":895321,"name":"Bayi Bayi","lon":27.67865,"lat":-19.11842,"pop":0},{"id":895308,"name":"Beatrice","lon":30.8473,"lat":-18.25283,"pop":1647},{"id":895269,"name":"Beitbridge","alt":["Bajtbridz","Bajtbridzh","Beitbridzas","Beitbridžas","bei te qiao","Байтбридж","Бајтбриџ","بیٹبریج","貝特橋"],"lon":30,"lat":-22.21667,"pop":58100},{"id":895258,"name":"Belgravia","lon":31.04972,"lat":-17.80306,"pop":0},{"id":895244,"name":"Bellevue","lon":28.55,"lat":-20.2,"pop":0},{"id":1106116,"name":"Bellevue","lon":28.50778,"lat":-20.17083,"pop":0},{"id":895235,"name":"Belmont","lon":28.57139,"lat":-20.17167,"pop":0},{"id":1106105,"name":"Belmont East","lon":28.57861,"lat":-20.17222,"pop":0},{"id":895231,"name":"Belvedere North","alt":["Belvedere"],"lon":31.01806,"lat":-17.82111,"pop":0},{"id":895230,"name":"Belvedere South","lon":31.01667,"lat":-17.83056,"pop":0},{"id":895227,"name":"Bemba","lon":27.27852,"lat":-19.44551,"pop":0},{"id":895211,"name":"Bembezi","alt":["Bembesi","Mbembezi"],"lon":28.93333,"lat":-20,"pop":0},{"id":895203,"name":"Bemthree","lon":30.1,"lat":-18.98333,"pop":0},{"id":7507126,"name":"Beni","lon":31.52834,"lat":-19.72678,"pop":0},{"id":895142,"name":"Beswota","lon":32.5,"lat":-20.33333,"pop":0},{"id":7453420,"name":"Betera","lon":31.98641,"lat":-19.36338,"pop":0},{"id":895126,"name":"Beverley","lon":31.12667,"lat":-17.84583,"pop":0},{"id":1106449,"name":"Beverley West","lon":31.10583,"lat":-17.8375,"pop":0},{"id":11523382,"name":"Bexley Circle","lon":31.01073,"lat":-17.86791,"pop":0},{"id":895113,"name":"Bezha","lon":27.76667,"lat":-20.2,"pop":0},{"id":7370564,"name":"Bihkausara","lon":29.87548,"lat":-16.48292,"pop":0},{"id":895086,"name":"Bikeni Nyemba","lon":28.43333,"lat":-17.41667,"pop":0},{"id":895082,"name":"Bikita","lon":31.62316,"lat":-20.08213,"pop":0},{"id":895061,"name":"Bindura","alt":["Bindura Town","Kimberley Reefs","Биндура"],"lon":31.33056,"lat":-17.30192,"pop":50400},{"id":895057,"name":"Binga","lon":27.34139,"lat":-17.62027,"pop":4327},{"id":1085478,"name":"Bingley","lon":31.12278,"lat":-17.83028,"pop":0},{"id":895045,"name":"Birchenough Bridge","lon":32.33333,"lat":-19.96667,"pop":0},{"id":895017,"name":"Bivis","lon":31.28333,"lat":-21.15,"pop":0},{"id":1106447,"name":"Bloomingdale","lon":30.9775,"lat":-17.79028,"pop":0},{"id":894974,"name":"Blue Gum","lon":29.45,"lat":-18.45,"pop":0},{"id":894962,"name":"Bluff Hill","lon":30.98028,"lat":-17.76972,"pop":0},{"id":1106441,"name":"Bluff Hill Park","lon":30.98861,"lat":-17.78444,"pop":0},{"id":894943,"name":"Boli","lon":31.48333,"lat":-21.53333,"pop":0},{"id":894903,"name":"Bonke","alt":["Banke"],"lon":27.37356,"lat":-19.31667,"pop":0},{"id":894902,"name":"Bonkwe","alt":["Bonko"],"lon":27.15696,"lat":-19.46127,"pop":0},{"id":7464967,"name":"Bonyonko","lon":27.62657,"lat":-19.32295,"pop":0},{"id":894892,"name":"Bonzo","lon":32.61667,"lat":-18.65,"pop":0},{"id":7371059,"name":"Bopofo","lon":29.47383,"lat":-16.90646,"pop":0},{"id":894873,"name":"Borrowdale","alt":["Borrowdale Estate"],"lon":31.10361,"lat":-17.75667,"pop":0},{"id":894872,"name":"Borrowdale Brooke","alt":["Borrowdale Brook"],"lon":31.145,"lat":-17.71361,"pop":0},{"id":1106443,"name":"Borrowdale West","lon":31.07556,"lat":-17.76278,"pop":0},{"id":1085461,"name":"Bothashof","lon":31.04806,"lat":-17.73306,"pop":0},{"id":7507285,"name":"Boyi","lon":31.65715,"lat":-19.90563,"pop":0},{"id":894830,"name":"Bradley Institute","lon":31.45917,"lat":-17.01639,"pop":0},{"id":894823,"name":"Braeside","lon":31.06417,"lat":-17.84278,"pop":0},{"id":894809,"name":"Brawlands","lon":31.03333,"lat":-17.38333,"pop":0},{"id":894776,"name":"Bromley","alt":["New Bromley"],"lon":31.34314,"lat":-18.06859,"pop":0},{"id":1106418,"name":"Brooke Ridge","lon":31.13722,"lat":-17.70972,"pop":0},{"id":7453766,"name":"Bubaiwa","lon":31.59711,"lat":-19.47504,"pop":0},{"id":894739,"name":"Bubu","lon":28.66667,"lat":-19.15,"pop":0},{"id":7465033,"name":"Budhli","lon":27.34473,"lat":-19.76333,"pop":0},{"id":1106396,"name":"Budiriro","lon":30.93361,"lat":-17.89722,"pop":0},{"id":1106453,"name":"Budiriro 2","lon":30.92306,"lat":-17.90222,"pop":0},{"id":1106454,"name":"Budiriro 4","lon":30.91333,"lat":-17.89389,"pop":0},{"id":1106451,"name":"Budiriro 5","lon":30.92333,"lat":-17.87889,"pop":0},{"id":8300451,"name":"Buffalo Downs","lon":29.7603,"lat":-16.9002,"pop":0},{"id":894712,"name":"Buhera","alt":["Uhera"],"lon":31.43959,"lat":-19.32082,"pop":0},{"id":894704,"name":"Bulate","alt":["Bulale"],"lon":27.62479,"lat":-19.79811,"pop":0},{"id":894701,"name":"Bulawayo","alt":["BUQ","Bulavajas","Bulavajo","Bulavejo","bu la wa yue","bullawayo","burawayo","Булавайо","Булаваё","Булавајо","Булавейо","ブラワヨ","布拉瓦约","불라와요"],"lon":28.58333,"lat":-20.15,"pop":1200337},{"id":7465021,"name":"Bule II","lon":27.65571,"lat":-19.74902,"pop":0},{"id":7465009,"name":"Bumbu","lon":27.29248,"lat":-19.67459,"pop":0},{"id":894679,"name":"Bumi Hills","alt":["BZH"],"lon":28.35,"lat":-16.81667,"pop":0},{"id":1106146,"name":"Burnside","lon":28.61556,"lat":-20.2175,"pop":0},{"id":7465014,"name":"Bushman Diwa","lon":27.15753,"lat":-19.69087,"pop":0},{"id":894638,"name":"Bushtick","alt":["Buschtick"],"lon":28.91287,"lat":-20.22048,"pop":0},{"id":7507311,"name":"Busvumani","lon":31.73847,"lat":-19.8575,"pop":0},{"id":894625,"name":"Butabubili","alt":["Butabulili"],"lon":27.2233,"lat":-19.76067,"pop":0},{"id":7465013,"name":"Butshena","lon":27.21621,"lat":-19.66264,"pop":0},{"id":7351880,"name":"Bvumbe","lon":31.52678,"lat":-16.98935,"pop":0},{"id":10942339,"name":"Cannock Close","lon":30.99944,"lat":-17.88198,"pop":0},{"id":7464969,"name":"Capuka","lon":27.63902,"lat":-19.27452,"pop":0},{"id":894503,"name":"Cashel","lon":32.78333,"lat":-19.55,"pop":0},{"id":1105985,"name":"Cathleen","lon":28.72194,"lat":-20.08833,"pop":0},{"id":894474,"name":"Cawunajena","lon":27.01621,"lat":-19.67943,"pop":0},{"id":894466,"name":"Cement","alt":["Cement Siding","Cement Station"],"lon":28.6876,"lat":-20.10751,"pop":0},{"id":894460,"name":"Centenary","lon":31.11462,"lat":-16.72289,"pop":3388},{"id":894446,"name":"Chababomera","lon":30.16667,"lat":-17.76667,"pop":0},{"id":7371167,"name":"Chabera","lon":29.29274,"lat":-16.95577,"pop":0},{"id":894437,"name":"Chabili","lon":30.63333,"lat":-22.15,"pop":0},{"id":894431,"name":"Chadcombe","lon":31.10111,"lat":-17.85639,"pop":0},{"id":7507314,"name":"Chadyeni","lon":31.76293,"lat":-19.82574,"pop":0},{"id":894421,"name":"Chafutchi","lon":30.16667,"lat":-22.01667,"pop":0},{"id":7507115,"name":"Chagonda","lon":31.53136,"lat":-19.6928,"pop":0},{"id":7507402,"name":"Chagwiza","lon":31.88841,"lat":-19.80334,"pop":0},{"id":7507241,"name":"Chahata","lon":31.66859,"lat":-19.87942,"pop":0},{"id":7507381,"name":"Chaita","lon":31.76246,"lat":-19.92008,"pop":0},{"id":894413,"name":"Chakari","alt":["Shagari"],"lon":29.89246,"lat":-18.06294,"pop":6472},{"id":12047307,"name":"Chakohwa","lon":32.51677,"lat":-19.55063,"pop":0},{"id":7507111,"name":"Chakona","lon":31.52183,"lat":-19.66309,"pop":0},{"id":7370794,"name":"Chambati","lon":29.37435,"lat":-16.82875,"pop":0},{"id":7507118,"name":"Chaminuka","lon":31.552,"lat":-19.64403,"pop":0},{"id":7507222,"name":"Chamisa","lon":31.55026,"lat":-19.95248,"pop":0},{"id":894366,"name":"Chamnanga","lon":30.06667,"lat":-22.11667,"pop":0},{"id":1105996,"name":"Chancit","lon":28.66056,"lat":-20.09389,"pop":0},{"id":7507336,"name":"Chandida","lon":31.75102,"lat":-19.94152,"pop":0},{"id":7351885,"name":"Changata","lon":31.51957,"lat":-16.98995,"pop":0},{"id":7371131,"name":"Chaparanganda","lon":29.38987,"lat":-16.90369,"pop":0},{"id":7453430,"name":"Chapinga","lon":31.92939,"lat":-19.42739,"pop":0},{"id":7507413,"name":"Chapungu","lon":31.86617,"lat":-19.90404,"pop":0},{"id":7507246,"name":"Chapwanya","lon":31.65826,"lat":-19.8556,"pop":0},{"id":7443210,"name":"Chapxania","lon":31.61292,"lat":-19.06652,"pop":0},{"id":8304252,"name":"Charamba","lon":31.66049,"lat":-19.97345,"pop":0},{"id":894310,"name":"Charara","lon":28.95179,"lat":-16.54977,"pop":0},{"id":7507089,"name":"Charumbira","lon":31.63809,"lat":-19.65293,"pop":0},{"id":7371171,"name":"Chasauka","lon":29.27902,"lat":-16.94447,"pop":0},{"id":894280,"name":"Chatsworth","lon":30.83749,"lat":-19.6266,"pop":0},{"id":7507103,"name":"Chauruka","lon":31.58679,"lat":-19.65468,"pop":0},{"id":7507282,"name":"Chaurura","lon":31.67002,"lat":-19.96567,"pop":0},{"id":7454313,"name":"Chavahera","lon":31.99292,"lat":-19.47631,"pop":0},{"id":7507004,"name":"Chavunda","lon":31.77707,"lat":-19.65833,"pop":0},{"id":7453857,"name":"Chawunga","lon":31.67955,"lat":-19.57653,"pop":0},{"id":7453758,"name":"Chebundo","lon":31.51293,"lat":-19.52157,"pop":0},{"id":894239,"name":"Chegutu","alt":["Cheguto","Hartley","New Hartley"],"lon":30.14074,"lat":-18.13021,"pop":65800},{"id":7405305,"name":"Chegutu Pfupajena Township","lon":30.1215,"lat":-18.10946,"pop":0},{"id":8300450,"name":"Chehoko","lon":29.30404,"lat":-16.95902,"pop":0},{"id":894204,"name":"Chemhondoro","lon":31.56278,"lat":-17.68694,"pop":0},{"id":7371127,"name":"Chendamora","lon":29.35944,"lat":-16.89431,"pop":0},{"id":894157,"name":"Chereya","alt":["Chief Chereya's Village","Chief Chereya’s Village"],"lon":28.6,"lat":-17.55,"pop":0},{"id":7405248,"name":"Chibamu","lon":30.74939,"lat":-18.06383,"pop":0},{"id":7507124,"name":"Chibaya","lon":31.55423,"lat":-19.71757,"pop":0},{"id":7507026,"name":"Chibhamu","lon":31.68098,"lat":-19.70804,"pop":0},{"id":894084,"name":"Chibunje","alt":["Chibuwe"],"lon":32.39699,"lat":-20.5417,"pop":0},{"id":8300445,"name":"Chibuwe","lon":32.31287,"lat":-20.45663,"pop":0},{"id":894068,"name":"Chichindwi Homestead","alt":["Chichindwe"],"lon":32.1024,"lat":-20.40777,"pop":0},{"id":7507219,"name":"Chidakwa","lon":31.56455,"lat":-19.89372,"pop":0},{"id":7453460,"name":"Chidiro","lon":31.85553,"lat":-19.35496,"pop":0},{"id":7507378,"name":"Chidonitofaraseyi","lon":31.77087,"lat":-19.89753,"pop":0},{"id":8301105,"name":"Chiduku","lon":32.00698,"lat":-18.92612,"pop":0},{"id":7507105,"name":"Chidya","lon":31.61728,"lat":-19.6218,"pop":0},{"id":7324544,"name":"Chief Bepura","lon":30.64621,"lat":-16.83955,"pop":0},{"id":7374517,"name":"Chief Binga","lon":27.41534,"lat":-17.75728,"pop":0},{"id":1106387,"name":"Chief Bota","alt":["Bota"],"lon":31.40564,"lat":-20.56489,"pop":0},{"id":7348335,"name":"Chief Budzi","lon":31.91959,"lat":-20.04022,"pop":0},{"id":7338584,"name":"Chief Bushu","lon":31.57425,"lat":-17.20647,"pop":0},{"id":7385469,"name":"Chief Chikwizu","lon":32.73755,"lat":-17.22775,"pop":0},{"id":7393914,"name":"Chief Chilimanzi","lon":30.65269,"lat":-19.5357,"pop":0},{"id":7323951,"name":"Chief Chisunga","lon":30.35748,"lat":-16.05267,"pop":0},{"id":7374547,"name":"Chief Chitanga","lon":30.75982,"lat":-20.90194,"pop":0},{"id":7443453,"name":"Chief Chitsunge","lon":31.62229,"lat":-19.07748,"pop":0},{"id":893216,"name":"Chief Chitsungo","alt":["Chitsunga","Chitsungo"],"lon":32.06739,"lat":-16.92996,"pop":0},{"id":7324086,"name":"Chief Chitsungo","lon":30.44366,"lat":-16.26022,"pop":0},{"id":894022,"name":"Chief Dabola","alt":["Dabolas"],"lon":27.45,"lat":-18.11667,"pop":0},{"id":7452829,"name":"Chief Fish","lon":31.39699,"lat":-19.21757,"pop":0},{"id":7465047,"name":"Chief Gambo","lon":27.68251,"lat":-19.85443,"pop":0},{"id":7370851,"name":"Chief Garahwa","lon":32.44127,"lat":-20.94261,"pop":0},{"id":7453572,"name":"Chief Gutu","lon":31.16223,"lat":-19.55318,"pop":0},{"id":894021,"name":"Chief Mabikwa","alt":["Chief Mabigwa"],"lon":27.54414,"lat":-18.70801,"pop":0},{"id":894020,"name":"Chief Madliwa","alt":["Chief Madhliwa"],"lon":28.81655,"lat":-18.7373,"pop":0},{"id":894019,"name":"Chief Mahlaba","lon":27.65468,"lat":-19.34435,"pop":0},{"id":7507195,"name":"Chief Makore","lon":31.1932,"lat":-19.90881,"pop":0},{"id":7346789,"name":"Chief Mangwende","lon":31.9902,"lat":-17.79588,"pop":0},{"id":7350404,"name":"Chief Mapungwana","lon":32.70272,"lat":-20.39102,"pop":0},{"id":886558,"name":"Chief Matapula","alt":["Matapula","Matupula"],"lon":27.70585,"lat":-19.42193,"pop":0},{"id":7324091,"name":"Chief Matsiwo","lon":30.90897,"lat":-16.30339,"pop":0},{"id":7370852,"name":"Chief Mpungu","lon":32.44205,"lat":-20.97117,"pop":0},{"id":894018,"name":"Chief Mswigana","alt":["Mswiganas Kraal"],"lon":27.48651,"lat":-19.58419,"pop":0},{"id":7405492,"name":"Chief Mupawose","lon":30.55368,"lat":-18.49468,"pop":0},{"id":7370390,"name":"Chief Musikavanhu","lon":32.46181,"lat":-20.53419,"pop":0},{"id":894017,"name":"Chief Myinga","lon":28.66968,"lat":-18.80017,"pop":0},{"id":7337790,"name":"Chief Negomo","lon":31.0279,"lat":-17.11589,"pop":0},{"id":7405481,"name":"Chief Nenguo","lon":31.23693,"lat":-18.35445,"pop":0},{"id":7350014,"name":"Chief Ngorima","lon":32.84756,"lat":-20.03599,"pop":0},{"id":7350306,"name":"Chief Nhema","lon":31.58985,"lat":-20.25385,"pop":0},{"id":7394684,"name":"Chief Njelele","lon":29.08998,"lat":-18.29481,"pop":0},{"id":7319594,"name":"Chief Nkalakata","lon":28.94808,"lat":-19.04385,"pop":0},{"id":7523438,"name":"Chief Nqoya","lon":27.80079,"lat":-19.81616,"pop":0},{"id":7395322,"name":"Chief Ntabeni","lon":29.34811,"lat":-18.84035,"pop":0},{"id":7374159,"name":"Chief Nyajena","lon":31.05541,"lat":-20.66439,"pop":0},{"id":7341367,"name":"Chief Nyajima","lon":31.95436,"lat":-17.35851,"pop":0},{"id":7385446,"name":"Chief Nyamokoho","lon":32.38029,"lat":-17.17121,"pop":0},{"id":7405421,"name":"Chief Nyamweda","lon":30.68619,"lat":-18.22703,"pop":0},{"id":7453478,"name":"Chief Nyashanu","lon":31.70671,"lat":-19.39753,"pop":0},{"id":894016,"name":"Chief Saba","lon":27.15402,"lat":-18.00456,"pop":0},{"id":894015,"name":"Chief Sai","lon":28.38097,"lat":-18.14807,"pop":0},{"id":7405277,"name":"Chief Seki","lon":31.198,"lat":-18.14307,"pop":0},{"id":7374478,"name":"Chief Siabuwa","lon":28.04164,"lat":-17.4753,"pop":0},{"id":7374529,"name":"Chief Siachilaba","lon":27.29502,"lat":-17.90029,"pop":0},{"id":894009,"name":"Chief Siansali","alt":["Chief Sinsalis Village"],"lon":27.56739,"lat":-17.95345,"pop":0},{"id":7374519,"name":"Chief Sigalenke","lon":27.38694,"lat":-17.723,"pop":0},{"id":7374518,"name":"Chief Sikalenke","lon":27.40694,"lat":-17.74199,"pop":0},{"id":894014,"name":"Chief Sikobokobo","lon":28.4937,"lat":-18.75764,"pop":0},{"id":894013,"name":"Chief Simupa","alt":["Chief Simupas Village"],"lon":28.07208,"lat":-17.19488,"pop":0},{"id":7374520,"name":"Chief Sinakoma","lon":27.63398,"lat":-17.68639,"pop":0},{"id":7374541,"name":"Chief Sinamagonde","lon":27.88671,"lat":-17.97389,"pop":0},{"id":894012,"name":"Chief Sinampande","lon":27.9512,"lat":-17.48153,"pop":0},{"id":7374439,"name":"Chief Sinamsanga","lon":28.00652,"lat":-17.11232,"pop":0},{"id":7374460,"name":"Chief Sinamwenda","lon":28.01439,"lat":-17.24618,"pop":0},{"id":894011,"name":"Chief Sinangatenkes Village","lon":28.11667,"lat":-17.15,"pop":0},{"id":894010,"name":"Chief Sinasenkwe","lon":27.90337,"lat":-17.53971,"pop":0},{"id":894008,"name":"Chief Siposo","alt":["Chief Siposa"],"lon":27.07926,"lat":-19.51739,"pop":0},{"id":894007,"name":"Chief Sivalo","lon":28.33121,"lat":-18.79059,"pop":0},{"id":7465005,"name":"Chief Thomas","lon":27.81943,"lat":-19.56632,"pop":0},{"id":7370845,"name":"Chief Towani","lon":32.10548,"lat":-20.94417,"pop":0},{"id":7319593,"name":"Chief Tshugulu","lon":28.91669,"lat":-19.0056,"pop":0},{"id":7453831,"name":"Chifadza","lon":31.80201,"lat":-19.47043,"pop":0},{"id":7507331,"name":"Chigavade","lon":31.71703,"lat":-19.92405,"pop":0},{"id":7507342,"name":"Chigomo","lon":31.76706,"lat":-19.80302,"pop":0},{"id":7443232,"name":"Chigowe","lon":31.58893,"lat":-19.10845,"pop":0},{"id":7507097,"name":"Chigweremba","lon":31.64254,"lat":-19.70058,"pop":0},{"id":7507315,"name":"Chihenhamo","lon":31.74038,"lat":-19.86497,"pop":0},{"id":894414,"name":"Chikara","alt":["Chakara"],"lon":30.69832,"lat":-18.46595,"pop":0},{"id":7453806,"name":"Chikara","lon":31.65159,"lat":-19.57875,"pop":0},{"id":7507232,"name":"Chikerema","lon":31.60489,"lat":-19.87704,"pop":0},{"id":893908,"name":"Chikombu","lon":31.25,"lat":-21.58333,"pop":0},{"id":893907,"name":"Chikomo","lon":30.05,"lat":-19.91667,"pop":0},{"id":7351826,"name":"Chikonye","lon":31.50718,"lat":-16.88049,"pop":0},{"id":7507102,"name":"Chikonye","lon":31.60458,"lat":-19.65785,"pop":0},{"id":893897,"name":"Chikore Mission","lon":32.49373,"lat":-20.43579,"pop":0},{"id":7370563,"name":"Chikowe","lon":29.8697,"lat":-16.49507,"pop":0},{"id":7416943,"name":"Chikuku","lon":32.85225,"lat":-18.61896,"pop":0},{"id":7453521,"name":"Chikutuva","lon":31.52484,"lat":-19.45375,"pop":0},{"id":7507069,"name":"Chikuvire","lon":31.61728,"lat":-19.73679,"pop":0},{"id":7443286,"name":"Chikwava","lon":31.53207,"lat":-19.15896,"pop":0},{"id":7351887,"name":"Chikwenengere","lon":31.55734,"lat":-16.9387,"pop":0},{"id":7507073,"name":"Chikwiro","lon":31.60378,"lat":-19.7144,"pop":0},{"id":893836,"name":"Chilimanzi","alt":["Chirimuanzu"],"lon":30.74519,"lat":-19.58213,"pop":0},{"id":893813,"name":"Chimanimani","alt":["Mandidzudzure","Melsetter"],"lon":32.86667,"lat":-19.8,"pop":2752},{"id":7370630,"name":"Chimawmaka","lon":29.78177,"lat":-16.55774,"pop":0},{"id":893802,"name":"Chimbango","lon":31.51667,"lat":-16.25,"pop":0},{"id":7507398,"name":"Chimene","lon":31.84759,"lat":-19.97075,"pop":0},{"id":11288102,"name":"Chimhanda","lon":32.13698,"lat":-16.63414,"pop":0},{"id":7453074,"name":"Chimhawu","lon":31.66064,"lat":-19.19391,"pop":0},{"id":7506993,"name":"Chimire","lon":31.81757,"lat":-19.682,"pop":0},{"id":893769,"name":"Chimsasa","lon":32.98333,"lat":-17.43333,"pop":0},{"id":7507361,"name":"Chimunhu","lon":31.78326,"lat":-19.88085,"pop":0},{"id":7507072,"name":"Chimwana","lon":31.61268,"lat":-19.72393,"pop":0},{"id":7507231,"name":"Chimwango","lon":31.60442,"lat":-19.88736,"pop":0},{"id":7370743,"name":"Chimyemhere","lon":29.43594,"lat":-16.76668,"pop":0},{"id":7507261,"name":"Chinaka","lon":31.63491,"lat":-19.93088,"pop":0},{"id":7453863,"name":"Chinatsire","lon":31.74308,"lat":-19.59813,"pop":0},{"id":7453787,"name":"Chindito","lon":31.56964,"lat":-19.55652,"pop":0},{"id":7507022,"name":"Chindito","lon":31.71052,"lat":-19.70264,"pop":0},{"id":7453856,"name":"Chinefu","lon":31.6662,"lat":-19.54524,"pop":0},{"id":7405486,"name":"Chinemhute","lon":30.7082,"lat":-18.5019,"pop":0},{"id":893723,"name":"Chinex","lon":30.5,"lat":-16.95,"pop":0},{"id":7507114,"name":"Chinganga","lon":31.51039,"lat":-19.66945,"pop":0},{"id":7453101,"name":"Chingozhoro","lon":31.76881,"lat":-19.30239,"pop":0},{"id":7453522,"name":"Chingwetu","lon":31.52214,"lat":-19.46233,"pop":0},{"id":7351828,"name":"Chinhanga","lon":31.51776,"lat":-16.88518,"pop":0},{"id":893697,"name":"Chinhoyi","alt":["Chinkhoi","Chinkhoji","Chinoyi","Cinhojis","Sinoia","qi nuo yi","Činhojis","Чинхойи","Чинхої","Чинхоји","چینہوئی","奇諾伊"],"lon":30.2,"lat":-17.36667,"pop":90800},{"id":7443460,"name":"Chinoda","lon":31.71663,"lat":-19.0535,"pop":0},{"id":8303928,"name":"Chinoro","lon":31.71441,"lat":-19.1191,"pop":0},{"id":11429195,"name":"Chinotimba","lon":25.82009,"lat":-17.93816,"pop":0},{"id":7453477,"name":"Chinouya","lon":31.76198,"lat":-19.40849,"pop":0},{"id":7507015,"name":"Chinyai","lon":31.82583,"lat":-19.7252,"pop":0},{"id":7453090,"name":"Chinyanga","lon":31.70623,"lat":-19.23647,"pop":0},{"id":7453067,"name":"Chinyangwa","lon":31.52199,"lat":-19.17596,"pop":0},{"id":7370745,"name":"Chinyangwe","lon":29.4031,"lat":-16.77017,"pop":0},{"id":7507360,"name":"Chinyati","lon":31.79803,"lat":-19.87053,"pop":0},{"id":8300167,"name":"Chinyika","lon":31.33848,"lat":-17.8262,"pop":0},{"id":7453093,"name":"Chinzou","lon":31.74483,"lat":-19.19057,"pop":0},{"id":893560,"name":"Chipimfwe","lon":31.58333,"lat":-16.2,"pop":0},{"id":893549,"name":"Chipinge","alt":["CHJ","Chipinga"],"lon":32.62365,"lat":-20.18833,"pop":34959},{"id":893542,"name":"Chipise","lon":30.93333,"lat":-22.23333,"pop":0},{"id":7453412,"name":"Chiporiro","lon":31.95639,"lat":-19.2711,"pop":0},{"id":7405695,"name":"Chirara","lon":30.98882,"lat":-18.81964,"pop":0},{"id":893485,"name":"Chiredzi","alt":["BFO"],"lon":31.66667,"lat":-21.05,"pop":40100},{"id":7507410,"name":"Chireya","lon":31.89349,"lat":-19.87609,"pop":0},{"id":7507267,"name":"Chiriga","lon":31.58933,"lat":-19.96503,"pop":0},{"id":7453427,"name":"Chirimudombo","lon":31.92208,"lat":-19.36052,"pop":0},{"id":7446882,"name":"Chirinda","lon":31.68026,"lat":-19.09861,"pop":0},{"id":893397,"name":"Chirundu","alt":["Chirunda","Chirundo","Chirundu Township","Otto Beit Bridge"],"lon":28.85,"lat":-16.03333,"pop":1911},{"id":7418013,"name":"Chisangano School","lon":31.57024,"lat":-18.87172,"pop":0},{"id":893339,"name":"Chisipite","lon":31.12278,"lat":-17.78861,"pop":0},{"id":7371265,"name":"Chisiri","lon":29.49458,"lat":-16.97334,"pop":0},{"id":893337,"name":"Chiso","lon":31.31667,"lat":-20.55,"pop":0},{"id":7507406,"name":"Chitadu","lon":31.87459,"lat":-19.834,"pop":0},{"id":7453761,"name":"Chitakira","lon":31.54486,"lat":-19.53301,"pop":0},{"id":7443462,"name":"Chitando","lon":31.73442,"lat":-19.07542,"pop":0},{"id":7370797,"name":"Chitau","lon":29.3758,"lat":-16.82261,"pop":0},{"id":7371074,"name":"Chitehere","lon":29.43317,"lat":-16.85617,"pop":0},{"id":7370441,"name":"Chitindiva","lon":29.64765,"lat":-16.37971,"pop":0},{"id":893258,"name":"Chitofa","lon":30.53333,"lat":-20.55,"pop":0},{"id":8300134,"name":"Chitowa","lon":31.89,"lat":-17.54761,"pop":0},{"id":7443457,"name":"Chitsunge","lon":31.70869,"lat":-19.04016,"pop":0},{"id":7324087,"name":"Chitsungo Mission","lon":30.44616,"lat":-16.27993,"pop":0},{"id":1106542,"name":"Chitungwiza","alt":["Chitungviza","Chytungviza","Citungviza","chytwngwyza","Čitungviza","Читунгвиза","Читунгвіза","Чытунгвіза","چیتونگویزا"],"lon":31.07555,"lat":-18.01274,"pop":371244},{"id":7453497,"name":"Chitupa","lon":31.50594,"lat":-19.43342,"pop":0},{"id":8303939,"name":"Chiturike","lon":31.67788,"lat":-19.11036,"pop":0},{"id":893198,"name":"Chiva","lon":30.56667,"lat":-18.26667,"pop":0},{"id":7452852,"name":"Chivaku","lon":31.75323,"lat":-19.1585,"pop":0},{"id":7371068,"name":"Chivanga","lon":29.43317,"lat":-16.88709,"pop":0},{"id":7453753,"name":"Chivasa","lon":31.5555,"lat":-19.48886,"pop":0},{"id":7507067,"name":"Chivasa","lon":31.65604,"lat":-19.7568,"pop":0},{"id":7453780,"name":"Chivenge","lon":31.53469,"lat":-19.55382,"pop":0},{"id":7370747,"name":"Chivere","lon":29.3924,"lat":-16.7573,"pop":0},{"id":893172,"name":"Chivhu","alt":["Enkeldoorn"],"lon":30.89218,"lat":-19.02112,"pop":10369},{"id":7507060,"name":"Chivhuro","lon":31.71624,"lat":-19.78381,"pop":0},{"id":894094,"name":"Chivi","alt":["Chibi"],"lon":30.51017,"lat":-20.30729,"pop":0},{"id":7405500,"name":"Chivima","lon":30.4967,"lat":-18.48597,"pop":0},{"id":7507252,"name":"Chivuna","lon":31.56852,"lat":-19.91008,"pop":0},{"id":893148,"name":"Chiwakanyama","lon":29.3,"lat":-16.95,"pop":0},{"id":7371168,"name":"Chiwara","lon":29.31571,"lat":-16.9666,"pop":0},{"id":7453803,"name":"Chiwara","lon":31.65906,"lat":-19.57224,"pop":0},{"id":7507010,"name":"Chiwara","lon":31.73831,"lat":-19.6272,"pop":0},{"id":7351703,"name":"Chiweshe","lon":31.12249,"lat":-16.88337,"pop":0},{"id":1106429,"name":"Chizanje","lon":31.17611,"lat":-17.85028,"pop":0},{"id":7453435,"name":"Chizema","lon":31.91351,"lat":-19.46297,"pop":0},{"id":7507308,"name":"Chokuda","lon":31.72275,"lat":-19.84337,"pop":0},{"id":7507392,"name":"Chokufa","lon":31.82964,"lat":-19.96233,"pop":0},{"id":7507330,"name":"Chomunorwa","lon":31.73402,"lat":-19.93263,"pop":0},{"id":893032,"name":"Chomwedzi","lon":31.4,"lat":-18.18333,"pop":0},{"id":7507393,"name":"Chowe","lon":31.81566,"lat":-19.94915,"pop":0},{"id":1085499,"name":"Chulu","lon":30.92972,"lat":-17.9325,"pop":0},{"id":7370437,"name":"Chundu","lon":29.69348,"lat":-16.36949,"pop":0},{"id":1106106,"name":"City","alt":["City Centre"],"lon":28.58472,"lat":-20.1525,"pop":0},{"id":1106439,"name":"Civic Centre","lon":31.03861,"lat":-17.83139,"pop":0},{"id":1085490,"name":"Cleveland Park","lon":31.14528,"lat":-17.82,"pop":0},{"id":892928,"name":"Clovelly","lon":30.8,"lat":-20.05,"pop":0},{"id":1106401,"name":"Cold Comfort","lon":30.94417,"lat":-17.83361,"pop":0},{"id":892899,"name":"Colleen Bawn","lon":29.21667,"lat":-21,"pop":0},{"id":892893,"name":"Colne Valley","lon":31.10722,"lat":-17.78222,"pop":0},{"id":892889,"name":"Colray","lon":31.11194,"lat":-17.75722,"pop":0},{"id":1085483,"name":"Comet Rise","lon":31.04361,"lat":-17.76861,"pop":0},{"id":892876,"name":"Concession","lon":30.95,"lat":-17.38333,"pop":4983},{"id":892853,"name":"Connemara","alt":["Connemara Mine"],"lon":29.81667,"lat":-19.2,"pop":0},{"id":892855,"name":"Connemara","lon":28.37027,"lat":-20.22421,"pop":0},{"id":892814,"name":"Coronation Park","lon":31.10083,"lat":-17.83222,"pop":0},{"id":1106410,"name":"Cotswold Hills","lon":30.99111,"lat":-17.79361,"pop":0},{"id":892789,"name":"Craigengower","lon":31.03333,"lat":-17.31667,"pop":0},{"id":892783,"name":"Craigmore","lon":32.48333,"lat":-20.43333,"pop":0},{"id":892782,"name":"Cranborne","alt":["Cranborne Park"],"lon":31.07861,"lat":-17.85111,"pop":0},{"id":1085470,"name":"Crawborough","lon":30.94556,"lat":-17.84639,"pop":0},{"id":892761,"name":"Croft Mine","lon":29.33814,"lat":-20.55933,"pop":0},{"id":1106400,"name":"Crowborough North","lon":30.93389,"lat":-17.84083,"pop":0},{"id":7464941,"name":"Cuseculu","lon":27.18129,"lat":-19.51971,"pop":0},{"id":892725,"name":"Dabula","lon":28.45,"lat":-19.4,"pop":0},{"id":7507020,"name":"Dabwa","lon":31.72005,"lat":-19.64832,"pop":0},{"id":892716,"name":"Dagamela","alt":["Dagamella"],"lon":28.67201,"lat":-18.79008,"pop":0},{"id":892711,"name":"Dahlia","lon":27.16667,"lat":-18.61667,"pop":0},{"id":7507455,"name":"Dahwa","lon":31.96465,"lat":-19.942,"pop":0},{"id":892706,"name":"Daisyfield","lon":29.5,"lat":-19.71667,"pop":0},{"id":7464945,"name":"Danda","lon":27.12631,"lat":-19.66565,"pop":0},{"id":7464999,"name":"Dandamjena","lon":27.35906,"lat":-19.53578,"pop":0},{"id":892631,"name":"Dangamvura","lon":32.58333,"lat":-19,"pop":0},{"id":7507359,"name":"Dapi","lon":31.80709,"lat":-19.86195,"pop":0},{"id":7418157,"name":"Darlington","lon":32.67898,"lat":-18.98087,"pop":0},{"id":892601,"name":"Darwendale","lon":30.55,"lat":-17.71667,"pop":0},{"id":7507058,"name":"David","lon":31.69908,"lat":-19.76792,"pop":0},{"id":1106459,"name":"Dawn Hill","lon":31.11694,"lat":-17.81861,"pop":0},{"id":7507404,"name":"Dege","lon":31.91001,"lat":-19.81367,"pop":0},{"id":7522745,"name":"Deleleni","lon":27.09182,"lat":-19.6069,"pop":0},{"id":1105994,"name":"Delmore","lon":28.66056,"lat":-20.10583,"pop":0},{"id":892521,"name":"Dema","alt":["Dema Business Centre"],"lon":31.21835,"lat":-18.06673,"pop":0},{"id":7443216,"name":"Denya","lon":31.60545,"lat":-19.09162,"pop":0},{"id":1085516,"name":"Derbyshire Township","lon":31.01056,"lat":-17.93444,"pop":0},{"id":892440,"name":"Dete","alt":["Dett"],"lon":26.86667,"lat":-18.61667,"pop":2993},{"id":892389,"name":"Dhlakaniya","alt":["Dhlakapiya"],"lon":27.48938,"lat":-19.5127,"pop":0},{"id":892388,"name":"Dhlamini","lon":27.39896,"lat":-19.49383,"pop":0},{"id":7370557,"name":"Dick","lon":29.65054,"lat":-16.44984,"pop":0},{"id":7506994,"name":"Diki","lon":31.78152,"lat":-19.63387,"pop":0},{"id":7465046,"name":"Dikili","lon":27.75007,"lat":-19.86003,"pop":0},{"id":892336,"name":"Dingandawo","alt":["Dingindawa"],"lon":27.08125,"lat":-19.63837,"pop":0},{"id":7523207,"name":"Dingani","lon":27.67331,"lat":-19.07482,"pop":0},{"id":7464935,"name":"Dingant","lon":27.66753,"lat":-19.07482,"pop":0},{"id":7453795,"name":"Dire","lon":31.60219,"lat":-19.58733,"pop":0},{"id":892325,"name":"Disi","lon":30.7,"lat":-16.91667,"pop":0},{"id":892288,"name":"Doma","lon":30.23333,"lat":-16.75,"pop":0},{"id":892272,"name":"Dombo","lon":27.7588,"lat":-19.7062,"pop":0},{"id":7371129,"name":"Dombo","lon":29.39781,"lat":-16.91139,"pop":0},{"id":892250,"name":"Domboshawa","alt":["Dombosnawa"],"lon":31.13627,"lat":-17.60127,"pop":0},{"id":7374438,"name":"Don Bosco Mission","lon":30.05704,"lat":-20.78444,"pop":0},{"id":7370627,"name":"Dondo","lon":29.8187,"lat":-16.55822,"pop":0},{"id":7370629,"name":"Dondoro","lon":29.8258,"lat":-16.57265,"pop":0},{"id":7394304,"name":"Donga","lon":30.12093,"lat":-19.78869,"pop":0},{"id":1106111,"name":"Donnington","lon":28.55917,"lat":-20.18556,"pop":0},{"id":892207,"name":"Donnybrook","lon":31.14778,"lat":-17.81222,"pop":0},{"id":892156,"name":"Dorowa Mining Lease","alt":["Dorowa","Dorowa Claims"],"lon":31.75,"lat":-19.06667,"pop":1676},{"id":1085488,"name":"Downlands Park","lon":31.14111,"lat":-17.79806,"pop":0},{"id":892075,"name":"Duchess Hill","lon":30.21667,"lat":-18.3,"pop":0},{"id":7464931,"name":"Dulini","lon":27.66268,"lat":-19.01513,"pop":0},{"id":1085477,"name":"Dungarven","lon":31.09306,"lat":-17.75639,"pop":0},{"id":8304251,"name":"Dungu","lon":31.59012,"lat":-19.89515,"pop":0},{"id":892000,"name":"Dunkirk","lon":28.41438,"lat":-20.18153,"pop":0},{"id":1085511,"name":"Dunowen","lon":31.11667,"lat":-17.89139,"pop":0},{"id":7453416,"name":"Duvaduve","lon":31.90525,"lat":-19.28333,"pop":0},{"id":7507235,"name":"Dzambi","lon":31.62777,"lat":-19.86497,"pop":0},{"id":7453461,"name":"Dzapasi","lon":31.86109,"lat":-19.43263,"pop":0},{"id":7351884,"name":"Dzetiye","lon":31.52414,"lat":-16.96035,"pop":0},{"id":7522747,"name":"Dzimidza","lon":27.13093,"lat":-19.43374,"pop":0},{"id":7507272,"name":"Dzingirai","lon":31.6427,"lat":-19.9428,"pop":0},{"id":7507449,"name":"Dzinokuvara","lon":31.96338,"lat":-19.88673,"pop":0},{"id":7453861,"name":"Dzivakwi","lon":31.71385,"lat":-19.59988,"pop":0},{"id":7453890,"name":"Dzivakwi","lon":31.78374,"lat":-19.60862,"pop":0},{"id":7507109,"name":"Dzivakwi","lon":31.53549,"lat":-19.63482,"pop":0},{"id":10942275,"name":"Dzivarasekwa","lon":30.95537,"lat":-17.82276,"pop":0},{"id":1085467,"name":"Dzivareskwa","lon":30.92667,"lat":-17.80528,"pop":0},{"id":7465012,"name":"Dzokotze","lon":27.23695,"lat":-19.71253,"pop":0},{"id":891922,"name":"Dzorora","lon":32.73333,"lat":-20.31667,"pop":0},{"id":1106017,"name":"East Queens Park","lon":28.61528,"lat":-20.11639,"pop":0},{"id":891889,"name":"Eastlea","alt":["Eastlea North"],"lon":31.07361,"lat":-17.82444,"pop":0},{"id":891888,"name":"Eastlea South","lon":31.07556,"lat":-17.83,"pop":0},{"id":891884,"name":"Eastnor","lon":28.56378,"lat":-19.48814,"pop":0},{"id":891878,"name":"Ebabeni","lon":27.13216,"lat":-19.56166,"pop":0},{"id":891873,"name":"Ebizeni","alt":["Bizene"],"lon":27.68502,"lat":-19.81452,"pop":0},{"id":891849,"name":"Egagwini","alt":["Gagwini"],"lon":27.05404,"lat":-19.37083,"pop":0},{"id":7464963,"name":"Egeekeni","lon":27.64581,"lat":-19.24523,"pop":0},{"id":891845,"name":"Egomeni","alt":["Emgomeni"],"lon":27.04172,"lat":-19.60698,"pop":0},{"id":891844,"name":"Ehampeni","alt":["Hampeni"],"lon":27.7179,"lat":-19.83856,"pop":0},{"id":891842,"name":"Eiffel Flats","lon":29.99344,"lat":-18.28864,"pop":0},{"id":7464972,"name":"Ekoneni","lon":27.48569,"lat":-19.28802,"pop":0},{"id":891825,"name":"Elangeni","lon":27.03821,"lat":-19.46803,"pop":0},{"id":7464995,"name":"Elangeni School","lon":27.03552,"lat":-19.47467,"pop":0},{"id":891816,"name":"Eldorado","lon":30.23333,"lat":-17.35,"pop":0},{"id":1106127,"name":"Eloana","lon":28.57861,"lat":-20.22,"pop":0},{"id":7465043,"name":"Elulwane","lon":27.62878,"lat":-19.87526,"pop":0},{"id":7464955,"name":"Emabandeni","lon":27.68352,"lat":-19.15128,"pop":0},{"id":891784,"name":"Emafengwini","alt":["Emangweni","Mangweni"],"lon":27.1294,"lat":-19.39647,"pop":0},{"id":1106073,"name":"Emakhandeni","lon":28.52778,"lat":-20.11389,"pop":0},{"id":7465045,"name":"Emambanjeni","lon":27.72942,"lat":-19.80647,"pop":0},{"id":891786,"name":"Emanaleni","alt":["Manala"],"lon":27.02102,"lat":-19.37053,"pop":0},{"id":7464937,"name":"Emapanini","lon":27.66174,"lat":-19.10716,"pop":0},{"id":891783,"name":"Ematetshaneni","alt":["Emateshaneni"],"lon":27.06602,"lat":-19.39363,"pop":0},{"id":891775,"name":"Emerald Hill","lon":31.03111,"lat":-17.775,"pop":0},{"id":891771,"name":"Emgolweni","alt":["Emqolweni"],"lon":27.5894,"lat":-19.23996,"pop":0},{"id":7464939,"name":"Emhlabeni","lon":27.44122,"lat":-19.50961,"pop":0},{"id":891770,"name":"Emkayeni","alt":["Mkayeni"],"lon":27.57193,"lat":-19.65939,"pop":0},{"id":7465053,"name":"Emloteni","lon":27.7261,"lat":-19.88261,"pop":0},{"id":891766,"name":"Empafeni","alt":["Mpafani"],"lon":27.59607,"lat":-19.709,"pop":0},{"id":891762,"name":"Empisini","lon":27.14152,"lat":-19.52436,"pop":0},{"id":891758,"name":"Empress Mine","alt":["Empress Mine Township"],"lon":29.44266,"lat":-18.4577,"pop":0},{"id":891755,"name":"Emvana","alt":["Emyana"],"lon":27.53931,"lat":-19.20256,"pop":0},{"id":891743,"name":"Enhlangano","alt":["Hlangano"],"lon":27.87772,"lat":-19.84337,"pop":0},{"id":7465027,"name":"Enkalange","lon":27.44817,"lat":-19.72644,"pop":0},{"id":1106078,"name":"Enqameni","lon":28.51111,"lat":-20.12028,"pop":0},{"id":1106076,"name":"Enqotsheni","lon":28.5175,"lat":-20.10417,"pop":0},{"id":891735,"name":"Ensedhlwini","alt":["Sedhlwini"],"lon":27.47668,"lat":-19.70221,"pop":0},{"id":1106095,"name":"Entumbane","lon":28.54389,"lat":-20.12528,"pop":0},{"id":1085510,"name":"Epworth","lon":31.1475,"lat":-17.89,"pop":123250},{"id":891701,"name":"Esibomvu","alt":["Esimbomvu"],"lon":28.8917,"lat":-20.39706,"pop":0},{"id":891699,"name":"Esigodini","alt":["Essexvale"],"lon":28.92261,"lat":-20.28979,"pop":2228},{"id":891697,"name":"Esinangeni","alt":["Esinganeni","Sinangeti"],"lon":27.40215,"lat":-19.42742,"pop":0},{"id":891617,"name":"Ezanquweni","alt":["Ezanguweni","Zamqaweni"],"lon":27.02989,"lat":-19.40373,"pop":0},{"id":1106047,"name":"Fagadola","lon":28.61167,"lat":-20.09861,"pop":0},{"id":1106160,"name":"Fairland","lon":28.7025,"lat":-20.22444,"pop":0},{"id":1105989,"name":"Fairstar","lon":28.70611,"lat":-20.10056,"pop":0},{"id":1106134,"name":"Famona","lon":28.58611,"lat":-20.18444,"pop":0},{"id":891550,"name":"Featherstone","lon":30.83339,"lat":-18.71053,"pop":0},{"id":891541,"name":"Felixburg","lon":30.78333,"lat":-19.48333,"pop":0},{"id":891542,"name":"Felixburg","lon":30.84175,"lat":-19.43008,"pop":0},{"id":891519,"name":"Figtree","lon":28.32567,"lat":-20.36858,"pop":0},{"id":891515,"name":"Filabusi","alt":["Emfelabuso"],"lon":29.28502,"lat":-20.53333,"pop":1756},{"id":891511,"name":"Filimons","alt":["Filimons Village"],"lon":27.42465,"lat":-18.88718,"pop":0},{"id":891491,"name":"Fishan","lon":32.03333,"lat":-21.43333,"pop":0},{"id":891463,"name":"Folosi","lon":27.16563,"lat":-19.59103,"pop":0},{"id":891462,"name":"Fombe","lon":32.98333,"lat":-17.33333,"pop":0},{"id":891448,"name":"Forestvale","lon":28.52861,"lat":-20.12167,"pop":0},{"id":7325145,"name":"Foromela","lon":30.13591,"lat":-21.83821,"pop":0},{"id":891435,"name":"Fort Rixon","lon":29.26282,"lat":-20.01101,"pop":0},{"id":891432,"name":"Fort Usher","lon":28.58992,"lat":-20.41373,"pop":0},{"id":1106143,"name":"Fortunes Gate","lon":28.63194,"lat":-20.19944,"pop":0},{"id":1106128,"name":"Four Winds","lon":28.58361,"lat":-20.22222,"pop":0},{"id":891399,"name":"Fred Mine","lon":29.31161,"lat":-20.50752,"pop":0},{"id":1106162,"name":"Fresnaye","lon":28.74611,"lat":-20.23722,"pop":0},{"id":891373,"name":"Fumabatshena","alt":["Fumbatshena"],"lon":27.55237,"lat":-19.20321,"pop":0},{"id":891368,"name":"Funda","lon":27.59681,"lat":-19.17274,"pop":0},{"id":7507281,"name":"Fundikai","lon":31.67224,"lat":-19.96011,"pop":0},{"id":7453496,"name":"Fuve","lon":31.5177,"lat":-19.3953,"pop":0},{"id":7370766,"name":"Gachegache","lon":28.9537,"lat":-16.70666,"pop":0},{"id":891335,"name":"Gadzema","lon":30.15974,"lat":-18.04223,"pop":0},{"id":7507240,"name":"Gahadzikwa","lon":31.65223,"lat":-19.87879,"pop":0},{"id":7341940,"name":"Gahani","lon":31.57485,"lat":-17.50466,"pop":0},{"id":7507456,"name":"Gambakwa","lon":31.96783,"lat":-19.9582,"pop":0},{"id":891300,"name":"Gambisa","alt":["Gambiza"],"lon":29.6,"lat":-18.13333,"pop":0},{"id":891291,"name":"Gampagalale","lon":28.42332,"lat":-18.81355,"pop":0},{"id":7405297,"name":"Gan’a","lon":30.61838,"lat":-18.1551,"pop":0},{"id":7453853,"name":"Ganda","lon":31.70274,"lat":-19.55032,"pop":0},{"id":7507376,"name":"Ganda","lon":31.81122,"lat":-19.90071,"pop":0},{"id":7417746,"name":"Gandanzara","lon":32.44112,"lat":-18.66073,"pop":0},{"id":7453077,"name":"Ganga","lon":31.65445,"lat":-19.21154,"pop":0},{"id":7464940,"name":"Ganga","lon":27.32156,"lat":-19.50395,"pop":0},{"id":7454326,"name":"Ganyiwa","lon":31.87793,"lat":-19.74997,"pop":0},{"id":7522743,"name":"Garigari","lon":27.53905,"lat":-19.46961,"pop":0},{"id":7465034,"name":"Gariya","lon":27.20531,"lat":-19.76215,"pop":0},{"id":11281901,"name":"Garwe","lon":29.49829,"lat":-17.37161,"pop":0},{"id":7371063,"name":"Gasura","lon":29.46,"lat":-16.92293,"pop":0},{"id":891220,"name":"Gaths Mine","lon":30.50632,"lat":-20.0127,"pop":0},{"id":7370431,"name":"Gatora","lon":29.69167,"lat":-16.39872,"pop":0},{"id":7453852,"name":"Gava","lon":31.70178,"lat":-19.54365,"pop":0},{"id":7405709,"name":"Gave","lon":31.42298,"lat":-18.87711,"pop":0},{"id":7370756,"name":"Gawa","lon":29.34645,"lat":-16.71231,"pop":0},{"id":7507217,"name":"Gawa","lon":31.56265,"lat":-19.91341,"pop":0},{"id":7374528,"name":"Gaza","lon":27.23587,"lat":-17.88802,"pop":0},{"id":7443459,"name":"Gaza","lon":31.74014,"lat":-19.03603,"pop":0},{"id":891173,"name":"Gempo","lon":27.66667,"lat":-20.1,"pop":0},{"id":891170,"name":"Georgia","lon":29.91667,"lat":-18.2,"pop":0},{"id":7465060,"name":"Getshenge","lon":27.75865,"lat":-19.96453,"pop":0},{"id":1106406,"name":"Gevstein Park","lon":30.9425,"lat":-17.81556,"pop":0},{"id":7465025,"name":"Gewalangamate","lon":27.51013,"lat":-19.7758,"pop":0},{"id":891152,"name":"Gibixegu","lon":26.96667,"lat":-19.4,"pop":0},{"id":891071,"name":"Glen Lorne","lon":31.16611,"lat":-17.74194,"pop":0},{"id":891062,"name":"Glen Norah","lon":30.97278,"lat":-17.90833,"pop":0},{"id":11398142,"name":"Glen View","lon":30.9121,"lat":-17.91077,"pop":0},{"id":1085462,"name":"Glenavon Est","lon":31.09167,"lat":-17.74917,"pop":0},{"id":891101,"name":"GlenClova","alt":["Glencova"],"lon":31.426,"lat":-19.97076,"pop":0},{"id":1106028,"name":"Glencoe","lon":28.6525,"lat":-20.16389,"pop":0},{"id":891099,"name":"Glendale","lon":31.06718,"lat":-17.35514,"pop":9768},{"id":1085493,"name":"Gleneagles","lon":30.90528,"lat":-17.86583,"pop":0},{"id":891087,"name":"Glenearn","lon":29.85,"lat":-18.11667,"pop":0},{"id":1106015,"name":"Glengarry","lon":28.63111,"lat":-20.12833,"pop":0},{"id":891073,"name":"Glenlivet","lon":31.08333,"lat":-20.16667,"pop":0},{"id":891044,"name":"Glenview","lon":30.94806,"lat":-17.90778,"pop":0},{"id":891041,"name":"Glenville","lon":28.55889,"lat":-20.09889,"pop":0},{"id":1106420,"name":"Glenwood","lon":31.15806,"lat":-17.75167,"pop":0},{"id":891038,"name":"Gletwyn A","alt":["Gletwyn"],"lon":31.16139,"lat":-17.76667,"pop":0},{"id":7522752,"name":"Godzo","lon":27.84407,"lat":-19.8392,"pop":0},{"id":7507117,"name":"Gogode","lon":31.55598,"lat":-19.67755,"pop":0},{"id":890983,"name":"Gokwe","lon":28.9349,"lat":-18.20476,"pop":18942},{"id":11258892,"name":"Golden Valley","lon":29.8,"lat":-18.21667,"pop":0},{"id":8304076,"name":"Gomba","lon":31.64397,"lat":-19.59845,"pop":0},{"id":7416242,"name":"Gomo","lon":31.73688,"lat":-18.32981,"pop":0},{"id":7453076,"name":"Gona","lon":31.66747,"lat":-19.20582,"pop":0},{"id":7405749,"name":"Gondo","lon":31.0499,"lat":-18.89041,"pop":0},{"id":7507461,"name":"Gondowe","lon":31.81598,"lat":-19.99442,"pop":0},{"id":7507379,"name":"Gonye","lon":31.7758,"lat":-19.92596,"pop":0},{"id":1085457,"name":"Good Hope","lon":30.95528,"lat":-17.73556,"pop":0},{"id":7416464,"name":"Gore","lon":31.65624,"lat":-18.28791,"pop":0},{"id":7507313,"name":"Gore","lon":31.74911,"lat":-19.84019,"pop":0},{"id":890855,"name":"Gorodema","alt":["Goredema District Chief Camp"],"lon":28.9,"lat":-17.85,"pop":0},{"id":890849,"name":"Goromonzi","lon":31.37933,"lat":-17.85472,"pop":0},{"id":7507074,"name":"Gotora","lon":31.56932,"lat":-19.71313,"pop":0},{"id":7454552,"name":"Gotore","lon":31.70131,"lat":-19.61862,"pop":0},{"id":7464949,"name":"Gotshane","lon":27.86474,"lat":-19.95029,"pop":0},{"id":7507030,"name":"Govo","lon":31.6832,"lat":-19.68231,"pop":0},{"id":1106129,"name":"Granite Park","lon":28.58917,"lat":-20.21861,"pop":0},{"id":890783,"name":"Graniteside","lon":31.05139,"lat":-17.85083,"pop":0},{"id":1085479,"name":"Green Grove","lon":31.13667,"lat":-17.83139,"pop":0},{"id":890751,"name":"Greencroft","lon":31.00639,"lat":-17.775,"pop":0},{"id":890748,"name":"Greendale","lon":31.12722,"lat":-17.81417,"pop":0},{"id":1106133,"name":"Greenhill","lon":28.58167,"lat":-20.19444,"pop":0},{"id":1106063,"name":"Greenspan","lon":28.57861,"lat":-20.12778,"pop":0},{"id":890721,"name":"Greystone","lon":29.49207,"lat":-20.118,"pop":0},{"id":890722,"name":"Greystone Park","alt":["Greystone","Greystone A"],"lon":31.12083,"lat":-17.7475,"pop":0},{"id":890717,"name":"Grobbie Park","lon":30.98972,"lat":-17.92111,"pop":0},{"id":890709,"name":"Groombridge","lon":31.05361,"lat":-17.76833,"pop":0},{"id":7507324,"name":"Guchu","lon":31.75658,"lat":-19.89435,"pop":0},{"id":7453071,"name":"Gudo","lon":31.59028,"lat":-19.20931,"pop":0},{"id":7453422,"name":"Gudo","lon":31.90397,"lat":-19.39435,"pop":0},{"id":7453472,"name":"Gudo","lon":31.75594,"lat":-19.40055,"pop":0},{"id":7453751,"name":"Gudo","lon":31.54867,"lat":-19.49378,"pop":0},{"id":8304080,"name":"Gudo","lon":31.8082,"lat":-19.61656,"pop":0},{"id":12047507,"name":"Gudyanga","alt":["Guryanga"],"lon":32.40533,"lat":-19.86033,"pop":0},{"id":8304079,"name":"Gudza","lon":31.71566,"lat":-19.57601,"pop":0},{"id":890669,"name":"Guinea Fowl","lon":29.93333,"lat":-19.53333,"pop":0},{"id":7405287,"name":"Gukwe","lon":30.71082,"lat":-18.14525,"pop":0},{"id":890662,"name":"Gulalikabili","alt":["Gulakabili","Gulakibili"],"lon":27.06303,"lat":-19.70162,"pop":0},{"id":7351877,"name":"Gumbo","lon":31.56034,"lat":-16.98405,"pop":0},{"id":8304229,"name":"Gumindoga","lon":31.57694,"lat":-19.71996,"pop":0},{"id":7371195,"name":"Gumiremhete","lon":29.37959,"lat":-16.95409,"pop":0},{"id":890619,"name":"Gun Hill","lon":31.06917,"lat":-17.79639,"pop":0},{"id":7443207,"name":"Gunguwu","lon":31.60053,"lat":-19.05239,"pop":0},{"id":7507388,"name":"Guni","lon":31.76484,"lat":-19.97647,"pop":0},{"id":878519,"name":"Guruve","alt":["Chiporiro","Chipuriro","Guruwe","Sipolilo"],"lon":30.70301,"lat":-16.65753,"pop":0},{"id":7465058,"name":"Guswini","lon":27.80503,"lat":-19.97905,"pop":0},{"id":890590,"name":"Gutu","lon":31.15175,"lat":-19.64447,"pop":0},{"id":7443204,"name":"Guveya","lon":31.62261,"lat":-19.04699,"pop":0},{"id":1106529,"name":"Guwa","lon":31.40958,"lat":-17.59223,"pop":0},{"id":7507028,"name":"Guzha","lon":31.79454,"lat":-19.65102,"pop":0},{"id":890551,"name":"Gwaai","alt":["Gwai"],"lon":27.65,"lat":-19.28333,"pop":0},{"id":1105904,"name":"Gwabalanda","lon":28.49889,"lat":-20.10833,"pop":0},{"id":7453072,"name":"Gwakava","lon":31.6562,"lat":-19.19041,"pop":0},{"id":7507106,"name":"Gwamure","lon":31.56455,"lat":-19.62513,"pop":0},{"id":890516,"name":"Gwanda","alt":["Gvanda","Jawunda","guan da","Гванда","گوانڈا","關達"],"lon":29.00698,"lat":-20.93622,"pop":26700},{"id":7464979,"name":"Gwande I","lon":27.11831,"lat":-19.33675,"pop":0},{"id":7464980,"name":"Gwande II","lon":27.08915,"lat":-19.33906,"pop":0},{"id":890506,"name":"Gwangwari","lon":31.08333,"lat":-17.68333,"pop":0},{"id":7506507,"name":"Gwatemba","lon":29.67381,"lat":-20.40075,"pop":0},{"id":7418017,"name":"Gwavava","lon":31.52314,"lat":-18.86159,"pop":0},{"id":7507260,"name":"Gwaza","lon":31.6365,"lat":-19.92247,"pop":0},{"id":890462,"name":"Gwelutshena","lon":28.72447,"lat":-18.65716,"pop":0},{"id":7507390,"name":"Gwema","lon":31.81709,"lat":-19.9536,"pop":0},{"id":890456,"name":"Gwembgwa","alt":["Gwemga"],"lon":27.40813,"lat":-19.24957,"pop":0},{"id":7453525,"name":"Gweme","lon":31.50563,"lat":-19.46201,"pop":0},{"id":7453104,"name":"Gwemende","lon":31.83488,"lat":-19.29048,"pop":0},{"id":890422,"name":"Gweru","alt":["GWE","Gveru","Gwelo","Гверу"],"lon":29.81667,"lat":-19.45,"pop":158200},{"id":890416,"name":"Gwese","alt":["Gwesi"],"lon":27.70774,"lat":-19.93489,"pop":0},{"id":7507253,"name":"Gwiznimbi","lon":31.61045,"lat":-19.89801,"pop":0},{"id":890380,"name":"Gxobonolo","alt":["Xoboholo"],"lon":27.25166,"lat":-19.44237,"pop":0},{"id":7453464,"name":"Hadzizi","lon":31.81408,"lat":-19.40055,"pop":0},{"id":890370,"name":"Haig Park","lon":30.99278,"lat":-17.79778,"pop":0},{"id":890367,"name":"Halale","lon":28.41667,"lat":-20.68333,"pop":0},{"id":7465030,"name":"Halangamate","lon":27.48532,"lat":-19.76701,"pop":0},{"id":890342,"name":"Hamilton","lon":31.1,"lat":-17.36667,"pop":0},{"id":7443240,"name":"Handikori","lon":31.61482,"lat":-19.15213,"pop":0},{"id":890321,"name":"Handsworth","lon":30.86667,"lat":-17.03333,"pop":0},{"id":7465000,"name":"Hangamwe","lon":27.38648,"lat":-19.55477,"pop":0},{"id":890318,"name":"Hangapu","lon":27.53184,"lat":-19.50477,"pop":0},{"id":7507071,"name":"Hapanyengwi","lon":31.62888,"lat":-19.72472,"pop":0},{"id":890299,"name":"Harare","alt":["Arare","Charare","HRE","Hararensis Urbs","Harareo","Hararė","Kharare","Kharareh","Salisbury","ha la lei","halale","harare","harary","hrarh","hrary","Χαράρε","Хараре","Харарэ","Հարարե","הארארה","هارارى","هراره","هراري","ھارارې","ھەرارێ","ہرارے","हरारे","ਹਰਾਰੇ","ହାରାରେ","ஹராரே","ฮาราเร","ཧ་ར་རི།","ჰარარე","ሀራሬ","ハラレ","哈拉雷","하라레"],"lon":31.05337,"lat":-17.82772,"pop":1542813},{"id":1105958,"name":"Harrisville","alt":["Harrisvale"],"lon":28.58222,"lat":-20.09056,"pop":0},{"id":1085501,"name":"Hartlands","lon":30.9775,"lat":-17.94417,"pop":0},{"id":1106417,"name":"Hatcliffe","lon":31.10972,"lat":-17.68833,"pop":0},{"id":890259,"name":"Hatfield","lon":31.09207,"lat":-17.87571,"pop":0},{"id":7453470,"name":"Hatinahama","lon":31.79247,"lat":-19.36322,"pop":0},{"id":7507458,"name":"Havadi","lon":31.89349,"lat":-19.99346,"pop":0},{"id":1085466,"name":"Haydon","lon":30.93667,"lat":-17.75361,"pop":0},{"id":890242,"name":"Headlands","lon":32.0515,"lat":-18.27733,"pop":1728},{"id":890223,"name":"Helensvale","lon":31.145,"lat":-17.72917,"pop":0},{"id":890200,"name":"Hewu","lon":27.65241,"lat":-19.80117,"pop":0},{"id":890189,"name":"Highfield","alt":["Highfield Native Village"],"lon":30.9927,"lat":-17.88547,"pop":0},{"id":890176,"name":"Highlands","alt":["Highlands Estate"],"lon":31.10851,"lat":-17.79475,"pop":0},{"id":1106070,"name":"Highmount","lon":28.57806,"lat":-20.10194,"pop":0},{"id":1106135,"name":"Hillcrest","lon":28.59389,"lat":-20.18778,"pop":0},{"id":890152,"name":"Hillside","lon":31.08167,"lat":-17.8375,"pop":0},{"id":1106137,"name":"Hillside","lon":28.6,"lat":-20.19917,"pop":0},{"id":1106144,"name":"Hillside East","lon":28.62056,"lat":-20.19,"pop":0},{"id":1106130,"name":"Hillside South","lon":28.59528,"lat":-20.21472,"pop":0},{"id":1106131,"name":"Hillside West","lon":28.58194,"lat":-20.20639,"pop":0},{"id":11205031,"name":"Hillview","lon":30.96507,"lat":-17.85569,"pop":0},{"id":890140,"name":"Hingwe","alt":["Shingwe"],"lon":27.3,"lat":-20.15,"pop":0},{"id":890133,"name":"Hippo Valley","lon":31.55,"lat":-21.16667,"pop":0},{"id":7405247,"name":"Hiya","lon":30.76335,"lat":-18.05907,"pop":0},{"id":890127,"name":"Hlananisas","lon":27.4,"lat":-19.83333,"pop":0},{"id":7453489,"name":"Hodero","lon":31.8325,"lat":-19.44073,"pop":0},{"id":7371174,"name":"Hodzi","lon":29.33231,"lat":-16.94892,"pop":0},{"id":890113,"name":"Hogerty Hill","lon":31.13417,"lat":-17.69778,"pop":0},{"id":7507304,"name":"Hokoyo","lon":31.68955,"lat":-19.87561,"pop":0},{"id":1085459,"name":"Homefield","lon":30.91528,"lat":-17.74972,"pop":0},{"id":7370746,"name":"Hondo","lon":29.43041,"lat":-16.78051,"pop":0},{"id":7371130,"name":"Hondoma","lon":29.41706,"lat":-16.93713,"pop":0},{"id":890047,"name":"Hopley","lon":30.98972,"lat":-17.93139,"pop":0},{"id":7507452,"name":"Hore","lon":31.98704,"lat":-19.90833,"pop":0},{"id":890028,"name":"Hot Springs","lon":32.46667,"lat":-19.65,"pop":0},{"id":1085504,"name":"Houghton Park","lon":31.01667,"lat":-17.88361,"pop":0},{"id":890018,"name":"Howard Institute","lon":31,"lat":-17.23333,"pop":0},{"id":890000,"name":"Hoyuyu","lon":32.04481,"lat":-17.59105,"pop":0},{"id":7386638,"name":"Hoyuyu Township","lon":32.02111,"lat":-17.61267,"pop":0},{"id":7507113,"name":"Hudson","lon":31.50912,"lat":-19.68072,"pop":0},{"id":7453463,"name":"Hukuimwe","lon":31.82567,"lat":-19.38625,"pop":0},{"id":1106108,"name":"Hume Park","lon":28.59528,"lat":-20.14944,"pop":0},{"id":1105957,"name":"Hundred Acre Lots","lon":28.58611,"lat":-20.09333,"pop":0},{"id":889968,"name":"Hunters Road","lon":29.8,"lat":-19.15,"pop":0},{"id":889965,"name":"Hunts Road Halt","lon":28.76667,"lat":-19.76667,"pop":0},{"id":889944,"name":"Hwali","lon":29.2,"lat":-21.7,"pop":0},{"id":889942,"name":"Hwange","alt":["Hvange","Hvangė","Khvange","WKI","Wange","Wankie","hwang-ge","wan ji","Хванге","萬基","황게"],"lon":26.49877,"lat":-18.36446,"pop":21300},{"id":7453781,"name":"Hwingwiri","lon":31.50833,"lat":-19.55541,"pop":0},{"id":1105901,"name":"Hyde Park","lon":28.42944,"lat":-20.07778,"pop":0},{"id":1105903,"name":"Hyde Park","lon":28.475,"lat":-20.10333,"pop":0},{"id":1106087,"name":"Hyde Park","lon":28.50806,"lat":-20.16056,"pop":0},{"id":1105902,"name":"Hyde Park Estate","lon":28.49762,"lat":-20.11593,"pop":0},{"id":1106038,"name":"Ilanda","lon":28.60972,"lat":-20.17944,"pop":0},{"id":889900,"name":"Ilunkubo","alt":["Iiunkub"],"lon":27.65,"lat":-20.11667,"pop":0},{"id":1106084,"name":"Iminyela","lon":28.52944,"lat":-20.14917,"pop":0},{"id":889883,"name":"Impampa","alt":["Impampas"],"lon":27.71667,"lat":-17.61667,"pop":0},{"id":1085512,"name":"Induna","lon":30.99722,"lat":-17.92167,"pop":0},{"id":889838,"name":"Ingwe","lon":27.07453,"lat":-19.47349,"pop":0},{"id":1085502,"name":"Inkubusi","lon":30.97444,"lat":-17.93361,"pop":0},{"id":889807,"name":"Inoro","lon":31.51667,"lat":-18.46667,"pop":0},{"id":889795,"name":"Insiza","lon":29.2,"lat":-19.78333,"pop":2645},{"id":1106148,"name":"Intini","lon":28.61833,"lat":-20.22861,"pop":0},{"id":889723,"name":"Inyati","lon":28.84687,"lat":-19.67563,"pop":8402},{"id":889683,"name":"Irene","lon":32.58333,"lat":-18.93333,"pop":0},{"id":7507309,"name":"Itayi","lon":31.74387,"lat":-19.84464,"pop":0},{"id":889648,"name":"Ivorie","lon":32.6,"lat":-20.36667,"pop":0},{"id":1106001,"name":"Jacaranda","lon":28.63833,"lat":-20.1,"pop":0},{"id":889634,"name":"Jakalazi","alt":["Jakalasi"],"lon":27.55473,"lat":-19.25233,"pop":0},{"id":889623,"name":"James","lon":27.3,"lat":-17.9,"pop":0},{"id":7370423,"name":"James","lon":29.72572,"lat":-16.37345,"pop":0},{"id":7507268,"name":"Jani","lon":31.60871,"lat":-19.95201,"pop":0},{"id":889620,"name":"Janiza","alt":["Janisa"],"lon":27.44603,"lat":-19.28398,"pop":0},{"id":7507401,"name":"Janje","lon":31.85791,"lat":-19.94296,"pop":0},{"id":7506997,"name":"Javangwe","lon":31.7939,"lat":-19.68819,"pop":0},{"id":7507326,"name":"Jecha","lon":31.67176,"lat":-19.91595,"pop":0},{"id":7371134,"name":"Jera","lon":29.33538,"lat":-16.93039,"pop":0},{"id":7507048,"name":"Jerera","lon":31.66986,"lat":-19.7387,"pop":0},{"id":7507087,"name":"Jereswa","lon":31.64984,"lat":-19.6345,"pop":0},{"id":889556,"name":"Jimila","lon":27.74059,"lat":-19.48973,"pop":0},{"id":889545,"name":"Jirira","lon":31.1,"lat":-18.26667,"pop":0},{"id":889544,"name":"Jissi","lon":27.96667,"lat":-19.1,"pop":0},{"id":7370422,"name":"Johannes","lon":29.75771,"lat":-16.38043,"pop":0},{"id":889532,"name":"Jojos","alt":["Jojo","Jojos Village"],"lon":27.42834,"lat":-18.9572,"pop":0},{"id":889632,"name":"Jolume","alt":["Jalume"],"lon":27.38459,"lat":-19.76927,"pop":0},{"id":889511,"name":"Jowa","lon":27.58649,"lat":-19.58856,"pop":0},{"id":889500,"name":"Juliasdale","lon":32.66084,"lat":-18.35817,"pop":0},{"id":889497,"name":"Jumbo","alt":["Mazoe"],"lon":30.91667,"lat":-17.46667,"pop":0},{"id":889492,"name":"Junction Gate","lon":32.79705,"lat":-20.15885,"pop":0},{"id":1106461,"name":"Juru","lon":31.47685,"lat":-17.68065,"pop":0},{"id":7374513,"name":"Kabulawo","lon":27.23755,"lat":-17.72267,"pop":0},{"id":7371165,"name":"Kachamaenza","lon":29.26868,"lat":-16.95421,"pop":0},{"id":7351879,"name":"Kachambwa","lon":31.54074,"lat":-16.97359,"pop":0},{"id":7453075,"name":"Kachembere","lon":31.63078,"lat":-19.20328,"pop":0},{"id":7370633,"name":"Kachidza","lon":29.87379,"lat":-16.55341,"pop":0},{"id":889455,"name":"Kadelas","alt":["Kadelas Village"],"lon":27.44628,"lat":-18.86639,"pop":0},{"id":7453749,"name":"Kadivirire","lon":31.52612,"lat":-19.48758,"pop":0},{"id":889453,"name":"Kadoma","alt":["Gatooma","Kadome","Katoma","ka duo ma","kadoma","Кадома","Кадоме","کادوما، زمبابوے","カドマ","卡多馬","카도마"],"lon":29.91534,"lat":-18.33328,"pop":116300},{"id":7370625,"name":"Kadunga","lon":29.8175,"lat":-16.53657,"pop":0},{"id":7405257,"name":"Kahiya","lon":31.16174,"lat":-18.0755,"pop":0},{"id":7370793,"name":"Kajamatimba","lon":29.34693,"lat":-16.83969,"pop":0},{"id":7370442,"name":"Kakoma","lon":29.64597,"lat":-16.38284,"pop":0},{"id":889416,"name":"Kalane","lon":27.33821,"lat":-19.66979,"pop":0},{"id":889409,"name":"Kalugus","alt":["Kalugus Village"],"lon":27.46486,"lat":-18.90116,"pop":0},{"id":889390,"name":"Kamativi Mine","alt":["Kamativi","Kamitivi"],"lon":27.05729,"lat":-18.31563,"pop":1575},{"id":1106423,"name":"Kambanji","lon":31.13111,"lat":-17.76222,"pop":0},{"id":1085494,"name":"Kambuzuma","lon":30.96722,"lat":-17.85444,"pop":0},{"id":1105900,"name":"Kame","lon":28.40667,"lat":-20.07583,"pop":0},{"id":7370760,"name":"Kamhali","lon":29.20715,"lat":-16.73324,"pop":0},{"id":7371184,"name":"Kamutsamombe","lon":29.36166,"lat":-16.98091,"pop":0},{"id":889332,"name":"Kandana","lon":27.76667,"lat":-20.21667,"pop":0},{"id":7371199,"name":"Kandororo","lon":29.47822,"lat":-16.94783,"pop":0},{"id":7371073,"name":"Kangausaru","lon":29.46385,"lat":-16.867,"pop":0},{"id":7507296,"name":"Kanjera","lon":31.72116,"lat":-19.80731,"pop":0},{"id":889279,"name":"Kanyemba","lon":30.31667,"lat":-15.7,"pop":0},{"id":7370696,"name":"Kanyoka","lon":29.88426,"lat":-16.63689,"pop":0},{"id":889270,"name":"Kanyonga Camp","alt":["Kenyungu"],"lon":29.2,"lat":-17.13333,"pop":0},{"id":7371170,"name":"Kanyurira","lon":29.27361,"lat":-16.93484,"pop":0},{"id":7371144,"name":"Kapambara","lon":29.26092,"lat":-16.92678,"pop":0},{"id":889256,"name":"Kapane","lon":27.51855,"lat":-19.25113,"pop":0},{"id":7464961,"name":"Kapanyana","lon":27.48057,"lat":-19.24971,"pop":0},{"id":889249,"name":"Kapateni","lon":32.1,"lat":-21.63333,"pop":0},{"id":7371164,"name":"Kapesa","lon":29.30934,"lat":-16.98609,"pop":0},{"id":7371067,"name":"Kapire","lon":29.42644,"lat":-16.89539,"pop":0},{"id":889232,"name":"Kapoka","lon":28.4,"lat":-17.1,"pop":0},{"id":7405484,"name":"Karanda","lon":30.74301,"lat":-18.48286,"pop":0},{"id":889215,"name":"Kariba","alt":["KAB","ka li ba","kaliba","karyba","Кариба","كاريبا","کاریبا، زمبابوے","卡里巴","카리바"],"lon":28.8,"lat":-16.51667,"pop":27600},{"id":7446875,"name":"Karimba","lon":31.7322,"lat":-19.1272,"pop":0},{"id":7351886,"name":"Kariwo","lon":31.5168,"lat":-16.99596,"pop":0},{"id":889207,"name":"Kariyangwe","lon":27.5,"lat":-17.96667,"pop":0},{"id":889191,"name":"Karoi","alt":["Karoyi"],"lon":29.69247,"lat":-16.80993,"pop":34200},{"id":889192,"name":"Karoyi","alt":["Karoi"],"lon":31.58405,"lat":-16.5639,"pop":0},{"id":8300189,"name":"Karuyana","lon":31.53151,"lat":-16.6925,"pop":0},{"id":7405251,"name":"Kaseke","lon":31.05256,"lat":-18.01705,"pop":0},{"id":1106378,"name":"Kashambi","lon":29.87142,"lat":-20.02227,"pop":0},{"id":7371173,"name":"Katemanyoka","lon":29.27999,"lat":-16.9678,"pop":0},{"id":7465023,"name":"Kautsheka","lon":27.57695,"lat":-19.74141,"pop":0},{"id":889072,"name":"Kawahove","lon":30.16667,"lat":-17.41667,"pop":0},{"id":889052,"name":"Kayisa","lon":27.65,"lat":-19.85,"pop":0},{"id":7322253,"name":"Kayisa","lon":28.82056,"lat":-19.99326,"pop":0},{"id":889049,"name":"Kazangarare","lon":29.87211,"lat":-16.52887,"pop":0},{"id":7370626,"name":"Kazangare","lon":29.8211,"lat":-16.54607,"pop":0},{"id":7370562,"name":"Kazunga","lon":29.8614,"lat":-16.52502,"pop":0},{"id":7453752,"name":"Kefas","lon":31.55264,"lat":-19.49473,"pop":0},{"id":1106089,"name":"Kelvin East","lon":28.53889,"lat":-20.1625,"pop":0},{"id":1106086,"name":"Kelvin North","lon":28.52528,"lat":-20.15472,"pop":0},{"id":1106088,"name":"Kelvin West","lon":28.525,"lat":-20.16417,"pop":0},{"id":1106056,"name":"Kenilworth","lon":28.58944,"lat":-20.11944,"pop":0},{"id":889014,"name":"Kenilworth Estates","lon":28.95,"lat":-19.43333,"pop":0},{"id":7523394,"name":"Kenmaur","lon":27.97545,"lat":-19.10376,"pop":0},{"id":1085473,"name":"Kensington","alt":["Кенсингтон"],"lon":31.02972,"lat":-17.80611,"pop":0},{"id":888968,"name":"Keynshamburg","lon":29.61667,"lat":-19.28333,"pop":0},{"id":888965,"name":"Kezi","lon":28.47088,"lat":-20.91131,"pop":0},{"id":1105956,"name":"Kilallo","lon":28.59056,"lat":-20.08333,"pop":0},{"id":1106009,"name":"Killarney","lon":28.65056,"lat":-20.13389,"pop":0},{"id":888908,"name":"Kings Mine","alt":["King Mine"],"lon":30.53381,"lat":-20.0885,"pop":0},{"id":1106048,"name":"Kingsdale","lon":28.61028,"lat":-20.10083,"pop":0},{"id":1085476,"name":"Kingsmead","lon":31.1025,"lat":-17.75694,"pop":0},{"id":7507259,"name":"Kizito","lon":31.58552,"lat":-19.93327,"pop":0},{"id":7319097,"name":"Koodoovale","lon":29.04089,"lat":-20.98518,"pop":0},{"id":1106438,"name":"Kopje","lon":31.04028,"lat":-17.83667,"pop":0},{"id":888818,"name":"Korodziba","lon":26.91667,"lat":-19.38333,"pop":0},{"id":12495316,"name":"Kotwa","lon":32.66736,"lat":-16.99646,"pop":0},{"id":888796,"name":"Kubiku","alt":["Kubiko"],"lon":31.88818,"lat":-19.79461,"pop":0},{"id":7507468,"name":"Kubvoruro","lon":31.73053,"lat":-19.99076,"pop":0},{"id":7417906,"name":"Kudiwa","lon":32.53615,"lat":-18.80358,"pop":0},{"id":888789,"name":"Kudjwara","lon":31.96667,"lat":-16.7,"pop":0},{"id":7453892,"name":"Kugura","lon":31.78231,"lat":-19.61576,"pop":0},{"id":888769,"name":"Kumalo","lon":28.61667,"lat":-20.15,"pop":0},{"id":1106024,"name":"Kumalo North","lon":28.61611,"lat":-20.14333,"pop":0},{"id":7370744,"name":"Kunaka","lon":29.44123,"lat":-16.77378,"pop":0},{"id":8304226,"name":"Kurai","lon":31.82646,"lat":-19.76713,"pop":0},{"id":1106457,"name":"Kutsaga Village","lon":31.14556,"lat":-17.91889,"pop":0},{"id":7453833,"name":"Kuvengwa","lon":31.83266,"lat":-19.48806,"pop":0},{"id":1106405,"name":"Kuwadzana","lon":30.92639,"lat":-17.82528,"pop":0},{"id":1106444,"name":"Kuwadzana 3","lon":30.93111,"lat":-17.81194,"pop":0},{"id":1106445,"name":"Kuwadzana 4","lon":30.88528,"lat":-17.82556,"pop":0},{"id":11428879,"name":"Kuwadzana 5","lon":30.91315,"lat":-17.82733,"pop":0},{"id":7454324,"name":"Kwaipa","lon":31.90334,"lat":-19.72663,"pop":0},{"id":7507023,"name":"Kwangare","lon":31.67669,"lat":-19.64705,"pop":0},{"id":7507257,"name":"Kwangwa I","lon":31.59425,"lat":-19.92866,"pop":0},{"id":7507262,"name":"Kwangwa III","lon":31.58583,"lat":-19.94152,"pop":0},{"id":7416285,"name":"Kwaramba","lon":31.74421,"lat":-18.33603,"pop":0},{"id":7453094,"name":"Kwarire","lon":31.75012,"lat":-19.26527,"pop":0},{"id":888710,"name":"Kwekwe","alt":["Hwe Hwe","Kvekve","Kvekvė","Que Que","kui kui shi","kwekwe","kwykwy","kwyykwyy","Квекве","كويكوى","کوئیکوئی","奎奎市","퀘퀘"],"lon":29.81486,"lat":-18.92809,"pop":119863},{"id":7453429,"name":"Kwenda","lon":31.89413,"lat":-19.41103,"pop":0},{"id":7453807,"name":"Kwengi","lon":31.65667,"lat":-19.58971,"pop":0},{"id":7522750,"name":"Lagisa","lon":27.01602,"lat":-19.81046,"pop":0},{"id":1106142,"name":"Lakeside","lon":28.62,"lat":-20.19889,"pop":0},{"id":888667,"name":"Lalapanzi","alt":["Lalapansi"],"lon":30.17768,"lat":-19.33225,"pop":1390},{"id":888650,"name":"Lancaster","lon":29.29699,"lat":-20.21775,"pop":0},{"id":7370425,"name":"Lazarus","lon":29.75001,"lat":-16.35662,"pop":0},{"id":888587,"name":"Legion","alt":["Legion Mine"],"lon":28.53333,"lat":-21.41667,"pop":0},{"id":1106450,"name":"Letombo Park","lon":31.12028,"lat":-17.83556,"pop":0},{"id":888527,"name":"Lewisam","alt":["Lewisham"],"lon":31.11389,"lat":-17.78806,"pop":0},{"id":1106426,"name":"Lichendale","lon":31.15556,"lat":-17.80333,"pop":0},{"id":888503,"name":"Limbeck","lon":31.05,"lat":-17.28333,"pop":0},{"id":1106408,"name":"Lincoln Green","lon":31.0075,"lat":-17.83,"pop":0},{"id":888461,"name":"Lions Den","lon":30.03333,"lat":-17.26667,"pop":0},{"id":1085485,"name":"Little Norfolk","lon":31.0375,"lat":-17.77167,"pop":0},{"id":7453759,"name":"Livisoni","lon":31.51531,"lat":-19.51697,"pop":0},{"id":1106080,"name":"Lobengula","lon":28.51722,"lat":-20.13611,"pop":0},{"id":888409,"name":"Lobenvale","lon":28.59639,"lat":-20.10028,"pop":0},{"id":888403,"name":"Lochinvar","lon":31.00077,"lat":-17.86656,"pop":0},{"id":1106032,"name":"Lockview","lon":28.66778,"lat":-20.18722,"pop":0},{"id":7370551,"name":"Logan","lon":29.67916,"lat":-16.45393,"pop":0},{"id":1085507,"name":"Logan Park","lon":31.07611,"lat":-17.88417,"pop":0},{"id":7464975,"name":"Lombajana","lon":27.29158,"lat":-19.3496,"pop":0},{"id":888377,"name":"Lonely Mine","alt":["Mazhula"],"lon":28.74699,"lat":-19.50168,"pop":0},{"id":1085509,"name":"Lorelei","lon":31.12889,"lat":-17.84889,"pop":0},{"id":888323,"name":"Lower Gwelo","lon":29.25,"lat":-19.23333,"pop":0},{"id":888303,"name":"Lubesi","lon":27.19328,"lat":-19.62111,"pop":0},{"id":8300588,"name":"Lubimbi","lon":27.30662,"lat":-18.47077,"pop":0},{"id":888280,"name":"Lucu","alt":["Gawa"],"lon":27.73333,"lat":-19.5,"pop":0},{"id":888270,"name":"Luhonja","alt":["Luhotswa"],"lon":27.75185,"lat":-19.51771,"pop":0},{"id":7465002,"name":"Luhonjana","lon":27.70988,"lat":-19.54841,"pop":0},{"id":888269,"name":"Luipaards Vlei","lon":32.65,"lat":-20.31667,"pop":0},{"id":888242,"name":"Luna","lon":31.17472,"lat":-17.70111,"pop":0},{"id":888225,"name":"Lupane","alt":["Lupani"],"lon":27.80696,"lat":-18.93149,"pop":1200},{"id":888220,"name":"Lupindi","alt":["Lupinde"],"lon":27.79159,"lat":-19.74603,"pop":0},{"id":888219,"name":"Lupondo","alt":["Lupando"],"lon":27.23821,"lat":-19.48268,"pop":0},{"id":888204,"name":"Lusulu","alt":["Lusulu Settlement"],"lon":27.83478,"lat":-18.06378,"pop":0},{"id":7465018,"name":"Lutiba","lon":27.72542,"lat":-19.79707,"pop":0},{"id":888198,"name":"Lutombe","lon":30.15,"lat":-22.08333,"pop":0},{"id":888187,"name":"Lutsha","lon":28.6,"lat":-19.03333,"pop":0},{"id":888184,"name":"Luveve","alt":["Luveve Native Village"],"lon":28.5,"lat":-20.1,"pop":0},{"id":7464970,"name":"Luwilili","lon":27.64044,"lat":-19.26626,"pop":0},{"id":888153,"name":"Mabalanas","lon":27.41667,"lat":-19.85,"pop":0},{"id":888149,"name":"Mabaye","lon":28.71667,"lat":-19.08333,"pop":0},{"id":888145,"name":"Mabele","lon":27.42492,"lat":-19.65607,"pop":0},{"id":888144,"name":"Mabelreign","lon":30.99826,"lat":-17.78587,"pop":0},{"id":7453767,"name":"Mabika","lon":31.64571,"lat":-19.47091,"pop":0},{"id":7506992,"name":"Mabika","lon":31.81678,"lat":-19.66176,"pop":0},{"id":7464932,"name":"Mabude","lon":27.65783,"lat":-19.03143,"pop":0},{"id":7507407,"name":"Mabunu","lon":31.87904,"lat":-19.86132,"pop":0},{"id":1106085,"name":"Mabutweni","lon":28.53167,"lat":-20.1425,"pop":0},{"id":7507053,"name":"Mabuvo","lon":31.68781,"lat":-19.77459,"pop":0},{"id":1106381,"name":"Mabuze","lon":29.44167,"lat":-20.92778,"pop":0},{"id":888109,"name":"Mabvuku","lon":31.18655,"lat":-17.83624,"pop":0},{"id":8304064,"name":"Mabvuragudo","lon":31.81821,"lat":-19.32335,"pop":0},{"id":8303938,"name":"Machacha","lon":31.70075,"lat":-19.13641,"pop":0},{"id":888098,"name":"Machachuta","alt":["Masachuta","Mashachuta"],"lon":29.35,"lat":-21.85,"pop":0},{"id":7507038,"name":"Machakadze","lon":31.79359,"lat":-19.74489,"pop":0},{"id":7507307,"name":"Machako","lon":31.72132,"lat":-19.85163,"pop":0},{"id":7507220,"name":"Machawira","lon":31.55963,"lat":-19.90007,"pop":0},{"id":888089,"name":"Macheke","alt":["Mucheki"],"lon":31.84933,"lat":-18.13901,"pop":3642},{"id":888085,"name":"Machendu","lon":31.58333,"lat":-21.46667,"pop":0},{"id":888077,"name":"Machihiri","lon":28.93333,"lat":-17.33333,"pop":0},{"id":7507128,"name":"Machikiche","lon":31.54232,"lat":-19.71932,"pop":0},{"id":7454327,"name":"Machimbiro","lon":31.90461,"lat":-19.75315,"pop":0},{"id":7507007,"name":"Machindu","lon":31.76754,"lat":-19.68263,"pop":0},{"id":7507375,"name":"Machinga","lon":31.8298,"lat":-19.89864,"pop":0},{"id":7453091,"name":"Machinyanga","lon":31.75293,"lat":-19.18819,"pop":0},{"id":888072,"name":"Machiroli","alt":["Machrole"],"lon":30.4,"lat":-17.76667,"pop":0},{"id":7507243,"name":"Machokoto","lon":31.64778,"lat":-19.83749,"pop":0},{"id":7371075,"name":"Machona","lon":29.41585,"lat":-16.89346,"pop":0},{"id":7453789,"name":"Machovo","lon":31.55693,"lat":-19.60607,"pop":0},{"id":888062,"name":"Maclear","lon":31.18333,"lat":-16.51667,"pop":0},{"id":888051,"name":"Madadzi","lon":29.75,"lat":-16.9,"pop":0},{"id":7507400,"name":"Madanyika","lon":31.85474,"lat":-19.9339,"pop":0},{"id":7371182,"name":"Madimba","lon":29.36166,"lat":-16.97057,"pop":0},{"id":888035,"name":"Madioma","lon":32.76667,"lat":-17.81667,"pop":0},{"id":888031,"name":"Madona","lon":27.76805,"lat":-19.74099,"pop":0},{"id":888028,"name":"Madonga","lon":29.36667,"lat":-21.91667,"pop":0},{"id":888025,"name":"Madubus","lon":27.38333,"lat":-19.85,"pop":0},{"id":7507006,"name":"Maduku","lon":31.78739,"lat":-19.71011,"pop":0},{"id":7453108,"name":"Madume","lon":31.77469,"lat":-19.18946,"pop":0},{"id":7453445,"name":"Madume","lon":31.85632,"lat":-19.35083,"pop":0},{"id":7453092,"name":"Madya","lon":31.76039,"lat":-19.16976,"pop":0},{"id":7465003,"name":"Madziba","lon":27.76792,"lat":-19.62366,"pop":0},{"id":7465006,"name":"Madziba","lon":27.74051,"lat":-19.6503,"pop":0},{"id":7453785,"name":"Madzimure","lon":31.5547,"lat":-19.59575,"pop":0},{"id":7443211,"name":"Madzinga","lon":31.55065,"lat":-19.08955,"pop":0},{"id":11398410,"name":"Madzivazvido","lon":28.52388,"lat":-17.63097,"pop":0},{"id":7507332,"name":"Madzivire","lon":31.69924,"lat":-19.97409,"pop":0},{"id":12047178,"name":"Madzivire","lon":31.71349,"lat":-19.31841,"pop":0},{"id":887997,"name":"Madziwa","lon":31.53333,"lat":-16.91667,"pop":527},{"id":887982,"name":"Mafayfa","lon":28.4,"lat":-19.4,"pop":0},{"id":7507279,"name":"Mafinyor","lon":31.64127,"lat":-19.91151,"pop":0},{"id":7507031,"name":"Mafudze","lon":31.67955,"lat":-19.69597,"pop":0},{"id":7507374,"name":"Mafuka","lon":31.82408,"lat":-19.89642,"pop":0},{"id":7506996,"name":"Mafukidze","lon":31.79295,"lat":-19.68168,"pop":0},{"id":7370565,"name":"Mafungautsi","lon":29.87692,"lat":-16.47546,"pop":0},{"id":7453433,"name":"Mafuratidze","lon":31.91351,"lat":-19.45598,"pop":0},{"id":887966,"name":"Mafusini","lon":27.61485,"lat":-19.87833,"pop":0},{"id":887963,"name":"Mafuto","lon":32.76667,"lat":-16.71667,"pop":0},{"id":7443209,"name":"Magarasadza","lon":31.57638,"lat":-19.06366,"pop":0},{"id":887951,"name":"Magazi","lon":28.53333,"lat":-19.01667,"pop":0},{"id":10942950,"name":"Maglas","lon":30.06062,"lat":-20.31795,"pop":0},{"id":7453771,"name":"Magombedze","lon":31.62491,"lat":-19.48616,"pop":0},{"id":7453476,"name":"Magondo","lon":31.82519,"lat":-19.34432,"pop":0},{"id":7370750,"name":"Magumbura","lon":29.38193,"lat":-16.76379,"pop":0},{"id":887908,"name":"Magunje","alt":["Magunge"],"lon":29.4145,"lat":-16.83412,"pop":0},{"id":1106081,"name":"Magwegwe","lon":28.50583,"lat":-20.13694,"pop":0},{"id":1105907,"name":"Magwegwe North","lon":28.49556,"lat":-20.1225,"pop":0},{"id":1105908,"name":"Magwegwe West","lon":28.49472,"lat":-20.13167,"pop":0},{"id":7507247,"name":"Magwiro","lon":31.66414,"lat":-19.85591,"pop":0},{"id":7464948,"name":"Mahambe","lon":27.88061,"lat":-19.9817,"pop":0},{"id":7370436,"name":"Mahau","lon":29.70755,"lat":-16.38705,"pop":0},{"id":7446879,"name":"Mahembe","lon":31.7673,"lat":-19.07859,"pop":0},{"id":887875,"name":"Mahlalayedwa","lon":27.01244,"lat":-19.34577,"pop":0},{"id":7465040,"name":"Mahlamombe","lon":27.5142,"lat":-19.81873,"pop":0},{"id":887873,"name":"Mahlosi","alt":["Madhlosi"],"lon":27.66719,"lat":-19.38947,"pop":0},{"id":7506998,"name":"Mahope","lon":31.76659,"lat":-19.70391,"pop":0},{"id":7453099,"name":"Mahove","lon":31.79327,"lat":-19.29079,"pop":0},{"id":7453102,"name":"Mahove","lon":31.77961,"lat":-19.29715,"pop":0},{"id":7464974,"name":"Mahula","lon":27.40652,"lat":-19.2989,"pop":0},{"id":887854,"name":"Mahusekwa","lon":31.19832,"lat":-18.30404,"pop":0},{"id":887853,"name":"Mahusekwa Township","lon":31.2,"lat":-18.31667,"pop":0},{"id":7507032,"name":"Maibire","lon":31.69194,"lat":-19.67914,"pop":0},{"id":1106399,"name":"Mainway Meadows","lon":31.04167,"lat":-17.90028,"pop":0},{"id":887832,"name":"Majabane","alt":["Mapengula"],"lon":27.46667,"lat":-19.38333,"pop":0},{"id":887831,"name":"Majabani","alt":["Zemandana"],"lon":27.5,"lat":-19.43333,"pop":0},{"id":7507226,"name":"Majaya","lon":31.56916,"lat":-19.97282,"pop":0},{"id":7371132,"name":"Majinjiwa","lon":29.37808,"lat":-16.87314,"pop":0},{"id":887809,"name":"Makado","lon":29.58333,"lat":-21.96667,"pop":0},{"id":887805,"name":"Makaha","lon":32.61667,"lat":-17.28333,"pop":0},{"id":7465059,"name":"Makala","lon":27.76863,"lat":-19.9556,"pop":0},{"id":7446880,"name":"Makamure","lon":31.70996,"lat":-19.165,"pop":0},{"id":8304225,"name":"Makamure","lon":31.66875,"lat":-19.67469,"pop":0},{"id":7370798,"name":"Makanyaire","lon":29.43991,"lat":-16.78677,"pop":0},{"id":7371180,"name":"Makanyaire","lon":29.32931,"lat":-16.95734,"pop":0},{"id":7370430,"name":"Makara","lon":29.72103,"lat":-16.36455,"pop":0},{"id":886054,"name":"Makaza","alt":["Mkasa"],"lon":32.27244,"lat":-20.66017,"pop":0},{"id":7464984,"name":"Makeni","lon":27.21855,"lat":-19.37552,"pop":0},{"id":887747,"name":"Makhaza","lon":27.7,"lat":-20.15,"pop":0},{"id":887748,"name":"Makhaza","lon":27.65,"lat":-19.93333,"pop":0},{"id":7507416,"name":"Makinhiwa","lon":31.85553,"lat":-19.91294,"pop":0},{"id":887745,"name":"Mako","lon":27.67018,"lat":-19.46179,"pop":0},{"id":1106098,"name":"Makokoba","lon":28.57528,"lat":-20.14194,"pop":0},{"id":1106389,"name":"Makokwe","lon":28.85556,"lat":-21.43333,"pop":0},{"id":7453066,"name":"Makombe","lon":31.52453,"lat":-19.18454,"pop":0},{"id":7507024,"name":"Makonese","lon":31.68193,"lat":-19.65245,"pop":0},{"id":887716,"name":"Makonis","lon":31.98333,"lat":-18.71667,"pop":0},{"id":7443202,"name":"Makono","lon":31.61419,"lat":-19.02364,"pop":0},{"id":887696,"name":"Makosa Township","alt":["Makosa Business Centre"],"lon":32.47352,"lat":-17.27239,"pop":0},{"id":887695,"name":"Makose","lon":32.71667,"lat":-17.21667,"pop":0},{"id":7371160,"name":"Makota","lon":29.24149,"lat":-16.97201,"pop":0},{"id":7453096,"name":"Makufa","lon":31.80947,"lat":-19.25521,"pop":0},{"id":7507019,"name":"Makufa","lon":31.71195,"lat":-19.66897,"pop":0},{"id":7507255,"name":"Makufa","lon":31.56948,"lat":-19.92564,"pop":0},{"id":887672,"name":"Makulukusa","alt":["Makulugusi"],"lon":27.61032,"lat":-19.72794,"pop":0},{"id":7371064,"name":"Makumba","lon":29.43089,"lat":-16.92269,"pop":0},{"id":7370799,"name":"Makumbi","lon":29.44508,"lat":-16.80108,"pop":0},{"id":7370590,"name":"Makuni","lon":29.9355,"lat":-16.60068,"pop":0},{"id":887648,"name":"Makuti","lon":29.25192,"lat":-16.31648,"pop":0},{"id":7417987,"name":"Makuvaza","lon":31.51655,"lat":-18.79471,"pop":0},{"id":7453778,"name":"Makuvaza","lon":31.56249,"lat":-19.54699,"pop":0},{"id":7507011,"name":"Makuvise","lon":31.7129,"lat":-19.62418,"pop":0},{"id":8304232,"name":"Makuvise","lon":31.53739,"lat":-19.62847,"pop":0},{"id":7371141,"name":"Makuwerere","lon":29.35029,"lat":-16.86483,"pop":0},{"id":887638,"name":"Makvlela","lon":27.23333,"lat":-19.93333,"pop":0},{"id":887616,"name":"Makwiro","alt":["Makwino","Makwira"],"lon":30.43333,"lat":-17.96667,"pop":0},{"id":887599,"name":"Malanda","lon":27.63333,"lat":-19.83333,"pop":0},{"id":887595,"name":"Malapati","lon":31.41667,"lat":-22.06667,"pop":0},{"id":887570,"name":"Malhera","lon":32.25,"lat":-20.38333,"pop":0},{"id":7319599,"name":"Mali","lon":29.10374,"lat":-19.00692,"pop":0},{"id":887563,"name":"Malila","lon":27.67798,"lat":-19.1896,"pop":0},{"id":1106138,"name":"Malindela","lon":28.60111,"lat":-20.185,"pop":0},{"id":887555,"name":"Malindi","lon":27.65572,"lat":-19.51758,"pop":0},{"id":887546,"name":"Maloba","lon":27.6308,"lat":-19.30234,"pop":0},{"id":7506528,"name":"Malole","lon":29.60368,"lat":-20.50925,"pop":0},{"id":887542,"name":"Malube","lon":30.68333,"lat":-18.3,"pop":0},{"id":887528,"name":"Malvern","lon":31.00028,"lat":-17.90139,"pop":0},{"id":7465067,"name":"Mamima","lon":27.61303,"lat":-19.96138,"pop":0},{"id":7507426,"name":"Mamutse","lon":31.85648,"lat":-19.96376,"pop":0},{"id":7454328,"name":"Mamvura","lon":31.90572,"lat":-19.75792,"pop":0},{"id":7507009,"name":"Mamvura","lon":31.77453,"lat":-19.71249,"pop":0},{"id":7507012,"name":"Mamvura","lon":31.66986,"lat":-19.62291,"pop":0},{"id":887499,"name":"Manala","lon":26.98333,"lat":-19.36667,"pop":0},{"id":7405268,"name":"Manana","lon":31.37478,"lat":-18.17647,"pop":0},{"id":7453796,"name":"Manangwa","lon":31.63523,"lat":-19.54715,"pop":0},{"id":887482,"name":"Mananzwa","alt":["Mahanzwa"],"lon":27.83489,"lat":-19.80774,"pop":0},{"id":7507305,"name":"Mandaba","lon":31.68447,"lat":-19.87847,"pop":0},{"id":887461,"name":"Mandamambwe","alt":["Mandamambge","Mandamombge"],"lon":30.36667,"lat":-20.11667,"pop":0},{"id":887451,"name":"Mandara","lon":31.15,"lat":-17.79139,"pop":0},{"id":7464942,"name":"Mandau","lon":27.14316,"lat":-19.47915,"pop":0},{"id":7507395,"name":"Mandaza","lon":31.84092,"lat":-19.91881,"pop":0},{"id":7371166,"name":"Mandina","lon":29.28913,"lat":-16.95084,"pop":0},{"id":7507446,"name":"Mandivenga","lon":31.96608,"lat":-19.85131,"pop":0},{"id":7507451,"name":"Mandivengereyi","lon":31.9772,"lat":-19.89785,"pop":0},{"id":7453080,"name":"Mandongwe","lon":31.51611,"lat":-19.2171,"pop":0},{"id":7453473,"name":"Mangoma","lon":31.75356,"lat":-19.40277,"pop":0},{"id":7507017,"name":"Mangonono","lon":31.8082,"lat":-19.74362,"pop":0},{"id":7453794,"name":"Mangoro","lon":31.58218,"lat":-19.59464,"pop":0},{"id":887382,"name":"Manguta","lon":27.33671,"lat":-19.41166,"pop":0},{"id":7464985,"name":"Mangutana","lon":27.35015,"lat":-19.38362,"pop":0},{"id":7371183,"name":"Mangwaira","lon":29.32943,"lat":-16.96467,"pop":0},{"id":887375,"name":"Mangwatu","alt":["Mangwalu"],"lon":27.69523,"lat":-19.17462,"pop":0},{"id":887374,"name":"Mangwe","lon":28.06667,"lat":-20.7,"pop":0},{"id":7507122,"name":"Mangwena","lon":31.5474,"lat":-19.65102,"pop":0},{"id":887368,"name":"Mangwendi","alt":["Mangwende"],"lon":31.35,"lat":-18.38333,"pop":0},{"id":7507039,"name":"Mangwiro","lon":31.81741,"lat":-19.76443,"pop":0},{"id":887346,"name":"Manjelengwa","lon":27.37096,"lat":-19.26758,"pop":0},{"id":7443430,"name":"Manjengwa","lon":31.71123,"lat":-19.09702,"pop":0},{"id":7405727,"name":"Manjonjo","lon":30.96879,"lat":-18.88696,"pop":0},{"id":887334,"name":"Mankonekazi","alt":["Mankonekaze"],"lon":27.55605,"lat":-19.478,"pop":0},{"id":1106171,"name":"Manningdale","lon":28.68167,"lat":-20.21222,"pop":0},{"id":887327,"name":"Manondweni","lon":27.28813,"lat":-19.48283,"pop":0},{"id":1106427,"name":"Manresa","lon":31.1975,"lat":-17.81917,"pop":0},{"id":7507317,"name":"Manyadza","lon":31.73498,"lat":-19.88371,"pop":0},{"id":7465024,"name":"Manyanda","lon":27.57445,"lat":-19.78381,"pop":0},{"id":7507343,"name":"Manyanye","lon":31.63206,"lat":-19.98266,"pop":0},{"id":887287,"name":"Manyati","lon":29.98333,"lat":-16.51667,"pop":0},{"id":7464938,"name":"Manyenge","lon":27.66922,"lat":-19.41043,"pop":0},{"id":7453860,"name":"Manyengwa","lon":31.70003,"lat":-19.61147,"pop":0},{"id":7442594,"name":"Manyere","lon":31.51734,"lat":-18.92352,"pop":0},{"id":7443213,"name":"Manyere","lon":31.54287,"lat":-19.14435,"pop":0},{"id":7351834,"name":"Manyika","lon":31.53965,"lat":-16.92246,"pop":0},{"id":7464991,"name":"Manyika","lon":27.59553,"lat":-19.3658,"pop":0},{"id":887253,"name":"Manzamahle","lon":27.80878,"lat":-19.7603,"pop":0},{"id":887254,"name":"Manzamahle","alt":["Manzemuhle"],"lon":27.64256,"lat":-19.4267,"pop":0},{"id":7465029,"name":"Manzamnyama","lon":27.41167,"lat":-19.76884,"pop":0},{"id":7370412,"name":"Mapaima","lon":29.6598,"lat":-16.30814,"pop":0},{"id":11351983,"name":"Mapako","lon":31.13317,"lat":-19.97726,"pop":0},{"id":7465031,"name":"Mapane","lon":27.43859,"lat":-19.80993,"pop":0},{"id":7370375,"name":"Mapangwe Mission","lon":32.66533,"lat":-20.50847,"pop":0},{"id":11258502,"name":"Mapanzure","lon":30.86639,"lat":-20.39962,"pop":0},{"id":7374108,"name":"Mapedza Mission","lon":30.30422,"lat":-20.519,"pop":0},{"id":887202,"name":"Mapengula","alt":["Sibanjiba"],"lon":27.42956,"lat":-19.36361,"pop":0},{"id":7507420,"name":"Maperezano","lon":31.87936,"lat":-19.93168,"pop":0},{"id":7507418,"name":"Mapfume","lon":31.89603,"lat":-19.92215,"pop":0},{"id":7453776,"name":"Mapfumo","lon":31.6697,"lat":-19.50839,"pop":0},{"id":7453832,"name":"Mapfumo","lon":31.83028,"lat":-19.47091,"pop":0},{"id":7507043,"name":"Mapfumo","lon":31.74149,"lat":-19.7217,"pop":0},{"id":7507274,"name":"Mapfumo","lon":31.63523,"lat":-19.96964,"pop":0},{"id":7453475,"name":"Mapfungautsi","lon":31.7539,"lat":-19.47403,"pop":0},{"id":7371581,"name":"Mapfurutva","lon":29.45442,"lat":-16.79094,"pop":0},{"id":887185,"name":"Mapili","lon":27.71667,"lat":-19.41667,"pop":0},{"id":7464993,"name":"Mapilibomvu","lon":27.71544,"lat":-19.40434,"pop":0},{"id":8300667,"name":"Mapiravana","lon":30.50695,"lat":-19.48965,"pop":0},{"id":7370740,"name":"Maplanka","lon":29.4268,"lat":-16.74611,"pop":0},{"id":887175,"name":"Mapolisa","lon":28.08333,"lat":-21.5,"pop":0},{"id":7507463,"name":"Maptumo","lon":31.80185,"lat":-19.98489,"pop":0},{"id":887168,"name":"Mapulubusi","alt":["Mpulubuzi"],"lon":27.74633,"lat":-19.67304,"pop":0},{"id":7370631,"name":"Mapungantsi","lon":29.84925,"lat":-16.55521,"pop":0},{"id":7465064,"name":"Maputata","lon":27.68759,"lat":-19.92707,"pop":0},{"id":7507340,"name":"Mapxere","lon":31.74356,"lat":-19.91675,"pop":0},{"id":7464994,"name":"Maqetuka","lon":27.603,"lat":-19.52964,"pop":0},{"id":887128,"name":"Maramani","alt":["Maranami"],"lon":29.36667,"lat":-22.01667,"pop":0},{"id":7454318,"name":"Marambanyika","lon":31.95734,"lat":-19.49029,"pop":0},{"id":7453750,"name":"Maramwidze","lon":31.51007,"lat":-19.49171,"pop":0},{"id":7523420,"name":"Maraposa","lon":28.39163,"lat":-19.62099,"pop":0},{"id":7507302,"name":"Mari","lon":31.67859,"lat":-19.84162,"pop":0},{"id":7507385,"name":"Marima","lon":31.79613,"lat":-19.9528,"pop":0},{"id":887049,"name":"Marimba Park","alt":["Rukodora"],"lon":30.94611,"lat":-17.86083,"pop":0},{"id":7351883,"name":"Marimira","lon":31.52113,"lat":-16.95338,"pop":0},{"id":1106029,"name":"Marlands","lon":28.67139,"lat":-20.16833,"pop":0},{"id":887002,"name":"Marlborough","lon":31.00806,"lat":-17.74681,"pop":0},{"id":7507086,"name":"Marodze","lon":31.65874,"lat":-19.66405,"pop":0},{"id":886990,"name":"Marondera","alt":["Marandellas"],"lon":31.55193,"lat":-18.18527,"pop":66203},{"id":8300446,"name":"Marongora","lon":29.16373,"lat":-16.22021,"pop":0},{"id":886983,"name":"Marongwe","lon":31.53333,"lat":-16.23333,"pop":0},{"id":7371142,"name":"Marova","lon":29.27908,"lat":-16.87013,"pop":0},{"id":10942502,"name":"Marowa","lon":31.55364,"lat":-18.19721,"pop":0},{"id":886961,"name":"Marshbrook","lon":31.05,"lat":-18.56667,"pop":0},{"id":7453087,"name":"Marume","lon":31.68622,"lat":-19.17532,"pop":0},{"id":1106006,"name":"Marvel","lon":28.64472,"lat":-20.11917,"pop":0},{"id":1106008,"name":"Marvel A","lon":28.65083,"lat":-20.13694,"pop":0},{"id":886930,"name":"Maryland Junction","alt":["Maryland"],"lon":30.48333,"lat":-17.65,"pop":0},{"id":7371186,"name":"Masanga","lon":29.36407,"lat":-16.98609,"pop":0},{"id":8304253,"name":"Masarire","lon":31.69336,"lat":-19.95058,"pop":0},{"id":7465052,"name":"Masekesa","lon":27.71087,"lat":-19.85951,"pop":0},{"id":8304065,"name":"Masenda","lon":31.82885,"lat":-19.45471,"pop":0},{"id":7385181,"name":"Masenda Township","lon":32.22464,"lat":-17.21319,"pop":0},{"id":886877,"name":"Mashaba","lon":28.93333,"lat":-21.65,"pop":0},{"id":7464964,"name":"Mashake","lon":27.71469,"lat":-19.22667,"pop":0},{"id":7507242,"name":"Mashako","lon":31.6643,"lat":-19.83828,"pop":0},{"id":1106530,"name":"Mashambahaka School","lon":31.35639,"lat":-17.5975,"pop":0},{"id":886868,"name":"Mashami","lon":28.8,"lat":-17.06667,"pop":0},{"id":7453474,"name":"Mashandu","lon":31.76074,"lat":-19.46501,"pop":0},{"id":886864,"name":"Mashava","alt":["Mashaba"],"lon":30.48225,"lat":-20.03665,"pop":12994},{"id":7370753,"name":"Mashayamambe","lon":29.35054,"lat":-16.74984,"pop":0},{"id":7443212,"name":"Mashingaidze","lon":31.56908,"lat":-19.16119,"pop":0},{"id":7453089,"name":"Mashinya","lon":31.74657,"lat":-19.17453,"pop":0},{"id":7506999,"name":"Mashizha","lon":31.82027,"lat":-19.70757,"pop":0},{"id":886836,"name":"Mashula","alt":["Mashule"],"lon":27.38769,"lat":-19.34142,"pop":0},{"id":7370316,"name":"Masikote","lon":29.73654,"lat":-16.06443,"pop":0},{"id":7507100,"name":"Masiyandima","lon":31.58155,"lat":-19.68152,"pop":0},{"id":8304040,"name":"Masocha","lon":31.75912,"lat":-19.21122,"pop":0},{"id":7405716,"name":"Masoka","lon":31.37027,"lat":-18.84033,"pop":0},{"id":886810,"name":"Masole","lon":29.4,"lat":-21.85,"pop":0},{"id":886763,"name":"Masvingo","alt":["Fort Victoria","MVZ","Mashvingo","Nyanda","Машвинго"],"lon":30.82766,"lat":-20.06373,"pop":90286},{"id":7453442,"name":"Masvingo","lon":31.87364,"lat":-19.40928,"pop":0},{"id":886744,"name":"Mataka","alt":["Mataga"],"lon":30.2,"lat":-20.84507,"pop":0},{"id":7371062,"name":"Matamba","lon":29.46673,"lat":-16.91981,"pop":0},{"id":7507005,"name":"Matamba","lon":31.76563,"lat":-19.66913,"pop":0},{"id":7453805,"name":"Matambo","lon":31.62856,"lat":-19.57431,"pop":0},{"id":8304223,"name":"Mataruse","lon":31.76801,"lat":-19.6569,"pop":0},{"id":7453468,"name":"Mataswa","lon":31.78501,"lat":-19.44756,"pop":0},{"id":886697,"name":"Matemaganyu","alt":["Matemaganya","Mtemaganyu"],"lon":27.47356,"lat":-19.45822,"pop":0},{"id":886695,"name":"Matemawule","alt":["Mademauli"],"lon":27.62948,"lat":-19.34764,"pop":0},{"id":7507002,"name":"Matendere","lon":31.82519,"lat":-19.62545,"pop":0},{"id":7453834,"name":"Matereke","lon":31.83742,"lat":-19.50172,"pop":0},{"id":7370628,"name":"Matesanwa","lon":29.84095,"lat":-16.56026,"pop":0},{"id":7453414,"name":"Mateverere","lon":31.97148,"lat":-19.30985,"pop":0},{"id":886670,"name":"Matibi","lon":30.65,"lat":-22.08333,"pop":0},{"id":886664,"name":"Matibis","lon":31.31667,"lat":-21.68333,"pop":0},{"id":1106446,"name":"Matidoda Park","lon":30.96861,"lat":-17.80639,"pop":0},{"id":7370788,"name":"Matimba","lon":29.26886,"lat":-16.84222,"pop":0},{"id":7507236,"name":"Matingwadza","lon":31.63333,"lat":-19.87212,"pop":0},{"id":886649,"name":"Matinka","lon":27.98333,"lat":-17.48333,"pop":0},{"id":7453068,"name":"Matinyanga","lon":31.53882,"lat":-19.17437,"pop":0},{"id":886642,"name":"Matiwaza","lon":27.4,"lat":-19.96667,"pop":0},{"id":1106394,"name":"Matoba","lon":30.75833,"lat":-19.89444,"pop":0},{"id":886634,"name":"Matole","lon":27.85,"lat":-20.6,"pop":0},{"id":886635,"name":"Matole","alt":["Mtole"],"lon":27.54883,"lat":-19.64447,"pop":0},{"id":8304221,"name":"Matombo","lon":31.80995,"lat":-19.70772,"pop":0},{"id":7453467,"name":"Matombomaviri","lon":31.76929,"lat":-19.43183,"pop":0},{"id":7523430,"name":"Matonjeka","lon":27.55259,"lat":-19.78008,"pop":0},{"id":886623,"name":"Matopos","alt":["Matobo","Matombo"],"lon":28.4778,"lat":-20.40885,"pop":0},{"id":7507278,"name":"Matorere II","lon":31.65143,"lat":-19.89769,"pop":0},{"id":7507372,"name":"Matotote","lon":31.82091,"lat":-19.86799,"pop":0},{"id":886590,"name":"Matsheumhlope","lon":28.63611,"lat":-20.19306,"pop":0},{"id":886587,"name":"Matsheumhlope Lots","lon":28.63333,"lat":-20.18333,"pop":0},{"id":1106093,"name":"Matshobana","lon":28.5525,"lat":-20.13806,"pop":0},{"id":7371072,"name":"Matsika","lon":29.4861,"lat":-16.86399,"pop":0},{"id":7370406,"name":"Matsikita","lon":29.78574,"lat":-16.32883,"pop":0},{"id":886569,"name":"Matswaheni","alt":["Matshwaheni"],"lon":27.60978,"lat":-19.76764,"pop":0},{"id":886568,"name":"Matswaire","alt":["Nyamweda"],"lon":30.69796,"lat":-18.17792,"pop":0},{"id":7465051,"name":"Matula","lon":27.75725,"lat":-19.86616,"pop":0},{"id":7464933,"name":"Matule","lon":27.67723,"lat":-19.03655,"pop":0},{"id":7507431,"name":"Matunzeni","lon":31.92078,"lat":-19.9717,"pop":0},{"id":7507251,"name":"Mauto","lon":31.60061,"lat":-19.89356,"pop":0},{"id":7453084,"name":"Mavairi","lon":31.67272,"lat":-19.18596,"pop":0},{"id":886518,"name":"Mavele","lon":27.16667,"lat":-18.61667,"pop":0},{"id":7453105,"name":"Mavuka","lon":31.8109,"lat":-19.30858,"pop":0},{"id":7418012,"name":"Maware","lon":31.5574,"lat":-18.84628,"pop":0},{"id":7507299,"name":"Mawindo","lon":31.72783,"lat":-19.81605,"pop":0},{"id":7453894,"name":"Mawire","lon":31.77453,"lat":-19.47202,"pop":0},{"id":7465041,"name":"Mayeza","lon":27.52733,"lat":-19.84656,"pop":0},{"id":1085475,"name":"Mayfield Park","lon":31.01389,"lat":-17.78861,"pop":0},{"id":886427,"name":"Mazabisa","alt":["Mazabiza"],"lon":27.65449,"lat":-19.69844,"pop":0},{"id":7507277,"name":"Mazambara","lon":31.65953,"lat":-19.92517,"pop":0},{"id":7507341,"name":"Mazano","lon":31.71798,"lat":-19.91945,"pop":0},{"id":886420,"name":"Mazanzi","lon":27.63333,"lat":-19.33333,"pop":0},{"id":7453798,"name":"Mazhawidza","lon":31.58393,"lat":-19.55382,"pop":0},{"id":886405,"name":"Mazibulala","lon":27.32031,"lat":-19.46933,"pop":0},{"id":886404,"name":"Mazilingana","alt":["Masilingana"],"lon":27.16108,"lat":-19.40737,"pop":0},{"id":7371147,"name":"Mazindora","lon":29.33724,"lat":-16.91512,"pop":0},{"id":7405419,"name":"Mazivakufa","lon":30.67683,"lat":-18.24295,"pop":0},{"id":7371185,"name":"Maziza","lon":29.39582,"lat":-16.94447,"pop":0},{"id":886384,"name":"Mazowe","lon":30.97388,"lat":-17.50404,"pop":9966},{"id":7370801,"name":"Mazrimbakupa","lon":29.46854,"lat":-16.85184,"pop":0},{"id":886380,"name":"Mazunga","alt":["Mazunga Ranch Headquarters"],"lon":29.86667,"lat":-21.73333,"pop":0},{"id":7370344,"name":"Mazunga","lon":29.57548,"lat":-16.14551,"pop":0},{"id":7453100,"name":"Mazungunye","lon":31.78422,"lat":-19.28984,"pop":0},{"id":7507397,"name":"Mazvimba","lon":31.82694,"lat":-19.95344,"pop":0},{"id":886758,"name":"Mazwi","alt":["Maswi"],"lon":27.50802,"lat":-19.29779,"pop":0},{"id":7523428,"name":"Mbahulana","lon":27.51704,"lat":-19.69948,"pop":0},{"id":886362,"name":"Mbalabala","alt":["Balabala","Balla Balla"],"lon":29.04819,"lat":-20.44098,"pop":0},{"id":886357,"name":"Mbamba","lon":27.77937,"lat":-19.91329,"pop":0},{"id":7465061,"name":"Mbambo","lon":27.78718,"lat":-19.92059,"pop":0},{"id":886348,"name":"Mbanyana","alt":["Mbanuana"],"lon":27.65494,"lat":-19.32859,"pop":0},{"id":1106398,"name":"Mbare","lon":31.03722,"lat":-17.85806,"pop":0},{"id":7405266,"name":"Mbefara","lon":31.31056,"lat":-18.169,"pop":0},{"id":886329,"name":"Mberengwa","alt":["Belingwe"],"lon":29.90849,"lat":-20.4772,"pop":0},{"id":7371070,"name":"Mberero","lon":29.46421,"lat":-16.86255,"pop":0},{"id":7507396,"name":"Mberi","lon":31.84425,"lat":-19.93088,"pop":0},{"id":7453411,"name":"Mberikanashe","lon":31.90191,"lat":-19.26379,"pop":0},{"id":886312,"name":"Mbiriya","alt":["Mabiriya"],"lon":27.25709,"lat":-19.66485,"pop":0},{"id":886309,"name":"Mbizi","lon":31.01426,"lat":-21.38586,"pop":0},{"id":886307,"name":"Mbizo","lon":28.86667,"lat":-21.51667,"pop":0},{"id":886306,"name":"Mbizo African Township","alt":["Mbizo Township"],"lon":29.84981,"lat":-18.90512,"pop":0},{"id":886308,"name":"Mbizo I","alt":["Mbiza","Mbizo"],"lon":27.51472,"lat":-19.21075,"pop":0},{"id":7464962,"name":"Mbizo II","lon":27.50979,"lat":-19.23654,"pop":0},{"id":7465062,"name":"Mbowani","lon":27.83321,"lat":-19.87526,"pop":0},{"id":886289,"name":"Mbungu Settlement","lon":28.02617,"lat":-18.40713,"pop":0},{"id":7465017,"name":"Mbute","lon":27.74104,"lat":-19.77606,"pop":0},{"id":886275,"name":"Mcetshwa","lon":27.60897,"lat":-19.33635,"pop":0},{"id":7465050,"name":"Mehlobamyo","lon":27.78666,"lat":-19.85566,"pop":0},{"id":7465054,"name":"Mehlobomvo","lon":27.79821,"lat":-19.84551,"pop":0},{"id":1106546,"name":"Melfort","lon":31.31944,"lat":-17.99528,"pop":0},{"id":886227,"name":"Melsetter Junction","alt":["Junction Tea Room"],"lon":32.64823,"lat":-19.53053,"pop":0},{"id":886225,"name":"Melton","lon":29.93333,"lat":-18.1,"pop":0},{"id":7465028,"name":"Menyezwa II","lon":27.46222,"lat":-19.74351,"pop":0},{"id":886178,"name":"Meyrick Park","lon":31.00261,"lat":-17.80166,"pop":0},{"id":886167,"name":"Mgadzi","lon":31.71667,"lat":-16.93333,"pop":0},{"id":886158,"name":"Mgodi Masili","alt":["Magodi Masili"],"lon":27.30719,"lat":-19.75442,"pop":0},{"id":7453830,"name":"Mhaka","lon":31.80709,"lat":-19.46646,"pop":0},{"id":7507294,"name":"Mhakore","lon":31.69908,"lat":-19.81621,"pop":0},{"id":886146,"name":"Mhangura","alt":["Mangula"],"lon":30.16828,"lat":-16.89387,"pop":6503},{"id":7507090,"name":"Mharadze","lon":31.61919,"lat":-19.66595,"pop":0},{"id":7507399,"name":"Mhazo","lon":31.83822,"lat":-19.94661,"pop":0},{"id":7507362,"name":"Mhazvo","lon":31.76214,"lat":-19.88435,"pop":0},{"id":7507423,"name":"Mhedzano","lon":31.86871,"lat":-19.94899,"pop":0},{"id":7453426,"name":"Mhereyenyoka","lon":32.00293,"lat":-19.39213,"pop":0},{"id":7446881,"name":"Mhizha","lon":31.72791,"lat":-19.0913,"pop":0},{"id":7465008,"name":"Mhlatshwa","lon":27.47849,"lat":-19.66317,"pop":0},{"id":11822469,"name":"Mhombera Estate","lon":31.14969,"lat":-16.99286,"pop":0},{"id":7507358,"name":"Mhuru","lon":31.80534,"lat":-19.83527,"pop":0},{"id":1105886,"name":"Miasi","lon":28.26944,"lat":-20.05111,"pop":0},{"id":7370418,"name":"Micher","lon":29.97195,"lat":-16.42458,"pop":0},{"id":886120,"name":"Midlands","alt":["Shortson"],"lon":31.01417,"lat":-17.90444,"pop":0},{"id":886108,"name":"Milan","lon":29.91667,"lat":-18.13333,"pop":0},{"id":886106,"name":"Millievale","lon":28.33717,"lat":-20.20484,"pop":0},{"id":886101,"name":"Milton Park","lon":31.02472,"lat":-17.81472,"pop":0},{"id":7507098,"name":"Miraikumwe","lon":31.66096,"lat":-19.70185,"pop":0},{"id":7371140,"name":"Mjikachi","lon":29.32768,"lat":-16.86556,"pop":0},{"id":886059,"name":"Mjumi","alt":["Majumi"],"lon":27.70465,"lat":-19.20802,"pop":0},{"id":886049,"name":"Mkauzaan","alt":["Nkanzaan"],"lon":27.07239,"lat":-19.56316,"pop":0},{"id":886047,"name":"Mketwa","alt":["Miketwa"],"lon":27.66628,"lat":-19.27911,"pop":0},{"id":886044,"name":"Mkoba","lon":29.76667,"lat":-19.46667,"pop":0},{"id":886045,"name":"Mkoba","lon":29.75,"lat":-19.46667,"pop":0},{"id":11257224,"name":"Mkoba 12","lon":29.76274,"lat":-19.4536,"pop":0},{"id":11467808,"name":"Mkoba 13","lon":29.751,"lat":-19.459,"pop":0},{"id":886039,"name":"Mkombo","lon":27.72401,"lat":-19.62638,"pop":0},{"id":886027,"name":"Mkubazi","lon":27.68437,"lat":-19.62553,"pop":0},{"id":7405755,"name":"Mkumbi","lon":31.4389,"lat":-18.97415,"pop":0},{"id":7522740,"name":"Mlagisa","lon":27.68963,"lat":-19.13222,"pop":0},{"id":7465022,"name":"Mloyi","lon":27.64639,"lat":-19.72644,"pop":0},{"id":1085463,"name":"Mon Abri","lon":31.09333,"lat":-17.745,"pop":0},{"id":7507464,"name":"Mondo","lon":31.79073,"lat":-19.98012,"pop":0},{"id":8304066,"name":"Mondo","lon":31.55852,"lat":-19.44406,"pop":0},{"id":885772,"name":"Monema","alt":["Mowonema"],"lon":27.45277,"lat":-19.48749,"pop":0},{"id":885933,"name":"Monovale","alt":["Monavale"],"lon":31.01667,"lat":-17.80472,"pop":0},{"id":11523383,"name":"Montagu Centre","lon":31.03769,"lat":-17.81432,"pop":0},{"id":1105992,"name":"Montgomery","lon":28.67338,"lat":-20.0997,"pop":0},{"id":1106119,"name":"Montrose","lon":28.5675,"lat":-20.20083,"pop":0},{"id":885835,"name":"Mormon Hill","lon":29.88333,"lat":-16.73333,"pop":0},{"id":1106132,"name":"Morningside","lon":28.57722,"lat":-20.20194,"pop":0},{"id":7418149,"name":"Morningside","lon":32.69441,"lat":-18.95556,"pop":0},{"id":885800,"name":"Mount Darwin","alt":["Darwin","Fura","Mount Fura"],"lon":31.58381,"lat":-16.77251,"pop":6349},{"id":885792,"name":"Mount Hampden","alt":["Mount Hampden Junction","Mount Hampton","Musitkwe"],"lon":30.93889,"lat":-17.74167,"pop":0},{"id":885786,"name":"Mount Pleasant","lon":31.04765,"lat":-17.76371,"pop":0},{"id":1085482,"name":"Mount Pleasant Park","lon":31.04194,"lat":-17.75667,"pop":0},{"id":7505403,"name":"Mount Royal","lon":29.34467,"lat":-20.07376,"pop":0},{"id":885771,"name":"Moyeni","lon":27.60809,"lat":-19.48626,"pop":0},{"id":7370555,"name":"Mpagari","lon":29.67038,"lat":-16.46271,"pop":0},{"id":7370549,"name":"Mpakati","lon":29.65751,"lat":-16.47269,"pop":0},{"id":7464987,"name":"Mpandamanzi","lon":27.48233,"lat":-19.40226,"pop":0},{"id":7522742,"name":"Mpanedziba","lon":27.57314,"lat":-19.46198,"pop":0},{"id":7465032,"name":"Mpaniwenyama","lon":27.37702,"lat":-19.7926,"pop":0},{"id":885747,"name":"Mpate","lon":28.4,"lat":-20.61667,"pop":0},{"id":885739,"name":"Mphoengs","alt":["Mphoeng","Mphoweng"],"lon":27.85,"lat":-21.2,"pop":0},{"id":885738,"name":"Mpilo","lon":26.96667,"lat":-19.66667,"pop":0},{"id":885729,"name":"Mpinjwana","alt":["Mpinjwani"],"lon":27.64714,"lat":-19.11741,"pop":0},{"id":885720,"name":"Mpopoma","lon":28.54083,"lat":-20.145,"pop":0},{"id":1106090,"name":"Mpopomo South","lon":28.53667,"lat":-20.1525,"pop":0},{"id":7416940,"name":"Mpotedzi","lon":32.82373,"lat":-18.54973,"pop":0},{"id":885702,"name":"Mrazor","lon":29.41667,"lat":-16.9,"pop":0},{"id":1106432,"name":"Msasa","lon":31.11611,"lat":-17.84056,"pop":0},{"id":1106433,"name":"Msasa Park","lon":31.10972,"lat":-17.855,"pop":0},{"id":885644,"name":"Msonedi","alt":["Msonneddi","Muswewenhede"],"lon":30.9,"lat":-17.13333,"pop":0},{"id":885631,"name":"Mtampane","alt":["Ntampane"],"lon":27.36283,"lat":-19.49016,"pop":0},{"id":885616,"name":"Mtawalos","alt":["Mtawalos Village"],"lon":27.52288,"lat":-18.9486,"pop":0},{"id":1085464,"name":"Mtendere","lon":31.1,"lat":-17.75056,"pop":0},{"id":7371143,"name":"Mtinha","lon":29.26441,"lat":-16.91043,"pop":0},{"id":7405757,"name":"Mtoredzanwe","lon":31.48209,"lat":-18.92407,"pop":0},{"id":885566,"name":"Mtshayeli","alt":["Tshayile"],"lon":27.33613,"lat":-19.30562,"pop":0},{"id":885554,"name":"Mtsuli","lon":27.41667,"lat":-19.96667,"pop":0},{"id":7507339,"name":"Mubako","lon":31.75928,"lat":-19.97965,"pop":0},{"id":885535,"name":"Mubayira","lon":30.5929,"lat":-18.31469,"pop":0},{"id":885534,"name":"Mubayira Township Reserve","lon":30.6,"lat":-18.31667,"pop":0},{"id":7507417,"name":"Mubungare","lon":31.86617,"lat":-19.91786,"pop":0},{"id":7507052,"name":"Muchabaiwa","lon":31.73339,"lat":-19.73759,"pop":0},{"id":7507412,"name":"Muchadeharna","lon":31.90112,"lat":-19.85925,"pop":0},{"id":7507054,"name":"Muchakata","lon":31.68113,"lat":-19.75236,"pop":0},{"id":7453756,"name":"Muchaparawa","lon":31.53914,"lat":-19.5022,"pop":0},{"id":7342605,"name":"Muchato","lon":31.51915,"lat":-17.77604,"pop":0},{"id":885517,"name":"Mucheke Township","lon":30.81667,"lat":-20.08333,"pop":0},{"id":7453788,"name":"Muchemwa","lon":31.54803,"lat":-19.611,"pop":0},{"id":7443215,"name":"Muchena","lon":31.60212,"lat":-19.09845,"pop":0},{"id":7507221,"name":"Muchenga","lon":31.53374,"lat":-19.93247,"pop":0},{"id":7370795,"name":"Muchidzagora","lon":29.36689,"lat":-16.84246,"pop":0},{"id":7453801,"name":"Muchinapo","lon":31.59362,"lat":-19.57177,"pop":0},{"id":7418015,"name":"Muchineripi","lon":31.52526,"lat":-18.87172,"pop":0},{"id":7453065,"name":"Muchiriri-Zenda","lon":31.54343,"lat":-19.19708,"pop":0},{"id":7370742,"name":"Muchororinga","lon":29.43474,"lat":-16.75224,"pop":0},{"id":8304096,"name":"Muchuchu","lon":31.88269,"lat":-19.50251,"pop":0},{"id":12047251,"name":"Muchuweni","lon":31.66206,"lat":-19.22669,"pop":0},{"id":1106386,"name":"Mucibwa","lon":31.11389,"lat":-20.61389,"pop":0},{"id":7453518,"name":"Mudadi","lon":31.54327,"lat":-19.43072,"pop":0},{"id":7507080,"name":"Mudakureva","lon":31.65667,"lat":-19.67056,"pop":0},{"id":12047291,"name":"Mudanda","lon":31.71595,"lat":-19.37564,"pop":0},{"id":7507245,"name":"Mudawu","lon":31.67129,"lat":-19.8332,"pop":0},{"id":7507070,"name":"Mudedye","lon":31.64063,"lat":-19.72472,"pop":0},{"id":7370800,"name":"Mudema","lon":29.47828,"lat":-16.84054,"pop":0},{"id":7507248,"name":"Muderedzwa","lon":31.66811,"lat":-19.85274,"pop":0},{"id":7507013,"name":"Mudite","lon":31.7893,"lat":-19.72361,"pop":0},{"id":8304227,"name":"Mudodiwa","lon":31.7723,"lat":-19.77094,"pop":0},{"id":7507049,"name":"Mudodo","lon":31.70957,"lat":-19.75331,"pop":0},{"id":7507457,"name":"Muduma","lon":31.95115,"lat":-19.97154,"pop":0},